%time,field.header.seq,field.header.stamp,field.header.frame_id,field.twist.linear.x,field.twist.linear.y,field.twist.linear.z,field.twist.angular.x,field.twist.angular.y,field.twist.angular.z
27595154735,1710,27592000000,world,1.39801243921e-05,2.71067296977e-05,-2.63842190949e-05,-5.55211117744e-05,1.68135101075e-05,-6.05649941153e-05
27605327023,1711,27608000000,world,2.09331034053e-05,2.31759129572e-05,-2.19155121888e-05,-5.41994516529e-05,1.85923978447e-05,-6.1956119231e-05
27615495609,1712,27624000000,world,2.27600085529e-05,2.08612615502e-05,-1.93845156786e-05,-5.48260655862e-05,1.89492102027e-05,-6.20099434153e-05
27635658744,1713,27640000000,world,2.29719400708e-05,2.00717489573e-05,-1.85653198285e-05,-5.69282555946e-05,1.88385548194e-05,-6.12961506628e-05
27655818448,1714,27656000000,world,2.29603656594e-05,1.88094637968e-05,-1.72534176867e-05,-4.79059703445e-05,1.89099682325e-05,-6.00958812601e-05
27665873734,1715,27672000000,world,-1.08237086817e-05,-8.07259747855e-06,7.26612332212e-06,-3.53776037718e-05,1.24343655301e-05,-5.52563778541e-05
27696043356,1716,27688000000,world,2.20778568385e-05,1.61057464147e-05,-1.44174648025e-05,-5.09386286417e-05,1.88056052048e-05,-5.70680532943e-05
27716157039,1717,27704000000,world,1.95752952706e-05,1.4552125904e-05,-1.31617157068e-05,-4.38541693891e-05,1.79936533687e-05,-5.49385297596e-05
27726218968,1718,27720000000,world,1.57191909215e-05,1.16426857385e-05,-1.05464960833e-05,-4.32906591838e-05,1.52335795662e-05,-5.34808721444e-05
27726218968,1719,27736000000,world,1.01360437039e-05,8.91066847233e-06,-8.5173733682e-06,-4.24747131773e-05,1.11211707587e-05,-5.24142112858e-05
27746458410,1720,27752000000,world,4.11659072485e-06,6.58876277944e-06,-7.02798096094e-06,-3.51748077841e-05,6.33636127485e-06,-5.16558207452e-05
27766703743,1721,27768000000,world,5.16395456681e-07,5.73166116482e-06,-6.81979431292e-06,-3.60850173158e-05,2.73437342632e-06,-5.13930530625e-05
27776760605,1722,27784000000,world,-5.8364026337e-06,-2.58076541896e-05,2.99136844499e-05,-1.85089842086e-05,1.50033090904e-07,-5.06718977191e-05
27796875197,1723,27800000000,world,-5.0596477464e-06,6.94852321462e-06,-9.52613163178e-06,-3.96342184795e-05,-3.59522252316e-06,-5.09513596115e-05
27816993662,1724,27816000000,world,-8.40271192193e-06,8.4308315714e-06,-1.19741408487e-05,-2.78058002319e-05,-7.16271819396e-06,-5.06345016061e-05
27847202693,1725,27840000000,world,1.19515941971e-05,-1.36793699888e-05,1.90342807369e-05,-1.58642754281e-05,-6.81707060487e-06,-5.32606627357e-05
27847202693,1726,27848000000,world,-1.34030854943e-05,1.18862786348e-05,-1.71641059502e-05,-3.30681306474e-05,-1.27878888463e-05,-5.00185959849e-05
27867564914,1727,27864000000,world,-1.46552252074e-05,1.33413650103e-05,-1.91132598437e-05,-2.61280801354e-05,-1.45899765563e-05,-4.96119953192e-05
27877653507,1728,27880000000,world,-1.50538245338e-05,1.41904440435e-05,-2.02106869265e-05,-2.93097786788e-05,-1.54665635749e-05,-4.93313852522e-05
27887710948,1729,27896000000,world,-1.5352083455e-05,1.54036416014e-05,-2.17533025266e-05,-3.22956414094e-05,-1.66441092418e-05,-4.90126048755e-05
27907844619,1730,27912000000,world,-1.52724321461e-05,1.64977351372e-05,-2.30342205925e-05,-2.4930048841e-05,-1.76994057502e-05,-4.87818493452e-05
27927955476,1731,27928000000,world,-1.47045587627e-05,1.83498639007e-05,-2.51196078992e-05,-2.80237996456e-05,-1.90175277248e-05,-4.84864427098e-05
27948050255,1732,27944000000,world,-1.24716060036e-05,2.10342687017e-05,-2.77652149042e-05,-3.15857009661e-05,-1.94374428612e-05,-4.8055167423e-05
27958107272,1733,27960000000,world,-8.2188978811e-06,2.36029371044e-05,-2.97418364348e-05,-2.38514709821e-05,-1.94227374993e-05,-4.78355699186e-05
27978192729,1734,27976000000,world,9.99237445083e-07,2.57388348909e-05,-3.02293391991e-05,-2.64988283095e-05,-1.8485630419e-05,-4.83515699819e-05
27988252300,1735,27992000000,world,5.36111869017e-06,2.57817476159e-05,-2.97045405923e-05,-2.87989434492e-05,-1.8246520246e-05,-4.82600891438e-05
27998480994,1736,28008000000,world,6.65324204883e-06,2.56187342344e-05,-2.94917516602e-05,-3.17538554551e-05,-1.77812790919e-05,-4.79873976292e-05
28018622827,1737,28024000000,world,6.57555114534e-06,2.54746614513e-05,-2.93666437696e-05,-2.12028106959e-05,-1.7729707438e-05,-4.77473699116e-05
28038839843,1738,28040000000,world,6.55885619727e-06,2.55279840901e-05,-2.94179791484e-05,-2.45960467759e-05,-1.76994409921e-05,-4.75350303314e-05
28048921615,1739,28056000000,world,8.56802161756e-06,2.51422114864e-05,-2.88466720138e-05,-2.75093789403e-05,-1.69780569158e-05,-4.75663105422e-05
28069103369,1740,28072000000,world,-3.0045519535e-06,-6.36636219198e-06,7.26174964282e-06,-1.09310175789e-05,-1.90111954695e-05,-4.59602712636e-05
28079163948,1741,28088000000,world,1.36843952695e-05,2.30178903039e-05,-2.61323337239e-05,-2.00417815789e-05,-1.49720892601e-05,-4.772100193e-05
28099298107,1742,28104000000,world,1.55980125844e-05,2.16033684489e-05,-2.44067730009e-05,-2.23319819046e-05,-1.40871074156e-05,-4.77363628818e-05
28119414760,1743,28120000000,world,1.64386182251e-05,2.06873708425e-05,-2.33749546562e-05,-2.51223282683e-05,-1.35612351726e-05,-4.73000242218e-05
28129500350,1744,28136000000,world,1.66691094216e-05,2.03469986901e-05,-2.29940271365e-05,-2.80484975664e-05,-1.33142397391e-05,-4.69655060257e-05
28149653177,1745,28152000000,world,1.65004015682e-05,2.028233123e-05,-2.29273859803e-05,-1.88766405358e-05,-1.32940371665e-05,-4.67517829444e-05
28159738847,1746,28168000000,world,1.67355888658e-05,1.98067576988e-05,-2.23432877193e-05,-2.1794247985e-05,-1.29722682041e-05,-4.66254329281e-05
28179933089,1747,28184000000,world,1.70421048726e-05,1.83990930226e-05,-2.05871054919e-05,-2.36249108883e-05,-1.23182172139e-05,-4.71255561815e-05
28200229762,1748,28200000000,world,1.68242494093e-05,1.69802125356e-05,-1.88362919629e-05,-1.76887211638e-05,-1.17280428072e-05,-4.75319467433e-05
28210331233,1749,28216000000,world,-1.22730018366e-05,-1.05428254716e-05,1.15403397866e-05,-3.57850533193e-06,-1.69600936975e-05,-4.4061207167e-05
28230592899,1750,28232000000,world,-1.45471672286e-05,-1.18161294083e-05,1.28423420092e-05,-5.50227577238e-06,-1.65748214712e-05,-4.42233543726e-05
28240650563,1751,28248000000,world,-1.69641671202e-05,-1.35826586119e-05,1.47069433778e-05,-6.40824604584e-06,-1.61003904827e-05,-4.48789576038e-05
28271207957,1752,28264000000,world,8.69684427527e-06,9.60986757306e-06,-1.07578247175e-05,-1.47032192877e-05,-9.65440519957e-06,-5.03333630272e-05
28271207957,1753,28280000000,world,6.28875522333e-06,8.34685274566e-06,-9.49881977299e-06,-1.63183282211e-05,-9.36156552915e-06,-5.1142794828e-05
28291341623,1754,28296000000,world,5.06985944149e-06,7.8443750004e-06,-8.98126357712e-06,-1.88793067205e-05,-9.16150458281e-06,-5.08996386454e-05
28311520879,1755,28312000000,world,3.91063867653e-06,7.30198267675e-06,-8.35873763121e-06,-8.84546186352e-06,-8.93760362343e-06,-5.05765970494e-05
28321577512,1756,28328000000,world,-1.32010556581e-05,-2.3157019294e-05,2.65035839878e-05,6.96630948007e-06,-1.20685221514e-05,-4.81222488242e-05
28341931810,1757,28344000000,world,2.20294689691e-06,6.86472095828e-06,-7.89773131748e-06,-1.51719504586e-05,-8.39251153704e-06,-4.92939068584e-05
28352204167,1758,28360000000,world,6.4111218074e-07,6.32485173482e-06,-7.40804760227e-06,-1.7423501678e-05,-7.66249416446e-06,-4.884230301e-05
28372543372,1759,28376000000,world,-7.25440379331e-07,5.87720747401e-06,-6.96069661947e-06,-7.35183705266e-06,-6.97430552016e-06,-4.84880415578e-05
28392723081,1760,28392000000,world,-2.22421498108e-06,5.68502708248e-06,-6.88953394083e-06,-9.960164914e-06,-5.91965746097e-06,-4.77594784059e-05
28412978814,1761,28408000000,world,-3.4504581005e-06,5.75811897324e-06,-7.08540106208e-06,-1.27979595632e-05,-5.04898734575e-06,-4.70219514048e-05
28423072482,1762,28424000000,world,-4.19904633346e-06,6.03000563544e-06,-7.41799803093e-06,-1.6078502709e-05,-4.85072417325e-06,-4.63544684841e-05
28433132040,1763,28440000000,world,-4.36365337808e-06,6.02654731365e-06,-7.3656868874e-06,-6.32498560297e-06,-4.70988201413e-06,-4.59833431452e-05
28453288651,1764,28456000000,world,-4.34886477886e-06,6.08568959838e-06,-7.43829621332e-06,-9.7134785175e-06,-4.67153737034e-06,-4.57550325771e-05
28463368057,1765,28472000000,world,-4.33521781409e-06,6.14425564109e-06,-7.50980037685e-06,-1.30269862867e-05,-4.62455059017e-06,-4.54887346152e-05
28483548252,1766,28488000000,world,-4.96610417237e-06,6.22416498304e-06,-7.60311802258e-06,-7.15463661939e-06,-4.08800378263e-06,-4.47574021639e-05
28503868188,1767,28504000000,world,-6.41185682579e-06,6.24036957067e-06,-7.94902010045e-06,-9.28279152097e-06,-2.60087782888e-06,-4.46717910379e-05
28513923184,1768,28520000000,world,-8.61744687702e-06,6.18647568737e-06,-8.47174567893e-06,-1.03104133595e-05,-4.91813091353e-07,-4.54098936255e-05
28534065096,1769,28536000000,world,-1.13990424129e-05,6.161631646e-06,-9.12432924814e-06,-1.94250673412e-06,1.41248357218e-06,-4.70561456244e-05
28544289590,1770,28552000000,world,-1.42252684093e-05,6.31325954237e-06,-9.99179198849e-06,-2.09368619032e-06,3.83103891964e-06,-4.94119766582e-05
28564418940,1771,28568000000,world,-1.62482506756e-05,6.59520127743e-06,-1.07686213759e-05,-2.71247992812e-06,6.03625354451e-06,-5.11819522818e-05
28574512598,1772,28584000000,world,-1.72751883133e-05,6.83623054088e-06,-1.11972887308e-05,4.86325039765e-06,7.47950051854e-06,-5.2328986279e-05
28594651442,1773,28600000000,world,-1.79628143377e-05,7.0730514128e-06,-1.15775817389e-05,3.35309842416e-06,9.24104802881e-06,-5.33418551546e-05
28614842745,1774,28616000000,world,-1.82854665616e-05,7.24720712994e-06,-1.18059376849e-05,1.68387344183e-06,1.10210965513e-05,-5.36358569934e-05
28624898312,1775,28632000000,world,-1.86704102387e-05,7.39769662595e-06,-1.19929503922e-05,1.0027175178e-05,1.37233326102e-05,-5.41422456127e-05
28645012120,1776,28648000000,world,-1.93400327346e-05,7.69950437036e-06,-1.24444627266e-05,1.0032799434e-05,1.74912503306e-05,-5.50787047443e-05
28655101412,1777,28664000000,world,-1.99822233638e-05,8.06786945706e-06,-1.29688714101e-05,9.69019883199e-06,2.08484963737e-05,-5.58669441972e-05
28675213292,1778,28680000000,world,-2.05485803803e-05,8.46523453599e-06,-1.34589686165e-05,1.8398472939e-05,2.43720850052e-05,-5.85747863424e-05
28705650711,1779,28704000000,world,1.56544263299e-05,-8.73612667378e-06,1.23456842904e-05,3.31324165154e-05,3.75440526029e-05,-7.01473496533e-05
28725847272,1780,28712000000,world,-2.1532368202e-05,9.38469590679e-06,-1.46912427802e-05,2.27750567993e-05,3.28989226434e-05,-6.85510538382e-05
28735940917,1781,28728000000,world,1.44482167271e-05,-9.10099286031e-06,1.23417101135e-05,4.57777088401e-05,4.4050102758e-05,-8.41944817557e-05
28745994657,1782,28744000000,world,-2.0685817552e-05,1.07172627406e-05,-1.55947008808e-05,3.36585381653e-05,3.82552975893e-05,-8.29081410159e-05
28766299700,1783,28768000000,world,1.36621027873e-05,-9.67901748238e-06,1.26880124977e-05,4.73638670039e-05,4.59972991784e-05,-9.39794275845e-05
28766299700,1784,28776000000,world,1.36621027873e-05,-9.67901748238e-06,1.26880124977e-05,4.73638670039e-05,4.59972991784e-05,-9.39794275845e-05
28786418005,1785,28792000000,world,-1.8357488414e-05,1.29208512981e-05,-1.694724627e-05,3.65641867178e-05,3.98443116517e-05,-8.94650904242e-05
28806548340,1786,28808000000,world,-1.83213393818e-05,1.30170795205e-05,-1.70428703821e-05,3.33036122878e-05,3.99276053159e-05,-8.88434683975e-05
28826663494,1787,28824000000,world,-1.77064787616e-05,1.28861071453e-05,-1.66755348501e-05,4.06693364198e-05,4.07519503971e-05,-8.8443992814e-05
28836789761,1788,28840000000,world,1.35500906138e-05,-1.06868094335e-05,1.33398357504e-05,5.35518907584e-05,4.71070556738e-05,-9.21424993156e-05
28846872754,1789,28856000000,world,-1.62306606222e-05,1.2475678408e-05,-1.58456269641e-05,3.55764630613e-05,4.32265738539e-05,-8.80457930064e-05
28867014727,1790,28872000000,world,-1.47034366394e-05,1.13748680584e-05,-1.43793667353e-05,4.28687434117e-05,4.53577940104e-05,-8.82344231735e-05
28887126647,1791,28888000000,world,-1.36095672976e-05,1.02800327139e-05,-1.31234907562e-05,4.10177293314e-05,4.71157789153e-05,-8.83909888959e-05
28897184384,1792,28904000000,world,-1.25696616939e-05,8.9454422239e-06,-1.16315057582e-05,3.94865958874e-05,4.89404529168e-05,-8.8891724279e-05
28917295626,1793,28920000000,world,-1.13169350982e-05,7.00269921831e-06,-9.41592907646e-06,4.64942729074e-05,5.11941266372e-05,-8.91988521459e-05
28927527062,1794,28936000000,world,-9.81931355008e-06,4.64266969447e-06,-6.8338166821e-06,4.56416203284e-05,5.40026270922e-05,-8.91631797353e-05
28947731164,1795,28952000000,world,-8.07083670628e-06,1.99931268356e-06,-3.97129326141e-06,4.50909145308e-05,5.64091513848e-05,-8.96014388186e-05
28968097678,1796,28968000000,world,-6.47983373184e-06,-5.60451349718e-07,-1.22489808815e-06,5.19026980817e-05,5.76495831591e-05,-9.11237945858e-05
28978154140,1797,28984000000,world,-6.11766624411e-06,-2.79582466658e-06,8.45346033746e-07,5.35478056518e-05,5.80078343822e-05,-9.3169844947e-05
28998289242,1798,29000000000,world,-7.13010037727e-06,-4.78087887613e-06,2.3339380553e-06,5.57302985431e-05,5.79960441557e-05,-9.45165062494e-05
29008377218,1799,29016000000,world,-8.36081682876e-06,-6.87002293014e-06,3.89852957274e-06,5.68645241685e-05,5.79102287505e-05,-9.56612382124e-05
29038683767,1800,29032000000,world,-9.85537487305e-06,-9.19145014323e-06,5.57910249249e-06,6.14960819941e-05,5.77453185927e-05,-9.69300102693e-05
29048740072,1801,29048000000,world,-1.14492745195e-05,-1.18471635114e-05,7.55157061802e-06,6.05341205496e-05,5.76796432617e-05,-9.80032274783e-05
29058797862,1802,29064000000,world,-1.3004755188e-05,-1.40279207454e-05,9.16675519661e-06,6.16261158821e-05,5.75510875124e-05,-9.90258533558e-05
29088964183,1803,29080000000,world,-1.38823794744e-05,-1.51021211966e-05,9.92853481566e-06,6.64236698999e-05,5.74270074099e-05,-9.97669608368e-05
29099018240,1804,29096000000,world,-1.3880475359e-05,-1.51527839027e-05,1.0059940455e-05,6.3352645209e-05,5.74542209648e-05,-9.96677840264e-05
29119159435,1805,29112000000,world,-1.40786620664e-05,-1.54601705684e-05,1.04043234944e-05,6.23129333854e-05,5.74759141836e-05,-9.86428090259e-05
29119159435,1806,29128000000,world,-1.52254939919e-05,-1.67182932982e-05,1.12757556272e-05,6.60147865442e-05,5.74116209716e-05,-9.64235351181e-05
29139273311,1807,29144000000,world,-1.7321792423e-05,-1.87895723455e-05,1.26397043486e-05,6.25559443201e-05,5.72712039855e-05,-9.32549933496e-05
29159425619,1808,29160000000,world,-1.95581436541e-05,-2.05743296752e-05,1.36467011995e-05,6.12951679189e-05,5.70763938217e-05,-9.06069359583e-05
29169518925,1809,29176000000,world,-2.2450470567e-05,-2.21676534208e-05,1.40139042538e-05,6.4682798285e-05,5.67436087467e-05,-8.83450800684e-05
29189671362,1810,29192000000,world,-2.63397777628e-05,-2.33034753357e-05,1.35746070932e-05,6.07646823559e-05,5.62242804625e-05,-8.58291840376e-05
29199775831,1811,29208000000,world,-3.20746573314e-05,-2.30670604043e-05,1.05613323944e-05,5.87916835902e-05,5.43706292998e-05,-8.29463877454e-05
29219962319,1812,29224000000,world,-3.74540007303e-05,-2.00236353839e-05,4.17007687486e-06,5.65648462378e-05,5.22683991986e-05,-8.07494379836e-05
29230019165,1813,29240000000,world,-4.08974542975e-05,-1.33138801317e-05,-5.31231390182e-06,5.19344934539e-05,5.08187243735e-05,-7.88973478653e-05
29250206008,1814,29256000000,world,-3.95862015208e-05,-3.72482750466e-06,-1.54307744755e-05,4.79173766801e-05,5.06746215299e-05,-7.74514540257e-05
29270318069,1815,29272000000,world,-3.61896392873e-05,2.15245890278e-06,-2.02489033611e-05,4.11139736307e-05,5.12901277299e-05,-7.65545654113e-05
29280372367,1816,29288000000,world,6.51361898576e-06,-8.65727892833e-07,4.25475024389e-06,4.92495091849e-05,5.94633435474e-05,-8.17420136541e-05
29300519567,1817,29304000000,world,-3.22903873722e-05,5.89658038667e-06,-2.29115936996e-05,4.1283666823e-05,5.23760442289e-05,-7.61957476461e-05
29320634054,1818,29320000000,world,-2.876952723e-05,8.29043026484e-06,-2.3747969124e-05,4.36639493439e-05,5.3395624155e-05,-7.52312352559e-05
29340747675,1819,29336000000,world,-2.58866113244e-05,9.67777395105e-06,-2.37768269373e-05,3.95787827852e-05,5.42389473837e-05,-7.42028156411e-05
29350802843,1820,29352000000,world,-2.43753347552e-05,1.01727529045e-05,-2.35991465218e-05,3.61409463431e-05,5.46545539579e-05,-7.35608631337e-05
29360895663,1821,29368000000,world,-2.39126466237e-05,1.02367717088e-05,-2.35798489203e-05,4.35235828645e-05,5.48124449192e-05,-7.32885789134e-05
29381203884,1822,29384000000,world,-2.280490938e-05,1.0316083725e-05,-2.33648532254e-05,3.92748182828e-05,5.38899716836e-05,-7.2390546451e-05
29391261699,1823,29400000000,world,-2.02376031231e-05,1.02461285694e-05,-2.21709997595e-05,3.40167048743e-05,5.15311012745e-05,-7.04769442891e-05
29411410008,1824,29416000000,world,-1.7994463016e-05,9.75931159834e-06,-2.05071846459e-05,3.91378218574e-05,4.91050230104e-05,-6.85364841794e-05
29431520582,1825,29432000000,world,-1.56799734786e-05,8.93785567023e-06,-1.83665166889e-05,3.3743577626e-05,4.62792629525e-05,-6.60923050475e-05
29441623231,1826,29448000000,world,-1.30576239959e-05,7.4491630856e-06,-1.52495969742e-05,2.89303534076e-05,4.28209844459e-05,-6.43412620312e-05
29461781681,1827,29464000000,world,-1.02992165061e-05,5.09706659396e-06,-1.11219509676e-05,3.40946674883e-05,3.87769703483e-05,-6.36748840195e-05
29471869462,1828,29480000000,world,-7.52903624153e-06,2.23027082457e-06,-6.557064194e-06,3.14166473818e-05,3.54325452007e-05,-6.38809509903e-05
29491991435,1829,29496000000,world,-4.86886521442e-06,-6.94379731848e-07,-1.96610973492e-06,3.02088548835e-05,3.32293134213e-05,-6.4831538385e-05
29502103544,1830,29512000000,world,4.04151215932e-05,2.8866965038e-06,1.93874524871e-05,3.38838617917e-05,4.09946132231e-05,-7.09203587281e-05
29522537140,1831,29528000000,world,3.15440301973e-05,2.5856760266e-05,-1.12864980711e-05,3.04345829981e-05,3.82097004431e-05,-7.05013523661e-05
29542735601,1832,29544000000,world,-5.82935676049e-06,-8.63230664417e-06,6.73352239535e-06,4.19962386943e-05,3.0360613925e-05,-6.72641588486e-05
29562951908,1833,29560000000,world,-6.66206184841e-06,-1.0939784784e-05,9.35401497688e-06,4.85030259415e-05,2.98695107128e-05,-6.86509170068e-05
29583118760,1834,29576000000,world,-7.4800345141e-06,-1.32802538621e-05,1.21282403436e-05,4.86396989781e-05,2.91937200743e-05,-7.05984400822e-05
29583118760,1835,29592000000,world,-8.60436116513e-06,-1.59143495176e-05,1.50145868856e-05,4.89563877219e-05,2.82223995374e-05,-7.25977535709e-05
29603861347,1836,29608000000,world,-1.02470854192e-05,-1.88350145914e-05,1.76714049605e-05,5.17282006321e-05,2.69992310924e-05,-7.40074796291e-05
29613937618,1837,29624000000,world,-1.20177029632e-05,-2.11669345735e-05,1.90071920476e-05,5.86964360038e-05,2.59791951674e-05,-7.41223200383e-05
29634345465,1838,29640000000,world,7.37296238717e-06,1.23572798846e-05,-1.01153930039e-05,4.03804908093e-05,2.94687957886e-05,-7.65024075111e-05
29654460530,1839,29656000000,world,7.02630757359e-06,1.16977480504e-05,-9.1089911794e-06,3.77131394824e-05,2.89245517275e-05,-7.59424101393e-05
29664706862,1840,29672000000,world,-1.43647365654e-05,-2.42156589988e-05,1.91131686276e-05,5.81894733143e-05,2.41647477208e-05,-7.22249548732e-05
29684817653,1841,29688000000,world,-1.44290904448e-05,-2.44719909602e-05,1.91456292568e-05,5.49315817271e-05,2.40725579927e-05,-7.18927117744e-05
29694876940,1842,29704000000,world,-1.42781369914e-05,-2.44187683058e-05,1.92886380602e-05,5.34626070509e-05,2.41494152939e-05,-7.16689787034e-05
29715014383,1843,29720000000,world,6.5049845474e-06,1.04164406131e-05,-7.77151883607e-06,4.33317226176e-05,2.75994054596e-05,-7.4055083381e-05
29735180781,1844,29736000000,world,-1.71843575904e-05,-2.56210639481e-05,1.81012331149e-05,5.25351423248e-05,2.00763518099e-05,-6.97983409252e-05
29745284845,1845,29752000000,world,7.6953934531e-06,8.89530422326e-06,-4.63249658015e-06,3.40697414616e-05,2.30274221261e-05,-7.22057615252e-05
29765530069,1846,29768000000,world,-2.53145549338e-05,-2.54900093713e-05,1.05243934221e-05,4.84234779663e-05,1.16936635184e-05,-6.55614669135e-05
29775626878,1847,29784000000,world,-2.77330006602e-05,-2.36689585953e-05,6.25336831026e-06,4.34156789499e-05,9.11960620506e-06,-6.38701164475e-05
29795743490,1848,29800000000,world,-2.89219585741e-05,-2.13853834491e-05,2.49470625552e-06,4.25535643533e-05,7.95173330986e-06,-6.24228210436e-05
29826039877,1849,29824000000,world,1.21872678399e-05,7.70232280997e-06,8.25601396296e-07,3.24542000301e-05,1.51557266897e-05,-6.73691624427e-05
29846241635,1850,29832000000,world,-2.84260319214e-05,-1.85798802027e-05,-7.42085183239e-07,4.13760463753e-05,7.11347732043e-06,-6.25807447715e-05
29846241635,1851,29848000000,world,-2.79181446142e-05,-1.77127457754e-05,-1.61522708443e-06,4.05952179403e-05,6.18888227673e-06,-6.26344085667e-05
29856330120,1852,29864000000,world,-2.77220932792e-05,-1.73810878809e-05,-1.90132622805e-06,3.99018943917e-05,5.30514802036e-06,-6.22708863481e-05
29876566845,1853,29880000000,world,-2.71748901695e-05,-1.66691945503e-05,-2.42904655821e-06,3.87416480974e-05,3.09315867845e-06,-6.15072721775e-05
29886643986,1854,29896000000,world,-2.57967389821e-05,-1.51982337673e-05,-3.21808861327e-06,3.72142807275e-05,-6.79445639805e-07,-6.11438848702e-05
29906924136,1855,29912000000,world,-2.42817785865e-05,-1.38919244116e-05,-3.55665126314e-06,3.5932196252e-05,-4.17015663636e-06,-6.08783584369e-05
29927068425,1856,29928000000,world,-2.20766279703e-05,-1.23989934916e-05,-3.46177202375e-06,3.4937470994e-05,-6.25704192848e-06,-6.05912899667e-05
29937177158,1857,29944000000,world,-1.8855308834e-05,-1.06035550041e-05,-2.80484819659e-06,3.42737882096e-05,-7.06468271167e-06,-5.96338015755e-05
29967508231,1858,29960000000,world,-1.47247260686e-05,-8.6685178875e-06,-1.55353392824e-06,3.40911163857e-05,-7.31374447668e-06,-5.86795529336e-05
29967508231,1859,29976000000,world,-9.73228760534e-06,-6.66498800645e-06,1.43130675997e-07,3.41879741074e-05,-7.06351484857e-06,-5.76506261991e-05
29987739349,1860,29992000000,world,-4.38648822755e-06,-4.70519002012e-06,1.92911470768e-06,3.46199387246e-05,-6.60899590446e-06,-5.66969573667e-05
30007907925,1861,30008000000,world,-1.20506630331e-06,-3.71305988657e-06,3.11719299571e-06,3.573669083e-05,-6.28439960512e-06,-5.59372520322e-05
30017973237,1862,30024000000,world,1.20032928479e-05,3.27023968318e-05,-2.65988275268e-05,2.53451654419e-05,-3.80210896802e-06,-5.72833000327e-05
30038087769,1863,30040000000,world,1.12162892155e-06,-4.27054584284e-06,5.10185610297e-06,3.89819647246e-05,-6.18887856804e-06,-5.49094399439e-05
30048303435,1864,30056000000,world,2.89918722004e-06,-5.07515893157e-06,6.96376748615e-06,3.66160997709e-05,-6.89687915259e-06,-5.38249560415e-05
30068574725,1865,30072000000,world,4.65269896798e-06,-6.04654329113e-06,8.96623900659e-06,4.29985407634e-05,-7.62934675552e-06,-5.27453785274e-05
30088783393,1866,30088000000,world,5.69017209704e-06,-6.60377843742e-06,1.01063194008e-05,4.00563748822e-05,-8.3329062877e-06,-5.19757726202e-05
30129191431,1867,30120000000,world,8.49417155778e-06,-8.29438979372e-06,1.34255235892e-05,3.84415718633e-05,-1.04478760494e-05,-4.94677406755e-05
30129191431,1868,30120000000,world,8.49417155778e-06,-8.29438979372e-06,1.34255235892e-05,3.84415718633e-05,-1.04478760494e-05,-4.94677406755e-05
30149387009,1869,30136000000,world,9.22899464001e-06,-8.80692128595e-06,1.42993845457e-05,4.44796403757e-05,-1.10804824306e-05,-4.87132512355e-05
30159448040,1870,30160000000,world,-1.4105172453e-05,1.37903720384e-05,-2.2200366332e-05,2.36905615426e-05,-1.61247245111e-05,-4.50450387208e-05
30159448040,1871,30168000000,world,9.16509710701e-06,-9.02219235456e-06,1.44760342058e-05,3.80119721786e-05,-1.17242291695e-05,-4.80061461112e-05
30179631761,1872,30184000000,world,9.1916619711e-06,-9.10287217939e-06,1.45135873957e-05,4.35107176317e-05,-1.16805761105e-05,-4.80162867687e-05
30199750701,1873,30200000000,world,9.09176449671e-06,-9.11728154066e-06,1.44604302094e-05,4.01646667736e-05,-1.16561995166e-05,-4.79350832837e-05
30209829004,1874,30216000000,world,9.94191238327e-06,-9.81996001558e-06,1.56664187488e-05,3.81335118229e-05,-1.22521096783e-05,-4.69986975683e-05
30231840742,1875,30232000000,world,1.19909715e-05,-1.16235228514e-05,1.85804947004e-05,4.43856023571e-05,-1.38947933421e-05,-4.59683506783e-05
30241898125,1876,30248000000,world,1.39031125373e-05,-1.46621119818e-05,2.28295873624e-05,4.11424338141e-05,-1.67351262787e-05,-4.48745805364e-05
30262008990,1877,30264000000,world,1.32033490557e-05,-1.94317422973e-05,2.783104248e-05,3.78441520611e-05,-2.08439665507e-05,-4.36647823007e-05
30272080698,1878,30280000000,world,7.43475107608e-06,-2.4497407712e-05,3.09248123129e-05,3.7374323488e-05,-2.50709570219e-05,-4.22789700664e-05
30302252283,1879,30296000000,world,-5.0729614723e-06,-2.87378887704e-05,2.98895684834e-05,4.23132828048e-05,-3.03761117811e-05,-4.02794557873e-05
30322367593,1880,30312000000,world,7.3367836129e-06,5.85960491577e-06,-3.44111924614e-06,1.5712818817e-05,-3.23408639598e-05,-4.12102548988e-05
30342533059,1881,30328000000,world,1.07130118655e-05,7.32361973393e-06,-3.65401084043e-06,2.00757073993e-05,-3.46800210359e-05,-4.1290153738e-05
30342533059,1882,30344000000,world,-2.55645369178e-05,-1.92976823027e-05,1.0792297769e-05,2.84332950571e-05,-4.28750502253e-05,-3.65308804894e-05
30352625665,1883,30360000000,world,-2.47658824771e-05,-1.76953043929e-05,9.50492261051e-06,2.45622672395e-05,-4.41802636628e-05,-3.62892076048e-05
30372937559,1884,30376000000,world,-2.45211965483e-05,-1.73032891912e-05,9.26326347728e-06,2.66261876617e-05,-4.47011952098e-05,-3.60876746322e-05
30382993537,1885,30392000000,world,-2.37165946575e-05,-1.63807310732e-05,8.75660304202e-06,2.31964768174e-05,-4.60997852781e-05,-3.51833938763e-05
30403108322,1886,30408000000,world,-2.1674735259e-05,-1.43489609632e-05,7.36749475537e-06,2.33165761037e-05,-4.89428010237e-05,-3.38759078466e-05
30413162622,1887,30424000000,world,-1.751635483e-05,-1.16527578444e-05,6.10708936193e-06,1.97217607454e-05,-5.19643301038e-05,-3.2187683139e-05
30443476989,1888,30440000000,world,-1.35402832229e-05,-9.66492536482e-06,5.5483546935e-06,2.02873295981e-05,-5.40768802385e-05,-3.06837312142e-05
30463683728,1889,30456000000,world,2.69414849848e-05,1.94961526681e-05,-1.14894424034e-05,1.03943915348e-05,-4.88086658921e-05,-3.39800091575e-05
30463683728,1890,30472000000,world,-9.78992323738e-06,-7.66980493969e-06,4.87459220908e-06,2.03863874362e-05,-5.61302098093e-05,-2.90440233779e-05
30483897210,1891,30488000000,world,-9.74818151489e-06,-7.65308923769e-06,4.91464707964e-06,1.73218338667e-05,-5.60939042244e-05,-2.89547899383e-05
30493976075,1892,30504000000,world,-9.78784673062e-06,-7.67386804015e-06,4.94801084867e-06,2.05921489759e-05,-5.60492441691e-05,-2.87701448613e-05
30514370558,1893,30520000000,world,2.60403526304e-05,2.04762088381e-05,-1.32646309793e-05,6.50511203469e-06,-4.91766515418e-05,-3.32276453485e-05
30534519034,1894,30536000000,world,-8.06310111772e-06,-7.01334816991e-06,4.96629895908e-06,2.00385769477e-05,-5.59890224886e-05,-2.86641900144e-05
30544759674,1895,30552000000,world,-6.06388332946e-06,-6.2653585335e-06,4.95018826972e-06,1.66953205476e-05,-5.60914564778e-05,-2.86444440836e-05
30565095693,1896,30568000000,world,-2.63062506741e-06,-5.05666203771e-06,4.77977352695e-06,2.02547329628e-05,-5.59913490833e-05,-2.91056513479e-05
30575180717,1897,30584000000,world,1.75036153803e-05,2.84496554497e-05,-2.6056505545e-05,1.15317114707e-06,-5.23350856098e-05,-3.17823524334e-05
30595427825,1898,30600000000,world,1.58701008947e-06,-4.63448020184e-06,5.56555445261e-06,2.21750589699e-05,-5.58627550268e-05,-2.97183879677e-05
30625878099,1899,30616000000,world,3.72810100262e-06,-5.13911303552e-06,6.58898795654e-06,1.90009740427e-05,-5.57839170653e-05,-2.97805070291e-05
30656124392,1900,30632000000,world,7.34930346852e-06,-6.36641341926e-06,8.8366519347e-06,1.60913097993e-05,-5.55272447608e-05,-3.07740650394e-05
30656124392,1901,30656000000,world,-1.33627114925e-05,1.29658653164e-05,-1.75392703217e-05,8.86174410314e-06,-6.03443467256e-05,-3.02666019918e-05
30656124392,1902,30664000000,world,1.64913028265e-05,-1.16861191387e-05,1.70766729833e-05,2.25545081782e-05,-5.48493130971e-05,-3.46602556351e-05
30676261369,1903,30680000000,world,1.81152019579e-05,-1.36577461083e-05,1.9641996711e-05,1.99538518947e-05,-5.47774798401e-05,-3.54403633161e-05
30686349547,1904,30696000000,world,1.83708186921e-05,-1.44815972908e-05,2.06738773394e-05,1.72099364368e-05,-5.48649547177e-05,-3.50336186979e-05
30706467046,1905,30712000000,world,1.8215328476e-05,-1.4560455662e-05,2.07339132682e-05,1.77813233867e-05,-5.48440442372e-05,-3.47356543802e-05
30726635441,1906,30728000000,world,1.85477921373e-05,-1.56972486028e-05,2.18945095511e-05,2.35131353021e-05,-5.48409636978e-05,-3.4194074686e-05
30736691106,1907,30744000000,world,1.76815981253e-05,-1.91639202765e-05,2.49865410993e-05,2.23164964148e-05,-5.52446974838e-05,-3.27073262153e-05
30767125657,1908,30760000000,world,1.3616950074e-05,-2.34022472536e-05,2.77646000333e-05,2.13507429731e-05,-5.62914294061e-05,-3.07747370822e-05
30787297806,1909,30776000000,world,4.96492479254e-07,5.93190665994e-06,-5.87154253732e-06,1.15021715516e-05,-5.90658738807e-05,-2.85999491052e-05
30797393859,1910,30792000000,world,4.96492479254e-07,5.93190665994e-06,-5.87154253732e-06,1.15021715516e-05,-5.90658738807e-05,-2.85999491052e-05
30817530611,1911,30816000000,world,4.08458297681e-06,6.1927282699e-06,-5.33189014414e-06,4.64308847983e-06,-5.89188937632e-05,-2.88358944719e-05
30817530611,1912,30824000000,world,-1.6522689995e-05,-2.70665008632e-05,2.35491300262e-05,1.997686823e-05,-6.29630010719e-05,-2.6096177097e-05
30837869053,1913,30840000000,world,-1.7509436127e-05,-2.65247029898e-05,2.29676002916e-05,2.51595535287e-05,-6.32670166403e-05,-2.57249731872e-05
30847925401,1914,30856000000,world,-1.72403550225e-05,-2.64741670757e-05,2.31407811715e-05,2.18762590677e-05,-6.31739458281e-05,-2.57109919523e-05
30868059983,1915,30872000000,world,-1.95437167593e-05,-2.48365374672e-05,2.08677121658e-05,1.97934096639e-05,-6.42394589534e-05,-2.45574488733e-05
30888175449,1916,30896000000,world,9.29754258362e-06,8.29695822732e-06,-6.26257336836e-06,6.97146909317e-06,-5.99339112395e-05,-2.65845812202e-05
30898233304,1917,30904000000,world,9.29754258362e-06,8.29695822732e-06,-6.26257336836e-06,6.97146909317e-06,-5.99339112395e-05,-2.65845812202e-05
30918368993,1918,30920000000,world,-1.88998171463e-05,-1.73970424224e-05,1.3438254631e-05,1.7565747219e-05,-6.73762369924e-05,-2.26696167239e-05
30928424627,1919,30936000000,world,-1.74857363413e-05,-1.56069516185e-05,1.19631114456e-05,1.9929501035e-05,-6.79758655999e-05,-2.33119458443e-05
30948611504,1920,30952000000,world,1.78241710855e-05,1.38281225317e-05,-1.02638423031e-05,3.86853262473e-06,-6.14705845994e-05,-2.8594778532e-05
30958670815,1921,30968000000,world,-9.60989389065e-06,-9.81170870944e-06,7.88040937029e-06,1.53319172904e-05,-6.70293494988e-05,-2.83056572652e-05
30978983885,1922,30984000000,world,-2.155602506e-06,-5.61429082254e-06,5.44084264532e-06,9.80694195075e-06,-6.55381997482e-05,-3.19558487828e-05
30999119914,1923,31000000000,world,4.72610221883e-06,-2.26047913382e-06,3.83126631005e-06,1.31681352492e-05,-6.40189164512e-05,-3.54863999557e-05
31009375943,1924,31016000000,world,1.44287435656e-05,-3.44358812994e-06,7.98957919218e-06,9.74704215042e-06,-6.2128076772e-05,-3.95994709448e-05
31029560841,1925,31032000000,world,-2.00522504337e-05,8.15619216844e-06,-1.46450652333e-05,-1.7713513387e-06,-6.86223525596e-05,-3.65013627963e-05
31039618075,1926,31048000000,world,3.14917478649e-05,-1.19338848174e-05,2.19870250106e-05,8.28025366518e-06,-5.87250302702e-05,-4.67354830363e-05
31059773759,1927,31064000000,world,1.81227891997e-05,-2.57408562401e-05,3.17922797017e-05,1.7273729837e-05,-6.11516641882e-05,-4.6796341179e-05
31080045503,1928,31080000000,world,7.45864405695e-07,2.91349424515e-06,-2.94661948944e-06,-1.78385373523e-06,-6.44109126495e-05,-4.5185258509e-05
31090133548,1929,31096000000,world,2.95218237053e-06,3.60415248476e-06,-3.2468567582e-06,-6.15698401727e-06,-6.400204902e-05,-4.66935345422e-05
31110464079,1930,31112000000,world,-2.42649897026e-05,-2.40510087685e-05,2.11641589339e-05,1.19136163099e-05,-6.92429293605e-05,-4.47245901333e-05
31120520031,1931,31128000000,world,-2.55297554431e-05,-1.96982673638e-05,1.66332912118e-05,5.42730126361e-06,-6.95627798863e-05,-4.59549687731e-05
31140729488,1932,31144000000,world,1.13280984035e-05,7.24668088317e-06,-5.83582868876e-06,-9.77423447729e-06,-6.25332330554e-05,-5.13224302958e-05
31150807890,1933,31160000000,world,1.56514451252e-05,9.17019579421e-06,-6.80895585731e-06,-2.43042210687e-06,-6.1666958792e-05,-5.25031453812e-05
31170962565,1934,31176000000,world,-1.32612329023e-05,-8.99808166222e-06,7.44852281788e-06,5.03449507522e-06,-6.77289762673e-05,-4.60851598802e-05
31191075785,1935,31192000000,world,-3.11215777157e-06,-3.83294992883e-06,4.65040764306e-06,2.9465373948e-06,-6.70833222712e-05,-4.20212362241e-05
31201132322,1936,31208000000,world,3.3054374987e-06,-4.27156776205e-07,2.75663363635e-06,8.81452973698e-06,-6.69774739841e-05,-3.80180863907e-05
31221320430,1937,31224000000,world,1.11796467449e-05,3.16132408759e-07,6.19929554582e-06,7.82442692521e-06,-6.63196947477e-05,-3.50297184836e-05
31231415994,1938,31240000000,world,1.74757392912e-05,8.94949859567e-07,8.78986645285e-06,6.04927883881e-06,-6.52054800319e-05,-3.36291161132e-05
31251559447,1939,31256000000,world,2.05361588888e-05,9.98756375483e-07,1.01877248632e-05,6.19861504851e-06,-6.43681835224e-05,-3.36718399352e-05
31271671960,1940,31272000000,world,-2.10106546556e-05,-8.67565873014e-07,-1.15288259186e-05,4.2034107781e-06,-7.23981735104e-05,-2.88674841308e-05
31281728682,1941,31288000000,world,-1.77131287737e-05,-6.84913219373e-07,-9.75820539027e-06,7.94431149859e-07,-7.21591292047e-05,-3.024419521e-05
31302055000,1942,31304000000,world,3.13466239558e-05,9.57247572256e-07,1.77947864882e-05,7.70952002028e-06,-6.32831371569e-05,-3.92400308879e-05
31312126380,1943,31320000000,world,3.33841414087e-05,8.52177397488e-08,2.35614740875e-05,5.14347924705e-06,-6.28233241973e-05,-4.15977811892e-05
31332239846,1944,31336000000,world,2.53651818775e-05,-3.72128099343e-06,3.78876614312e-05,1.1700060102e-05,-6.40603692355e-05,-4.3311690143e-05
31342299325,1945,31352000000,world,3.82964438048e-06,1.23983753937e-06,-2.78057429261e-06,-2.75155517826e-06,-6.78361107718e-05,-4.20849911204e-05
31362412985,1946,31368000000,world,-2.27803868672e-05,-6.89025206305e-06,1.30345392466e-05,2.95186514732e-06,-7.1920926546e-05,-4.3475840574e-05
31382566701,1947,31384000000,world,-1.00398430261e-05,-3.36544381706e-06,7.14392479467e-06,2.16869414542e-06,-6.86384841747e-05,-4.81411445117e-05
31392621833,1948,31400000000,world,-3.55822738065e-07,-8.90677832914e-07,3.73013934218e-06,8.83313086137e-07,-6.60092042554e-05,-5.15895804508e-05
31423052607,1949,31424000000,world,-2.62829382016e-05,4.41591686051e-06,-3.34402917888e-05,-7.2550324238e-06,-7.02800979784e-05,-5.0666046762e-05
31423052607,1950,31432000000,world,4.81121100208e-06,-6.58330984091e-07,4.89420470087e-06,2.46941495051e-06,-6.43133976569e-05,-5.44230511187e-05
31443355890,1951,31448000000,world,4.74238578241e-06,-7.19949440632e-07,4.84513299794e-06,-8.35550773944e-07,-6.42367209363e-05,-5.37503470493e-05
31463513174,1952,31464000000,world,6.74282186836e-06,-7.65431583455e-07,5.68508064613e-06,-2.95642070928e-06,-6.42297188986e-05,-5.39911150967e-05
31483763884,1953,31480000000,world,1.253325973e-05,-7.17577491981e-07,8.19246951981e-06,6.65999824946e-07,-6.39299491419e-05,-5.52644155665e-05
31493782385,1954,31496000000,world,-2.19168338263e-05,2.79680787225e-06,-1.86549184614e-05,-9.66910532307e-06,-7.11046308321e-05,-5.13694322956e-05
31503838235,1955,31512000000,world,3.03953844067e-05,-2.88817078642e-06,2.22631848729e-05,-3.95332208526e-06,-6.34854488588e-05,-5.95778455597e-05
31524120595,1956,31528000000,world,9.18640181159e-06,-1.30474919878e-05,3.94644484692e-05,5.31908781588e-06,-6.93706149419e-05,-5.8312262488e-05
31534179724,1957,31544000000,world,-1.79225178561e-05,-1.39667344546e-05,2.8132165375e-05,-1.98148011916e-06,-7.5683143441e-05,-5.63593963371e-05
31554334505,1958,31560000000,world,-1.74776313794e-05,-1.08732252604e-05,1.96954525955e-05,-5.33100134784e-06,-7.63618730254e-05,-5.79678239809e-05
31574534663,1959,31576000000,world,-1.28644315042e-05,-8.01712607164e-06,1.43672735453e-05,-2.64654069893e-06,-7.59689233231e-05,-5.85662912314e-05
31584609929,1960,31592000000,world,-9.02144344454e-06,-6.14358774958e-06,1.15494465625e-05,-6.95084979386e-06,-7.54768838029e-05,-5.81165328768e-05
31604770346,1961,31608000000,world,-5.15432948365e-06,-4.2367311335e-06,8.95471106411e-06,-2.74329378553e-06,-7.486095716e-05,-5.64762073838e-05
31625101484,1962,31624000000,world,-4.36184881338e-07,-1.82663301802e-06,5.81948201274e-06,-6.0470862135e-06,-7.41892383816e-05,-5.30505939539e-05
31655495295,1963,31648000000,world,-1.89216068433e-05,5.32961274968e-06,-3.83339547749e-05,-1.05602092368e-05,-7.78280524025e-05,-4.54834503753e-05
31655495295,1964,31656000000,world,6.11948050081e-06,4.4986571572e-07,4.85713752491e-06,1.15373130571e-06,-7.3238517289e-05,-4.68695011802e-05
31665550539,1965,31672000000,world,9.990128693e-06,1.21634026311e-06,6.07269955536e-06,-1.26658120218e-06,-7.26412134635e-05,-4.48823910401e-05
31685663737,1966,31688000000,world,1.48801850435e-05,2.10588526376e-06,7.73511534579e-06,-3.59890886601e-06,-7.18526497654e-05,-4.2888911655e-05
31695729813,1967,31704000000,world,2.15046307511e-05,3.17864487428e-06,1.04523259515e-05,-5.20480748512e-06,-7.09702910092e-05,-4.05524118997e-05
31716015506,1968,31720000000,world,2.6839897167e-05,3.75780805932e-06,1.34307453507e-05,-2.91979000499e-07,-7.01015843214e-05,-3.84784428017e-05
31726096634,1969,31736000000,world,3.14598430161e-05,3.38079352174e-06,1.83905397754e-05,-8.01511819385e-07,-6.95036910338e-05,-3.61938811747e-05
31746256282,1970,31752000000,world,3.16391076326e-05,-4.74647166087e-07,2.90041089375e-05,6.45511343645e-06,-6.97913609645e-05,-3.23073251038e-05
31766411195,1971,31768000000,world,-1.7293963555e-06,-1.42250852254e-05,3.97730040199e-05,1.04252504916e-05,-7.59790927833e-05,-2.59499185034e-05
31776903251,1972,31784000000,world,4.41667451176e-06,3.63815046236e-06,-6.90707881709e-06,-8.34230096541e-06,-7.45406114223e-05,-2.66388214063e-05
31797064047,1973,31800000000,world,-1.72955656629e-05,-1.38781147461e-05,2.61816422033e-05,1.04649484318e-05,-7.80659908971e-05,-2.47488945356e-05
31817278145,1974,31816000000,world,-1.69761157178e-05,-1.25296613588e-05,2.28132211393e-05,4.9434459466e-06,-7.8025109615e-05,-2.63347637296e-05
31837391819,1975,31840000000,world,1.27187003093e-05,8.29791843807e-06,-1.45560435018e-05,-4.97402428786e-06,-7.27238788572e-05,-3.20051805889e-05
31847601502,1976,31848000000,world,-1.47867181903e-05,-1.0757042197e-05,1.90950328746e-05,6.32234927202e-06,-7.78029521231e-05,-2.92702718992e-05
31857660788,1977,31864000000,world,-1.1509743823e-05,-8.61791364842e-06,1.5223154413e-05,-2.05897088932e-06,-7.57651099655e-05,-3.09914039967e-05
31877774158,1978,31880000000,world,-8.06792126602e-06,-6.80754986195e-06,1.21642777418e-05,-5.02060583268e-06,-7.34504506496e-05,-3.24480615616e-05
31897889632,1979,31896000000,world,1.83954460248e-05,1.42942681782e-05,-2.51818983026e-05,-1.42562476937e-05,-6.77478361873e-05,-3.61097858485e-05
31918031252,1980,31912000000,world,-3.71125094873e-06,-4.68451256805e-06,8.47513844018e-06,-8.16431196599e-06,-7.06903457477e-05,-3.46869506696e-05
31928336234,1981,31928000000,world,-2.08482541722e-06,-3.87022095381e-06,7.01624693686e-06,-1.08748055107e-05,-6.99792555977e-05,-3.58554677503e-05
31938496606,1982,31944000000,world,1.09700602735e-05,1.91606991698e-05,-3.47053189308e-05,-2.0053845839e-05,-6.74372917959e-05,-3.76973274838e-05
31958784318,1983,31960000000,world,-1.25573869964e-06,-3.59684470657e-06,6.26780979612e-06,-8.052961185e-06,-7.00520454128e-05,-3.59437576492e-05
31968855532,1984,31976000000,world,-1.23991917325e-06,-3.60020113427e-06,6.1906787022e-06,-1.12824606107e-05,-7.00032440166e-05,-3.55056717226e-05
31989006475,1985,31992000000,world,-1.22886283424e-06,-3.64067437211e-06,6.18409545361e-06,-1.05214909965e-05,-6.99326928282e-05,-3.51084748915e-05
31999080385,1986,32008000000,world,-2.30790772093e-07,-3.14825058848e-06,5.36669669015e-06,-4.8192711794e-06,-6.96422695557e-05,-3.5953857502e-05
32019259106,1987,32024000000,world,2.05467604967e-06,-1.74043967258e-06,3.26607043834e-06,-1.03690061712e-05,-6.90124920999e-05,-3.79856607405e-05
32039457367,1988,32040000000,world,5.50670637239e-06,-7.42091485901e-07,2.12995282623e-06,-1.58791570532e-05,-6.86840671104e-05,-4.03252551703e-05
32049523030,1989,32056000000,world,1.29520705426e-05,-1.61146096636e-07,2.3852682256e-06,-1.58620207001e-05,-6.82289243926e-05,-4.27400881586e-05
32069650046,1990,32072000000,world,2.19982184836e-05,4.12868237494e-07,2.91805452287e-06,-1.96440720199e-05,-6.79352829112e-05,-4.47099626698e-05
32099820509,1991,32088000000,world,3.11691791717e-05,2.53983047786e-07,4.60252553002e-06,-2.11493981478e-05,-6.80263644166e-05,-4.65439162181e-05
32119943392,1992,32104000000,world,3.87413215288e-05,-2.46676987554e-06,1.00309571422e-05,-2.09256882925e-05,-6.83973661609e-05,-4.77485743779e-05
32150112477,1993,32128000000,world,1.72360464354e-06,2.92701775807e-06,-4.16864797581e-06,-2.62426481244e-05,-7.81556198952e-05,-4.29848191942e-05
32150112477,1994,32152000000,world,-1.43990579153e-05,-1.69460641939e-05,2.32748052392e-05,-2.11078859785e-05,-8.40606655236e-05,-4.09392833944e-05
32150112477,1995,32152000000,world,1.06007877018e-05,9.87603015896e-06,-1.32979226273e-05,-4.02304818743e-05,-7.98542540901e-05,-4.41016724132e-05
32160202347,1996,32168000000,world,-1.27596875007e-05,-1.38995544935e-05,1.89364342626e-05,-2.26068096777e-05,-8.48980328607e-05,-4.11023949828e-05
32180349256,1997,32184000000,world,-1.04242778346e-05,-1.14360297665e-05,1.54994189679e-05,-1.95703691328e-05,-8.54835225105e-05,-4.16005292671e-05
32190405532,1998,32200000000,world,1.58605035838e-05,1.50732283364e-05,-2.02585133539e-05,-3.85746945157e-05,-8.0728283032e-05,-4.52937808399e-05
32200459901,1999,32216000000,world,-3.29369397895e-06,-6.13010917644e-06,8.4360537041e-06,-2.88183211371e-05,-8.49359188371e-05,-4.51475589767e-05
32230584549,2000,32232000000,world,1.02517682101e-06,-2.90427862738e-06,4.47003334305e-06,-2.49391486095e-05,-8.43708197033e-05,-4.5076196195e-05
32250693510,2001,32248000000,world,-3.7750883546e-05,3.3561260525e-06,-1.51080887006e-05,-3.62374728653e-05,-9.19903613192e-05,-3.60845047809e-05
32260749477,2002,32264000000,world,-3.7750883546e-05,3.3561260525e-06,-1.51080887006e-05,-3.62374728653e-05,-9.19903613192e-05,-3.60845047809e-05
32291881612,2003,32280000000,world,1.83341828017e-05,2.99429152384e-06,1.36988269367e-06,-3.07638737628e-05,-8.10072222203e-05,-3.66565801767e-05
32291881612,2004,32296000000,world,2.16631918152e-05,3.70479163451e-06,1.38421023568e-06,-3.03604990068e-05,-8.00669719469e-05,-3.45914155287e-05
32311995146,2005,32312000000,world,2.24240962701e-05,3.82464542261e-06,1.39324716918e-06,-3.0324684632e-05,-7.98545174479e-05,-3.43141088129e-05
32322050460,2006,32328000000,world,2.3867813442e-05,4.06169063164e-06,1.42469463072e-06,-3.02972237173e-05,-7.93948302294e-05,-3.38484044197e-05
32342204346,2007,32344000000,world,2.53328982031e-05,4.28398897638e-06,1.50669697115e-06,-3.02458350926e-05,-7.9011227036e-05,-3.36293219784e-05
32382647663,2008,32368000000,world,-1.80919552631e-05,-2.52520424754e-06,-2.32995103728e-06,-2.89049085199e-05,-8.67716443628e-05,-2.59004379737e-05
32382647663,2009,32384000000,world,-1.49337939362e-05,-1.84226532255e-06,-2.47366193225e-06,-2.88038635244e-05,-8.58268872126e-05,-2.48860257113e-05
32392901506,2010,32392000000,world,3.53655212927e-05,5.15736082065e-06,4.12539082887e-06,-2.93370476138e-05,-7.60707059675e-05,-3.02073066414e-05
32403035653,2011,32408000000,world,3.86333016829e-05,3.92314708574e-06,7.71549101701e-06,-2.83622807076e-05,-7.50198034713e-05,-2.86559314704e-05
32423145158,2012,32424000000,world,4.00448723994e-05,-2.15183038868e-07,1.5992914634e-05,-2.46171404477e-05,-7.42931260345e-05,-2.62893292427e-05
32433240455,2013,32440000000,world,2.31946563219e-05,-1.38169914616e-05,3.46471664538e-05,-1.8265890944e-05,-7.67495943037e-05,-2.09328900617e-05
32453523551,2014,32456000000,world,1.815089373e-06,-1.92244827823e-05,3.59946014606e-05,-1.77204589908e-05,-8.00503597842e-05,-1.5592271634e-05
32463757165,2015,32472000000,world,-4.11693155072e-06,-1.8918525876e-05,3.32416216341e-05,-1.12104155653e-05,-8.06253724026e-05,-1.34992502335e-05
32494061064,2016,32488000000,world,-7.46926704984e-06,-1.75237249253e-05,2.96621422606e-05,-1.55336352671e-05,-8.06411705486e-05,-1.1804644409e-05
32494061064,2017,32504000000,world,-8.66971018111e-06,-1.49215613176e-05,2.44213753759e-05,-1.93443076893e-05,-7.98999332242e-05,-9.46725280669e-06
32514333554,2018,32520000000,world,-6.89425096579e-06,-1.11651305773e-05,1.80029691169e-05,-1.40586076553e-05,-7.87979950155e-05,-5.88826966614e-06
32534685160,2019,32536000000,world,-3.85872434737e-06,-7.92552821995e-06,1.29916518734e-05,-1.86131954533e-05,-7.77316686412e-05,-2.8825078411e-06
32544917275,2020,32552000000,world,1.18168947745e-05,1.84273416059e-05,-2.93160484088e-05,-3.80265946531e-05,-7.46931664044e-05,-2.92177736054e-06
32565151052,2021,32568000000,world,3.14138868617e-06,-1.86666040277e-06,4.08292867644e-06,-1.33825010029e-05,-7.61762804754e-05,4.20345769587e-06
32575239471,2022,32584000000,world,5.8653542355e-06,-7.52275028196e-07,2.80949548835e-06,-1.66014349407e-05,-7.53490123966e-05,6.63979057062e-06
32595435426,2023,32600000000,world,1.04458439691e-05,3.70037140207e-09,2.63933875601e-06,-1.9394011629e-05,-7.43801075413e-05,9.11674946498e-06
32615623254,2024,32616000000,world,1.44917652684e-05,5.8365503164e-07,2.57873431649e-06,-2.22978187175e-05,-7.36328603675e-05,1.05261526194e-05
32635830757,2025,32632000000,world,1.93289364888e-05,1.19436384407e-06,2.62181060969e-06,-1.92688335126e-05,-7.28910887835e-05,1.25700691382e-05
32656242751,2026,32656000000,world,-2.32613469021e-05,-9.27973267383e-07,-4.01309468491e-06,-1.90863605052e-05,-8.13216171158e-05,2.07913794792e-05
32656242751,2027,32664000000,world,-2.32613469021e-05,-9.27973267383e-07,-4.01309468491e-06,-1.90863605052e-05,-8.13216171158e-05,2.07913794792e-05
32676465970,2028,32680000000,world,3.15614498477e-05,1.84259858744e-06,4.24534243748e-06,-1.82712489278e-05,-7.12498134157e-05,1.7586994083e-05
32686548954,2029,32696000000,world,-1.42139961399e-05,-1.14533530924e-07,-3.45573664297e-06,-1.87108114123e-05,-8.01248226476e-05,2.40387462076e-05
32706684027,2030,32712000000,world,3.89755313387e-05,-3.07363389796e-07,1.13409124443e-05,-1.71223033003e-05,-7.04286180411e-05,1.80119108131e-05
32726843079,2031,32728000000,world,3.9402201687e-05,-1.63230048283e-06,1.61488517536e-05,-1.73577314169e-05,-7.04658916705e-05,1.72161763525e-05
32736939222,2032,32744000000,world,3.60706593095e-05,-4.33666575665e-06,2.62857112337e-05,-1.3564071723e-05,-7.13674216844e-05,1.64360263702e-05
32777210815,2033,32768000000,world,2.64419156095e-06,-1.17144884766e-05,4.26941433858e-05,-1.53489228265e-05,-7.8103932367e-05,1.85005935722e-05
32787268733,2034,32784000000,world,2.21395606682e-06,1.71835767339e-06,-5.48288596604e-06,-2.36532908217e-05,-7.82736038763e-05,1.7936454682e-05
32797323272,2035,32792000000,world,-1.17845236189e-05,-1.11500604719e-05,3.65253483621e-05,-1.16399887306e-05,-8.09469495759e-05,1.88225601494e-05
32807380054,2036,32816000000,world,9.63321964449e-06,5.28949731959e-06,-1.42278907456e-05,-3.66078412198e-05,-7.61936061072e-05,1.37561131139e-05
32817473789,2037,32824000000,world,-1.46812485385e-05,-8.74226533225e-06,2.37246645249e-05,-2.11786229674e-05,-8.06619701307e-05,1.62804468196e-05
32837635992,2038,32840000000,world,-1.28993248342e-05,-7.58637436963e-06,2.02426177367e-05,-1.83690465375e-05,-7.87536362666e-05,1.48116577822e-05
32847758274,2039,32856000000,world,1.36230154775e-05,7.68117140217e-06,-2.02020194878e-05,-3.58596174604e-05,-7.27902011115e-05,1.09446639534e-05
32867941469,2040,32872000000,world,-1.01438484615e-05,-6.36651374651e-06,1.6353425702e-05,-2.69959512743e-05,-7.51761574163e-05,1.26598529661e-05
32888164255,2041,32888000000,world,-1.00362310752e-05,-6.38480660992e-06,1.61491150021e-05,-2.18599064528e-05,-7.4473364933e-05,1.29221948699e-05
32898219031,2042,32904000000,world,-9.07083412088e-06,-5.87399106829e-06,1.48645073361e-05,-2.49250048384e-05,-7.31867965902e-05,1.42030292722e-05
32918331341,2043,32920000000,world,-8.04233609582e-06,-5.30203971279e-06,1.35271047975e-05,-2.72751910462e-05,-7.19835267888e-05,1.5542830281e-05
32928385287,2044,32936000000,world,1.707118154e-05,1.15093701849e-05,-2.72696107177e-05,-3.42575298935e-05,-6.62301905514e-05,1.27819469075e-05
32948659429,2045,32952000000,world,-2.65009199037e-06,-1.42719846543e-06,6.6844168214e-06,-2.45762510429e-05,-6.58876311673e-05,1.59813027741e-05
32958845035,2046,32968000000,world,1.40574504012e-06,1.57113934809e-06,1.47115876476e-06,-2.55318973546e-05,-6.07648766309e-05,1.51023629633e-05
32979075772,2047,32984000000,world,5.72726695076e-06,5.63554677968e-06,8.23536916474e-07,-2.38375846341e-05,-5.49328520685e-05,1.35380503475e-05
32999419365,2048,33000000000,world,1.21184016828e-05,1.16737130925e-05,-2.19643226132e-07,-2.71353626065e-05,-4.83431167767e-05,1.18780029066e-05
33009476099,2049,33016000000,world,-1.97191501086e-05,-1.9222249276e-05,-1.84829053425e-06,-1.84066211971e-05,-5.16757787693e-05,1.55762848869e-05
33029746506,2050,33032000000,world,2.52779099321e-05,2.42494696864e-05,3.45806674971e-08,-2.77783252772e-05,-3.49431858878e-05,8.83561265886e-06
33039804341,2051,33048000000,world,3.05353205062e-05,2.97816103477e-05,6.30179588886e-06,-2.30841064003e-05,-2.85072861207e-05,7.95428993925e-06
33059916173,2052,33064000000,world,1.68029125932e-05,2.03494325921e-05,3.76313042383e-05,-1.22413431077e-05,-2.58663407005e-05,1.06036699836e-05
33080134592,2053,33080000000,world,-9.25994620479e-06,-3.76107984418e-06,4.16111308427e-05,-6.01063834152e-06,-2.74062709869e-05,1.50383820519e-05
33100442342,2054,33096000000,world,3.57048561164e-06,2.06778244071e-06,-8.45226325558e-06,-1.41236242525e-05,-2.29484560475e-05,1.5058694555e-05
33110500065,2055,33120000000,world,4.84134100755e-06,2.94278662514e-06,-1.03079654651e-05,-1.72791340336e-05,-2.14224720717e-05,1.64335823777e-05
33120557434,2056,33128000000,world,-1.37672329725e-05,-8.45534294861e-06,3.15919858225e-05,-3.95803620991e-06,-2.40422718802e-05,2.00222217835e-05
33140673490,2057,33144000000,world,-1.32844120432e-05,-8.48230683592e-06,2.79211694626e-05,-5.68745380498e-06,-2.20603002454e-05,2.22240189449e-05
33170886704,2058,33168000000,world,9.00841502809e-06,5.81354714956e-06,-1.70803808798e-05,-1.57565493837e-05,-1.62152325473e-05,2.11974870702e-05
33191040113,2059,33176000000,world,-1.25288554123e-05,-8.29174990347e-06,2.42144544532e-05,-2.68888086098e-06,-2.02932682987e-05,2.39195053608e-05
33191040113,2060,33192000000,world,-1.14091632268e-05,-7.76179983851e-06,2.20113729082e-05,-5.83140503302e-06,-2.00506942232e-05,2.35533695433e-05
33211190681,2061,33208000000,world,-8.94040612917e-06,-6.13322482082e-06,1.73511280223e-05,-1.81863277972e-06,-1.95704562361e-05,2.33579850493e-05
33231351018,2062,33224000000,world,-4.6500641774e-06,-3.12756696075e-06,1.04691101869e-05,-8.76756227017e-06,-1.86267074927e-05,2.36019523657e-05
33241408809,2063,33240000000,world,-6.95365984224e-07,-2.90274229161e-07,4.19181144587e-06,-1.03173291261e-05,-1.76968400412e-05,2.3876440109e-05
33251464404,2064,33256000000,world,2.15562462404e-06,1.70287403982e-06,-8.0524548127e-07,-5.76444879783e-06,-1.66183279599e-05,2.48270291103e-05
33271578884,2065,33272000000,world,7.65686810181e-06,6.01100596222e-06,-4.01542822968e-06,-1.09725648745e-05,-1.42994970327e-05,2.60324196721e-05
33281634702,2066,33288000000,world,1.3530372659e-05,1.0605795883e-05,-7.63265186349e-06,-1.56702307791e-05,-1.12423791114e-05,2.84982341654e-05
33301749296,2067,33304000000,world,1.79064618583e-05,1.40624987763e-05,-1.02885814202e-05,-1.95130796847e-05,-8.71824793957e-06,3.09465593003e-05
33311807340,2068,33320000000,world,2.21655056503e-05,1.74930908731e-05,-1.27648322341e-05,-2.33448947002e-05,-6.18506458682e-06,3.27591891781e-05
33331926184,2069,33336000000,world,2.7107221412e-05,2.12192866466e-05,-1.50612920942e-05,-1.38505035889e-05,-3.57125975212e-06,3.25312863674e-05
33352075033,2070,33352000000,world,3.38597203497e-05,2.54361593841e-05,-1.6746660787e-05,-1.92005171284e-05,-4.88294930628e-07,3.11794483826e-05
33372270306,2071,33376000000,world,-2.14239976261e-05,-2.58869208507e-05,2.66421353512e-05,3.05201139468e-06,-9.03942137556e-06,3.65197129354e-05
33392510577,2072,33392000000,world,-1.97373628832e-05,-2.17999474424e-05,2.17994897026e-05,-2.7493609273e-06,-7.31431515601e-06,3.65094374488e-05
33402566543,2073,33400000000,world,8.13500938951e-06,8.59576243792e-06,-8.62604573881e-06,-2.05469680414e-05,-1.49604791912e-06,3.33527419078e-05
33412648260,2074,33416000000,world,1.06444921063e-05,1.10066930103e-05,-1.1083077924e-05,-1.20848365625e-05,-2.24087073982e-08,3.44032375781e-05
33432904524,2075,33432000000,world,1.39520208045e-05,1.43666379418e-05,-1.45422093562e-05,-1.61585950925e-05,1.92787772531e-06,3.69104735554e-05
33442961310,2076,33448000000,world,1.78797955705e-05,1.88501093747e-05,-1.90409400874e-05,-2.01814674407e-05,4.39411791465e-06,4.03925500245e-05
33463113649,2077,33464000000,world,2.04332097094e-05,2.2833368484e-05,-2.28669234238e-05,-1.24513355891e-05,6.37521030799e-06,4.33843202947e-05
33473302903,2078,33480000000,world,2.1297854307e-05,2.7831322354e-05,-2.72234083549e-05,-1.69593742371e-05,8.01890898247e-06,4.65654691982e-05
33493455047,2079,33496000000,world,1.3852147538e-05,3.42649845394e-05,-3.14334147032e-05,-2.22066276294e-05,7.6926479828e-06,4.94950054387e-05
33503518188,2080,33512000000,world,-3.66414839872e-05,-1.6914504162e-05,1.97270589946e-05,5.46764932592e-06,-1.01049569252e-06,5.74166841031e-05
33523857844,2081,33528000000,world,-3.03812414295e-05,-1.57324456213e-05,1.89478293186e-05,4.25960569853e-06,1.54294531279e-06,5.67788791486e-05
33543971083,2082,33544000000,world,1.01139010323e-05,5.33117112502e-06,-6.6613066616e-06,-9.96843206164e-06,9.95094624891e-06,5.16501541629e-05
33553990876,2083,33560000000,world,-2.11229670732e-05,-1.11215254041e-05,1.37991815252e-05,2.50475951202e-06,5.77140135329e-06,5.53637794574e-05
33574184216,2084,33576000000,world,-1.75337876112e-05,-9.31867562624e-06,1.15674235145e-05,-1.69962197147e-06,7.3105951276e-06,5.49382352817e-05
33584238563,2085,33592000000,world,2.10310346644e-05,1.09459116024e-05,-1.38247031815e-05,-8.37881006501e-06,1.49155211245e-05,5.00513837296e-05
33604604261,2086,33608000000,world,-1.31079412867e-05,-7.18678409509e-06,8.69674764791e-06,-2.5480862654e-06,9.11546807742e-06,5.4751882524e-05
33614663111,2087,33624000000,world,-1.02324340232e-05,-5.84761150203e-06,6.85239597478e-06,6.49947560805e-07,9.59592385096e-06,5.60351252122e-05
33644903581,2088,33640000000,world,-6.19957895111e-06,-3.85523612765e-06,4.35254346761e-06,-3.73882783127e-06,9.7195634628e-06,5.72539657073e-05
33654961027,2089,33656000000,world,-1.41872093861e-06,-1.23413045316e-06,1.31259528254e-06,-1.65281334355e-06,9.63250390991e-06,5.78940287597e-05
33665022278,2090,33672000000,world,2.23727312873e-06,1.22457055825e-06,-1.33135062954e-06,-6.50141367206e-06,9.53327317187e-06,5.81834148749e-05
33695330011,2091,33688000000,world,-3.47094040458e-05,-1.90404349395e-05,2.07015255686e-05,2.75245980877e-06,2.16372051144e-06,6.2552361501e-05
33725809118,2092,33704000000,world,9.09330145878e-06,5.06177603876e-06,-5.5018865314e-06,-1.36196711261e-05,9.11210983177e-06,5.64413209835e-05
33725809118,2093,33720000000,world,-2.73411051129e-05,-1.53755576764e-05,1.65787633085e-05,-3.84185132327e-06,2.07014714915e-06,6.09968829093e-05
33725809118,2094,33736000000,world,1.16402486029e-05,6.40870783216e-06,-7.03752892339e-06,-1.07707831737e-05,9.57016379404e-06,5.60502023055e-05
33746290092,2095,33752000000,world,1.29544323364e-05,7.12701515937e-06,-7.9290823984e-06,-1.48126430195e-05,1.00062591397e-05,5.57887533541e-05
33766581017,2096,33768000000,world,1.32858488617e-05,7.26555122133e-06,-8.1033300279e-06,-1.13884859094e-05,1.02805185657e-05,5.59620251027e-05
33776652344,2097,33784000000,world,1.32575875885e-05,7.32175584287e-06,-8.1775551639e-06,-1.47383492307e-05,1.02635662472e-05,5.59258881899e-05
33796829666,2098,33800000000,world,1.40971243744e-05,7.82605201225e-06,-8.8071507489e-06,-1.81033153893e-05,1.06165276771e-05,5.63904103515e-05
33806886973,2099,33816000000,world,-2.29658139906e-05,-1.29676959413e-05,1.44467139059e-05,-3.76002513839e-06,3.62189223011e-06,6.1266305348e-05
33826996911,2100,33832000000,world,1.70963945475e-05,9.4823508326e-06,-1.08000587059e-05,-1.44683925909e-05,1.17536870981e-05,5.72452559337e-05
33847352465,2101,33848000000,world,1.91249936298e-05,1.06128414356e-05,-1.20704546161e-05,-1.19011092494e-05,1.2632721249e-05,5.78482146943e-05
33857408505,2102,33864000000,world,2.14508464703e-05,1.20146478681e-05,-1.36122845833e-05,-1.5889219433e-05,1.34046949362e-05,5.86819689924e-05
33877561178,2103,33880000000,world,2.3371011603e-05,1.31408427393e-05,-1.47209454348e-05,-1.26007431166e-05,1.40166658546e-05,5.94627601677e-05
33897676372,2104,33904000000,world,-1.25273897924e-05,-7.1867386256e-06,7.76959855669e-06,-6.16267969687e-06,7.30693901813e-06,6.48170993459e-05
33907734304,2105,33912000000,world,2.54520383487e-05,1.44622516155e-05,-1.58959404228e-05,-2.01088137719e-05,1.44933159693e-05,5.97952883773e-05
33928051797,2106,33928000000,world,2.58806384037e-05,1.50224299424e-05,-1.64559015835e-05,-1.28458021537e-05,1.44656158562e-05,5.92869007466e-05
33938106729,2107,33944000000,world,2.59910841976e-05,1.5354147483e-05,-1.68786807937e-05,-1.65164587777e-05,1.43662278929e-05,5.93999100359e-05
33958399531,2108,33960000000,world,2.59552232038e-05,1.54145584295e-05,-1.69114774139e-05,-1.40691549094e-05,1.42626577823e-05,5.97011499944e-05
33968494309,2109,33976000000,world,2.58991327417e-05,1.54845589362e-05,-1.69944353351e-05,-1.74284215501e-05,1.42882137359e-05,5.99612616308e-05
33988685497,2110,33992000000,world,2.58411994762e-05,1.55515513571e-05,-1.70746946213e-05,-2.06192431426e-05,1.43221256591e-05,6.02438447679e-05
33998743205,2111,34008000000,world,2.56618030209e-05,1.55648665105e-05,-1.71091770257e-05,-1.32187564936e-05,1.43397874745e-05,6.05322958217e-05
34018931773,2112,34024000000,world,2.59941696101e-05,1.60449380315e-05,-1.75698485378e-05,-1.7120267761e-05,1.48402065526e-05,5.97973895153e-05
34039206413,2113,34040000000,world,2.67316475729e-05,1.71212146655e-05,-1.82003640446e-05,-1.51203342589e-05,1.52792658333e-05,5.92812193786e-05
34049262364,2114,34056000000,world,2.73714199448e-05,1.83870166797e-05,-1.89113290665e-05,-1.93968739462e-05,1.56632921841e-05,5.87444459595e-05
34069376167,2115,34072000000,world,-7.49875741959e-06,-5.3277482354e-06,5.22105083916e-06,-8.27060889524e-06,9.02450999497e-06,6.32294746951e-05
34079510860,2116,34088000000,world,2.76287476218e-05,2.06286843666e-05,-1.97840060413e-05,-1.55013856974e-05,1.55859073109e-05,5.94633870275e-05
34099661498,2117,34104000000,world,2.77467599863e-05,2.16641168812e-05,-1.99793794958e-05,-1.92158318248e-05,1.51661925711e-05,6.0165786205e-05
34119820616,2118,34120000000,world,-5.56470157177e-06,-4.59338182924e-06,3.95976146635e-06,-7.41809283148e-06,8.64103897039e-06,6.47401889649e-05
34140121924,2119,34136000000,world,2.79524832607e-05,2.45002481793e-05,-1.96216363625e-05,-1.66162571076e-05,1.50940021655e-05,6.11231902404e-05
