%time,field.header.seq,field.header.stamp,field.header.frame_id,field.pose.position.x,field.pose.position.y,field.pose.position.z,field.pose.orientation.x,field.pose.orientation.y,field.pose.orientation.z,field.pose.orientation.w
93754111009,5845,93752000000,world,10.8999719482,-8.65000095794,4.90000307948,-6.24396985704e-06,2.00163040216e-05,0.707155015738,0.707058543034
93764225342,5846,93768000000,world,10.8999719377,-8.65000095792,4.90000307946,-6.45978182558e-06,1.98790481285e-05,0.707155163618,0.707058395135
93774344692,5847,93784000000,world,10.899971799,-8.65000095786,4.90000307942,-6.67907109692e-06,1.97379744457e-05,0.707155309329,0.707058249406
93794586742,5848,93800000000,world,10.899971477,-8.65000095776,4.90000307933,-6.90233310251e-06,1.95925868627e-05,0.707155452419,0.707058106298
93814781613,5849,93816000000,world,10.899971762,-8.65000095782,4.90000307939,-7.12757029573e-06,1.94448813141e-05,0.70715559471,0.70705796399
93824866066,5850,93832000000,world,10.8999717774,-8.65000095782,4.90000307939,-7.3520255633e-06,1.92976146316e-05,0.707155738719,0.707057819963
93845068899,5851,93848000000,world,10.8999715065,-8.65000095776,4.90000307934,-7.57338399828e-06,1.91531001566e-05,0.707155886558,0.707057672105
93855184761,5852,93864000000,world,10.8999709455,-8.65000095763,4.90000307921,-7.79110406955e-06,1.9011878873e-05,0.707156038724,0.707057519919
93876215363,5853,93880000000,world,10.8999709396,-8.65000095763,4.90000307921,-8.00434556592e-06,1.88747911004e-05,0.707156195986,0.707057362637
93886290671,5854,93896000000,world,10.8999707143,-8.65000095759,4.90000307916,-8.21395187483e-06,1.87409933494e-05,0.707156357581,0.70705720102
93906435000,5855,93912000000,world,10.8999703209,-8.65000095764,4.90000307916,-8.41893301819e-06,1.86114738758e-05,0.707156524415,0.707057034163
93926588945,5856,93928000000,world,10.8999706136,-8.65000095777,4.90000307927,-8.6167642807e-06,1.84887589559e-05,0.707156698796,0.707056859759
93936730383,5857,93944000000,world,10.899970743,-8.65000095783,4.90000307931,-8.8046551683e-06,1.83756382147e-05,0.707156883271,0.707056675259
93967075226,5858,93960000000,world,10.8999706877,-8.6500009578,4.90000307929,-8.98586105947e-06,1.82688533928e-05,0.707157074871,0.707056483631
93977151035,5859,93976000000,world,10.8999704242,-8.6500009577,4.9000030792,-9.16763054841e-06,1.81611543404e-05,0.707157266987,0.707056291488
93987256356,5860,93992000000,world,10.8999699343,-8.65000095747,4.90000307902,-9.3572167805e-06,1.80452869603e-05,0.707157453006,0.707056105443
94007433433,5861,94008000000,world,10.8999700991,-8.65000095751,4.90000307906,-9.5571964092e-06,1.7918674252e-05,0.707157630582,0.707055927843
94017501263,5862,94024000000,world,10.899970151,-8.65000095751,4.90000307906,-9.76568168875e-06,1.77832042033e-05,0.707157801442,0.707055756959
94037703950,5863,94040000000,world,10.899970159,-8.65000095749,4.90000307905,-9.9789705595e-06,1.76425775109e-05,0.707157968967,0.70705558941
94047832512,5864,94056000000,world,10.899970121,-8.65000095745,4.90000307903,-1.01923413226e-05,1.75015177407e-05,0.707158137469,0.707055420884
94068016626,5865,94072000000,world,10.8999699807,-8.6500009574,4.90000307898,-1.04013962512e-05,1.73644219829e-05,0.707158310958,0.70705524737
94078120358,5866,94088000000,world,10.8999696684,-8.6500009573,4.90000307889,-1.06027438842e-05,1.72346796981e-05,0.707158492528,0.707055065774
94098330341,5867,94104000000,world,10.8999699685,-8.65000095738,4.90000307897,-1.07943438288e-05,1.71143290994e-05,0.707158684039,0.707054874234
94118551339,5868,94120000000,world,10.8999700048,-8.65000095739,4.90000307898,-1.09755173085e-05,1.70040465981e-05,0.707158886112,0.707054672132
94128631804,5869,94136000000,world,10.8999698185,-8.65000095733,4.90000307893,-1.11490324191e-05,1.69010649565e-05,0.707159096225,0.707054461987
94148782155,5870,94152000000,world,10.8999694952,-8.65000095723,4.90000307883,-1.13185704537e-05,1.68017029886e-05,0.707159311029,0.707054247151
94158880463,5871,94168000000,world,10.8999690638,-8.65000095725,4.9000030788,-1.14853397533e-05,1.67047503357e-05,0.707159529424,0.707054028723
94179155698,5872,94184000000,world,10.8999693452,-8.65000095766,4.90000307908,-1.1652730803e-05,1.66068135635e-05,0.707159748319,0.707053809796
94199268681,5873,94200000000,world,10.8999694571,-8.65000095782,4.9000030792,-1.18260783187e-05,1.65025584246e-05,0.707159962849,0.707053595232
94209325342,5874,94216000000,world,10.899969359,-8.65000095775,4.90000307914,-1.20102767415e-05,1.63870885311e-05,0.707160168553,0.707053389497
94229624685,5875,94232000000,world,10.8999690352,-8.65000095732,4.90000307632,-1.22065008811e-05,1.62590597993e-05,0.707160364174,0.707053193846
94239681587,5876,94248000000,world,10.8999693289,-8.65000095722,4.90000304877,-1.24131477652e-05,1.61197063828e-05,0.707160550773,0.707053007219
94259938843,5877,94264000000,world,10.8999694139,-8.65000095719,4.90000304085,-1.26274435976e-05,1.59714260281e-05,0.707160730468,0.707052827496
94270016998,5878,94280000000,world,10.8999693047,-8.65000095717,4.90000305172,-1.28397164512e-05,1.58177677103e-05,0.707160905336,0.7070526526
94290373414,5879,94296000000,world,10.8999690524,-8.65000095718,4.90000307631,-1.30402562299e-05,1.56625975305e-05,0.7071610778,0.707052480109
94310586804,5880,94312000000,world,10.8999687235,-8.6500009573,4.90000310431,-1.32269389929e-05,1.5508411262e-05,0.707161250212,0.707052307671
94320654828,5881,94328000000,world,10.8999683728,-8.65000095771,4.90000312715,-1.34043358583e-05,1.53559968694e-05,0.707161424313,0.707052133543
94340907181,5882,94344000000,world,10.8999680065,-8.65000095843,4.90000314799,-1.357773043e-05,1.52016621441e-05,0.707161597042,0.707051960787
94351043073,5883,94360000000,world,10.8999675961,-8.65000095976,4.90000316909,-1.37416577983e-05,1.50449132041e-05,0.70716176682,0.707051790983
94371201341,5884,94376000000,world,10.8999679437,-8.65000096112,4.90000313528,-1.38827398404e-05,1.48891894875e-05,0.707161934898,0.70705162288
94391382999,5885,94392000000,world,10.899968179,-8.65000096181,4.90000311326,-1.39871722025e-05,1.47390917423e-05,0.707162103726,0.707051454026
94401447063,5886,94408000000,world,10.8999682823,-8.65000096211,4.90000310361,-1.40448852271e-05,1.459850199e-05,0.707162275675,0.707051282052
94421625926,5887,94424000000,world,10.8999682457,-8.65000096208,4.90000310688,-1.40505603054e-05,1.44698089275e-05,0.707162452368,0.707051105335
94431685447,5888,94440000000,world,10.8999680676,-8.65000096173,4.90000312319,-1.40030731377e-05,1.43535310267e-05,0.707162634166,0.707050923511
94451990639,5889,94456000000,world,10.8999677513,-8.65000096094,4.90000315356,-1.39081131817e-05,1.42488242959e-05,0.707162821224,0.707050736427
94462124718,5890,94472000000,world,10.8999673013,-8.65000095908,4.90000319418,-1.37785911077e-05,1.41534030683e-05,0.707163013479,0.707050544146
94482452931,5891,94488000000,world,10.8999675584,-8.65000095923,4.90000315897,-1.3629101698e-05,1.40645562402e-05,0.70716321072,0.707050346878
94502670256,5892,94504000000,world,10.8999676889,-8.6500009593,4.90000314115,-1.34712053365e-05,1.3980096465e-05,0.707163412736,0.707050144835
94512760433,5893,94520000000,world,10.899967915,-8.65000095944,4.90000310745,-1.33914507344e-05,1.39390591451e-05,0.707163515483,0.707050042074
94532904165,5894,94536000000,world,10.8999676009,-8.65000095923,4.90000315687,-1.31566247498e-05,1.38186458039e-05,0.707163829858,0.707049727655
94542974101,5895,94552000000,world,10.8999674254,-8.65000095912,4.90000318386,-1.29970513234e-05,1.37410707427e-05,0.70716404378,0.707049513702
94563093717,5896,94568000000,world,10.8999671702,-8.650000959,4.90000322593,-1.28249573286e-05,1.36673814876e-05,0.70716426116,0.707049296292
94583210448,5897,94584000000,world,10.8999668368,-8.65000095893,4.90000329926,-1.26409281772e-05,1.35998295004e-05,0.707164484594,0.707049072826
94593294277,5898,94600000000,world,10.899966471,-8.65000095949,4.90000347875,-1.24497611068e-05,1.35380138494e-05,0.707164714556,0.707048842831
94613506444,5899,94616000000,world,10.8999668457,-8.65000096013,4.90000347295,-1.22569521453e-05,1.34774558878e-05,0.707164947157,0.707048610196
94623624921,5900,94632000000,world,10.899967158,-8.65000096066,4.90000346973,-1.20676338124e-05,1.34130216431e-05,0.707165177721,0.707048379598
94643884644,5901,94648000000,world,10.8999674013,-8.65000096107,4.90000346769,-1.18878599889e-05,1.33386562421e-05,0.707165400728,0.707048156559
94654019567,5902,94664000000,world,10.8999675674,-8.65000096134,4.90000346643,-1.17219031892e-05,1.3250084612e-05,0.707165612283,0.707047944974
94674364296,5903,94680000000,world,10.8999676495,-8.65000096148,4.90000346578,-1.1571684742e-05,1.31453844817e-05,0.707165810635,0.707047746593
94694486667,5904,94696000000,world,10.8999676435,-8.65000096148,4.90000346567,-1.14374625107e-05,1.30242960839e-05,0.707165995553,0.707047561649
94704540872,5905,94712000000,world,10.8999675449,-8.65000096134,4.9000034661,-1.13139757221e-05,1.28920804355e-05,0.707166171836,0.70704738534
94724745324,5906,94728000000,world,10.8999673487,-8.65000096104,4.90000346717,-1.11938112187e-05,1.27561519178e-05,0.707166346251,0.707047210901
94734824882,5907,94744000000,world,10.8999670509,-8.65000096056,4.90000346919,-1.10708371025e-05,1.26226415963e-05,0.707166524392,0.707047032734
94755008642,5908,94760000000,world,10.8999666497,-8.65000095981,4.90000347329,-1.09404020986e-05,1.24962009071e-05,0.707166710504,0.707046846594
94775207424,5909,94776000000,world,10.8999669862,-8.65000095987,4.90000347685,-1.07998015103e-05,1.2379533153e-05,0.707166907058,0.707046650011
94785277730,5910,94792000000,world,10.8999672192,-8.65000095996,4.90000347875,-1.06477609987e-05,1.22739122763e-05,0.707167115218,0.70704644182
94805541814,5911,94808000000,world,10.8999673518,-8.65000096002,4.90000347977,-1.04882088555e-05,1.21754074785e-05,0.707167331404,0.707046225601
94815640064,5912,94824000000,world,10.8999674085,-8.65000096004,4.90000348023,-1.03260322617e-05,1.20791319912e-05,0.707167551162,0.707046005809
94835818472,5913,94840000000,world,10.8999674015,-8.65000096001,4.90000348027,-1.01626190545e-05,1.1983696509e-05,0.707167773231,0.707045783707
94845884928,5914,94856000000,world,10.8999673279,-8.65000095995,4.90000347988,-9.99632155236e-06,1.18907483777e-05,0.707167999114,0.707045557788
94866265921,5915,94872000000,world,10.8999671969,-8.65000095986,4.90000347906,-9.8266622442e-06,1.18007633401e-05,0.707168229252,0.707045327614
94886490832,5916,94888000000,world,10.8999670297,-8.65000095974,4.90000347789,-9.65422777165e-06,1.1713154039e-05,0.707168463112,0.707045093717
94896573512,5917,94904000000,world,10.8999668302,-8.65000096078,4.90000347647,-9.48031049473e-06,1.1622708468e-05,0.707168693414,0.707044863378
94916793125,5918,94920000000,world,10.8999666024,-8.65000096114,4.90000347477,-9.30682815539e-06,1.15257188619e-05,0.707168915627,0.707044641131
94926927236,5919,94936000000,world,10.899966339,-8.65000096156,4.90000347277,-9.1343334224e-06,1.14164225976e-05,0.707169121138,0.707044435588
94947121983,5920,94952000000,world,10.8999660215,-8.65000095844,4.90000347025,-8.96260275189e-06,1.12874302707e-05,0.7071692983,0.707044258398
94967356686,5921,94968000000,world,10.8999656323,-8.65000093466,4.9000034665,-8.7911948131e-06,1.11325077283e-05,0.707169437124,0.707044119554
94977482681,5922,94984000000,world,10.8999659419,-8.65000074644,4.90000346215,-8.61382224737e-06,1.09536185323e-05,0.707169536613,0.707044020053
94997634735,5923,95000000000,world,10.8999661928,-8.65000062971,4.90000345991,-8.42270915417e-06,1.07566132393e-05,0.707169600861,0.707043955799
95017867116,5924,95024000000,world,10.8999662327,-8.65000060684,4.9000034594,-8.09487877708e-06,1.04418229113e-05,0.707169644094,0.707043912567
95027948951,5925,95032000000,world,10.8999664698,-8.65000051217,4.90000345784,-7.97359310269e-06,1.03327638262e-05,0.707169645247,0.707043911416
95038074388,5926,95048000000,world,10.8999665019,-8.65000049732,4.90000345754,-7.71150688537e-06,1.01098956817e-05,0.707169628948,0.707043927725
95058412819,5927,95064000000,world,10.8999664834,-8.65000050278,4.90000345756,-7.42869355314e-06,9.88298396831e-06,0.707169594826,0.707043961859
95078677335,5928,95080000000,world,10.8999664384,-8.65000051948,4.90000345778,-7.13385581477e-06,9.65513520086e-06,0.707169553338,0.707044003361
95088749552,5929,95096000000,world,10.8999663873,-8.65000053945,4.90000345808,-6.8348637934e-06,9.42866771743e-06,0.707169513177,0.707044043535
95108860219,5930,95112000000,world,10.8999663256,-8.65000056204,4.90000345842,-6.53768801812e-06,9.19997512054e-06,0.707169472581,0.707044084143
95118957107,5931,95128000000,world,10.8999662499,-8.65000059006,4.90000345885,-6.24498451981e-06,8.96640045476e-06,0.707169429129,0.707044127608
95139108472,5932,95144000000,world,10.899966144,-8.65000062816,4.90000345944,-5.95781863247e-06,8.7230150903e-06,0.707169375835,0.707044180918
95159305433,5933,95160000000,world,10.8999659854,-8.65000068634,4.90000346032,-5.67518986862e-06,8.46210466333e-06,0.70716930004,0.707044256732
95169414593,5934,95176000000,world,10.8999657551,-8.65000077616,4.90000346175,-5.39509837791e-06,8.17649288593e-06,0.707169189278,0.707044367519
95189530415,5935,95192000000,world,10.8999654461,-8.65000091469,4.90000346417,-5.11567182425e-06,7.86138150353e-06,0.707169034869,0.70704452196
95199588406,5936,95208000000,world,10.8999650947,-8.6500011616,4.90000346965,-4.8356312173e-06,7.51452990501e-06,0.707168832501,0.70704472437
95219725713,5937,95224000000,world,10.8999654031,-8.65000116918,4.90000347173,-4.54965673389e-06,7.14031569923e-06,0.707168585557,0.707044971363
95239912323,5938,95240000000,world,10.8999656194,-8.65000116195,4.90000347281,-4.24757837061e-06,6.7488035644e-06,0.707168303148,0.707045253826
95249969279,5939,95256000000,world,10.8999657519,-8.65000115596,4.90000347341,-3.92015895485e-06,6.34920725354e-06,0.707167993663,0.707045563371
95270082890,5940,95272000000,world,10.8999658075,-8.65000115449,4.90000347368,-3.56190957448e-06,5.94779079569e-06,0.707167663315,0.707045893782
95280135776,5941,95288000000,world,10.8999657902,-8.65000115853,4.90000347366,-3.17087648137e-06,5.54781858219e-06,0.707167315926,0.707046241235
95300246942,5942,95304000000,world,10.8999656987,-8.65000116823,4.90000347336,-2.75163475504e-06,5.14589516742e-06,0.707166949164,0.707046608065
95310303298,5943,95320000000,world,10.8999655275,-8.65000118311,4.90000347272,-2.31412682073e-06,4.73283390397e-06,0.707166555138,0.707047002162
95330620863,5944,95336000000,world,10.8999652894,-8.65000120071,4.90000347175,-1.87048120413e-06,4.3038680352e-06,0.707166134255,0.70704742312
95350805340,5945,95352000000,world,10.8999649888,-8.6500012186,4.90000347037,-1.42391480126e-06,3.85965226325e-06,0.707165689611,0.707047867842
95360898458,5946,95368000000,world,10.8999646159,-8.65000121963,4.90000346801,-9.73352406035e-07,3.40718058554e-06,0.707165231404,0.707048326128
95381066652,5947,95384000000,world,10.8999649231,-8.65000099659,4.90000346499,-5.18217624869e-07,2.95619752602e-06,0.707164774437,0.707048783173
95391181979,5948,95400000000,world,10.8999651874,-8.65000084927,4.90000346349,-5.86155669622e-08,2.5109498883e-06,0.707164325393,0.707049232292
95411351259,5949,95416000000,world,10.8999653891,-8.65000074523,4.90000346259,4.04076995233e-07,2.07404703035e-06,0.707163889224,0.707049668533
95431562072,5950,95432000000,world,10.899965518,-8.65000068032,4.90000346206,8.69778874769e-07,1.6498846401e-06,0.707163472829,0.707050084996
95441687750,5951,95448000000,world,10.899965565,-8.65000065569,4.90000346182,1.33391246402e-06,1.2362519229e-06,0.707163075719,0.707050482169
95461939590,5952,95464000000,world,10.8999655268,-8.65000067256,4.90000346185,1.79488508206e-06,8.32026618796e-07,0.707162697175,0.707050860773
95472220514,5953,95480000000,world,10.8999654039,-8.65000073127,4.90000346216,2.25511150045e-06,4.39080793556e-07,0.707162338554,0.70705121945
95492424222,5954,95496000000,world,10.8999651996,-8.65000083125,4.9000034628,2.71844492166e-06,6.03711209131e-08,0.707162001975,0.70705155608
95502503418,5955,95512000000,world,10.8999649176,-8.65000097099,4.90000346395,3.18810424746e-06,-3.01185758388e-07,0.707161689902,0.7070518682
95522728347,5956,95528000000,world,10.8999645626,-8.65000114695,4.90000346625,3.66124221918e-06,-6.48463044307e-07,0.707161399699,0.707052158445
95542962665,5957,95544000000,world,10.8999648614,-8.65000093012,4.9000034704,4.13126061856e-06,-9.88064357391e-07,0.707161125341,0.707052432842
95563161824,5958,95560000000,world,10.8999651112,-8.65000075845,4.90000347607,4.60333805275e-06,-1.3186401313e-06,0.707160855803,0.707052702419
95583396246,5959,95584000000,world,10.8999652292,-8.65000067821,4.90000347928,5.34442072186e-06,-1.77436798266e-06,0.707160434799,0.70705312348
95583396246,5960,95592000000,world,10.8999654849,-8.65000051267,4.90000349095,5.60401316339e-06,-1.91212965079e-06,0.707160284943,0.707053273356
95603553960,5961,95608000000,world,10.8999656213,-8.65000042468,4.90000349831,6.14382870584e-06,-2.15828875214e-06,0.707159963248,0.707053595095
95623757144,5962,95624000000,world,10.8999657369,-8.65000035044,4.90000350565,6.70464153732e-06,-2.36883754988e-06,0.707159618792,0.707053939597
95633882581,5963,95640000000,world,10.8999658431,-8.6500002823,4.90000351338,7.27640864929e-06,-2.55593844288e-06,0.707159262694,0.707054295742
95654127628,5964,95656000000,world,10.8999659378,-8.65000022147,4.90000352057,7.8503601187e-06,-2.73071710803e-06,0.707158902067,0.707054656416
95664235189,5965,95672000000,world,10.8999660198,-8.65000016863,4.90000352724,8.42148845845e-06,-2.90188358811e-06,0.707158541834,0.707055016694
95684501222,5966,95688000000,world,10.8999660914,-8.65000012241,4.90000353344,8.98607054215e-06,-3.07758486761e-06,0.707158186878,0.707055371694
95694633193,5967,95704000000,world,10.899966144,-8.65000008772,4.90000353776,9.54635699826e-06,-3.25659694049e-06,0.707157843211,0.707055715403
95714839474,5968,95720000000,world,10.8999661577,-8.65000007802,4.90000353726,1.01110648128e-05,-3.43448646942e-06,0.707157509693,0.70705604896
95735097902,5969,95736000000,world,10.8999661112,-8.65000010762,4.90000352892,1.06906797434e-05,-3.60775388124e-06,0.707157179555,0.707056379136
95745201570,5970,95752000000,world,10.8999659886,-8.65000018723,4.9000035113,1.12936572934e-05,-3.77439875862e-06,0.707156845055,0.707056713673
95765413059,5971,95768000000,world,10.8999657809,-8.65000032184,4.90000348731,1.19250021837e-05,-3.93376216998e-06,0.707156500148,0.707057058618
95775534904,5972,95784000000,world,10.8999654799,-8.65000050936,4.90000347105,1.25806195732e-05,-4.09196543738e-06,0.707156135977,0.707057422827
95795703244,5973,95800000000,world,10.8999651055,-8.6500007053,4.90000357141,1.32510672173e-05,-4.25386925273e-06,0.707155751498,0.707057807346
95826076587,5974,95816000000,world,10.899965356,-8.65000052239,4.9000036766,1.39329883688e-05,-4.41970403233e-06,0.7071553495,0.707058209386
95826076587,5975,95832000000,world,10.8999655526,-8.65000038042,4.90000375359,1.46274525405e-05,-4.58790884761e-06,0.707154931958,0.70705862697
95846290622,5976,95848000000,world,10.8999656878,-8.65000028117,4.90000380673,1.53348171283e-05,-4.76052266341e-06,0.707154495862,0.707059063109
95856363922,5977,95864000000,world,10.8999657533,-8.65000023178,4.90000383337,1.6051391298e-05,-4.94378526234e-06,0.707154034533,0.707059524482
95876555783,5978,95880000000,world,10.8999657399,-8.65000023872,4.90000383074,1.67720279736e-05,-5.14427152291e-06,0.707153541169,0.707060017894
95886671446,5979,95896000000,world,10.8999656588,-8.65000029522,4.90000380222,1.74926125365e-05,-5.36174234118e-06,0.707153019425,0.707060539687
95906868206,5980,95912000000,world,10.8999655176,-8.65000039636,4.9000037501,1.82127244629e-05,-5.58466467638e-06,0.707152471354,0.70706108781
95927025439,5981,95928000000,world,10.8999653207,-8.65000054165,4.90000366986,1.89384853335e-05,-5.79475590378e-06,0.707151899213,0.707061660004
95937099232,5982,95944000000,world,10.8999650744,-8.65000073522,4.90000354307,1.96761062711e-05,-5.98186172557e-06,0.707151302599,0.707062256672
95957283468,5983,95960000000,world,10.8999649274,-8.65000093159,4.90000321278,2.04314302633e-05,-6.14575145595e-06,0.707150683221,0.707062876104
95967357455,5984,95976000000,world,10.8999652136,-8.65000073919,4.90000325654,2.12051399956e-05,-6.29320301143e-06,0.707150049481,0.707063509898
95987551708,5985,95992000000,world,10.8999654282,-8.6500005983,4.90000328112,2.19905235136e-05,-6.43338617978e-06,0.70714941292,0.707064146511
96007756879,5986,96008000000,world,10.8999655742,-8.65000050325,4.90000329615,2.27776443908e-05,-6.5701505708e-06,0.707148781644,0.707064777837
96017846952,5987,96024000000,world,10.8999656566,-8.65000044954,4.90000330464,2.35573171725e-05,-6.70546403274e-06,0.707148159318,0.707065400209
96038095624,5988,96040000000,world,10.8999656796,-8.65000043428,4.90000330781,2.43229357895e-05,-6.84153407313e-06,0.70714754677,0.707066012801
96048256625,5989,96056000000,world,10.899965645,-8.65000045613,4.90000330611,2.50709581497e-05,-6.9802866021e-06,0.707146943285,0.707066616327
96068469170,5990,96072000000,world,10.8999655537,-8.65000051469,4.90000329947,2.58002028639e-05,-7.12266278117e-06,0.707146348162,0.707067211491
96078595550,5991,96088000000,world,10.8999654056,-8.65000060993,4.90000328739,2.65105052119e-05,-7.268826171e-06,0.70714576125,0.70706779844
96098806931,5992,96104000000,world,10.899965201,-8.65000074213,4.90000326964,2.7195681623e-05,-7.42012095237e-06,0.707145182028,0.707068377698
96118979411,5993,96120000000,world,10.8999649403,-8.65000091164,4.90000324321,2.78428950951e-05,-7.57896279948e-06,0.707144609717,0.707068950043
96129085049,5994,96136000000,world,10.8999646258,-8.65000111762,4.90000319109,2.84391972064e-05,-7.74748176157e-06,0.707144043844,0.707069515951
96159362959,5995,96152000000,world,10.8999646305,-8.65000113723,4.90000293547,2.9230318418e-05,-8.01164119985e-06,0.707143214953,0.707070344893
96159362959,5996,96168000000,world,10.8999645807,-8.65000116756,4.90000294376,2.9468686983e-05,-8.10159314437e-06,0.707142943562,0.707070616301
96179552475,5997,96184000000,world,10.8999647814,-8.65000104722,4.90000291097,2.99197833364e-05,-8.28332040227e-06,0.70714240104,0.707071158857
96199666110,5998,96200000000,world,10.8999649039,-8.65000097416,4.90000288924,3.03520591354e-05,-8.46687562632e-06,0.707141853386,0.707071706546
96209724708,5999,96216000000,world,10.8999649466,-8.65000095018,4.90000287962,3.0788585593e-05,-8.65073278269e-06,0.70714129496,0.707072265006
96229833422,6000,96232000000,world,10.8999649123,-8.65000097356,4.90000288265,3.12426175882e-05,-8.83421269808e-06,0.707140725085,0.707072834913
96239926523,6001,96248000000,world,10.8999648034,-8.65000104273,4.90000289966,3.17157791894e-05,-9.01784604174e-06,0.707140144265,0.707073415765
96260083738,6002,96264000000,world,10.8999646202,-8.65000115575,4.90000293377,3.2207768912e-05,-9.2018720543e-06,0.707139552568,0.707074007493
96270139956,6003,96280000000,world,10.8999643622,-8.65000130711,4.90000299454,3.27185761129e-05,-9.38630274432e-06,0.70713894998,0.70707461011
96290306039,6004,96296000000,world,10.8999640325,-8.65000146424,4.9000031319,3.32489824793e-05,-9.57075091864e-06,0.707138336602,0.707075223516
96310419182,6005,96312000000,world,10.899964311,-8.65000123686,4.90000316945,3.38010140522e-05,-9.75461336122e-06,0.707137712065,0.70707584808
96320475278,6006,96328000000,world,10.8999645221,-8.65000106984,4.90000318896,3.43768209568e-05,-9.93736185466e-06,0.707137075803,0.707076484366
96340834630,6007,96344000000,world,10.8999646613,-8.65000096064,4.90000320024,3.49779405606e-05,-1.01186626372e-05,0.707136427346,0.707077132847
96350928918,6008,96360000000,world,10.8999647286,-8.65000090783,4.90000320588,3.56016257286e-05,-1.03019212937e-05,0.707135763161,0.707077797053
96371078791,6009,96376000000,world,10.8999647272,-8.6500009097,4.90000320685,3.62409643542e-05,-1.04942566974e-05,0.707135076622,0.707078483612
96391433697,6010,96392000000,world,10.8999646599,-8.65000096442,4.90000320343,3.68887519618e-05,-1.07029071142e-05,0.707134361105,0.707079199149
96401492696,6011,96408000000,world,10.8999645269,-8.65000107063,4.90000319532,3.75433280122e-05,-1.09295368184e-05,0.70713361509,0.707079945184
96421893281,6012,96424000000,world,10.8999643251,-8.65000122786,4.90000318028,3.82102565364e-05,-1.11629306669e-05,0.707132842593,0.707080717699
96431985746,6013,96440000000,world,10.8999640505,-8.65000143619,4.90000315638,3.88921809143e-05,-1.1382613964e-05,0.707132049512,0.707081510797
96452189841,6014,96456000000,world,10.8999636982,-8.65000169725,4.90000312042,3.95792326974e-05,-1.15655426172e-05,0.707131249971,0.707082310353
96462257252,6015,96472000000,world,10.8999639295,-8.65000150141,4.90000313393,4.02598300195e-05,-1.16968271349e-05,0.707130452634,0.707083107704
96482331122,6016,96488000000,world,10.8999640856,-8.65000136963,4.90000314306,4.09256165924e-05,-1.17704499448e-05,0.707129659688,0.707083900663
96502490694,6017,96504000000,world,10.8999641654,-8.65000130353,4.90000314798,4.15692776747e-05,-1.1783207486e-05,0.707128876565,0.707084683797
96512565423,6018,96520000000,world,10.8999641662,-8.65000130511,4.90000314871,4.21845104956e-05,-1.17302668354e-05,0.707128114151,0.707085446223
96532813752,6019,96536000000,world,10.8999640825,-8.65000137693,4.90000314508,4.27607180286e-05,-1.16119897572e-05,0.707127378681,0.707086181704
96542940642,6020,96552000000,world,10.8999639098,-8.65000151909,4.90000313604,4.32902720146e-05,-1.14298401962e-05,0.707126674723,0.707086885673
96563099803,6021,96568000000,world,10.8999636388,-8.6500017239,4.90000311662,4.37661797702e-05,-1.11899972549e-05,0.707126000926,0.707087559481
96583311420,6022,96584000000,world,10.8999636112,-8.65000175521,4.90000311748,4.41848323073e-05,-1.0903639236e-05,0.707125354981,0.70708820544
96593402448,6023,96600000000,world,10.8999637821,-8.65000156998,4.9000031136,4.45466256054e-05,-1.05842687163e-05,0.707124738327,0.707088822107
96613545176,6024,96616000000,world,10.899963864,-8.65000148224,4.90000311156,4.48537810639e-05,-1.02430132346e-05,0.707124154545,0.707089405905
96623639334,6025,96632000000,world,10.8999638501,-8.65000148964,4.90000310834,4.5108879316e-05,-9.88672281761e-06,0.707123606864,0.707089953601
96643789656,6026,96648000000,world,10.89996374,-8.65000159299,4.90000310452,4.53141515658e-05,-9.51901673165e-06,0.707123096209,0.707090464272
96663973376,6027,96664000000,world,10.8999635418,-8.65000179876,4.90000310898,4.54817043812e-05,-9.13945756798e-06,0.707122621622,0.707090938874
96674044235,6028,96680000000,world,10.8999633687,-8.65000214575,4.90000323608,4.56290595049e-05,-8.74572050625e-06,0.70712218197,0.707091378542
96694399876,6029,96696000000,world,10.8999635992,-8.65000194656,4.90000326772,4.57714631725e-05,-8.3349198338e-06,0.707121777266,0.707091783258
96714539249,6030,96712000000,world,10.8999635898,-8.65000195197,4.90000326335,4.59882475737e-05,-7.68831971304e-06,0.707121224072,0.707092336469
96724621244,6031,96728000000,world,10.8999637477,-8.65000182174,4.90000328989,4.60632220776e-05,-7.46589255511e-06,0.70712104991,0.707092510636
96734697446,6032,96744000000,world,10.8999636632,-8.65000189335,4.90000327313,4.62146090174e-05,-7.0163796451e-06,0.707120706638,0.707092853916
96754881935,6033,96760000000,world,10.8999634968,-8.65000203297,4.90000324368,4.63665952539e-05,-6.56297716062e-06,0.707120364172,0.707093196389
96775080134,6034,96776000000,world,10.8999632619,-8.65000222521,4.90000320577,4.65125938931e-05,-6.1082683869e-06,0.70712002111,0.707093539459
96785162168,6035,96792000000,world,10.8999629519,-8.65000246566,4.90000316688,4.66530917129e-05,-5.65234059067e-06,0.707119676817,0.70709388376
96805314780,6036,96808000000,world,10.8999631734,-8.65000222036,4.90000324824,4.67942278637e-05,-5.19403513067e-06,0.707119330374,0.707094230209
96815439848,6037,96824000000,world,10.8999633176,-8.6500020691,4.90000329488,4.69432327234e-05,-4.7315038583e-06,0.707118981099,0.70709457949
96835632489,6038,96840000000,world,10.8999633652,-8.65000201839,4.90000331084,4.71059135571e-05,-4.26298288015e-06,0.707118628589,0.707094932004
96855882428,6039,96856000000,world,10.899963308,-8.65000207369,4.90000329572,4.72856926824e-05,-3.78728346352e-06,0.707118272695,0.7070952879
96866008787,6040,96872000000,world,10.8999631445,-8.65000223775,4.90000324821,4.74838064742e-05,-3.30385358319e-06,0.707117913437,0.707095647159
96886192342,6041,96888000000,world,10.8999628798,-8.65000251443,4.9000031635,4.77004349885e-05,-2.8125944841e-06,0.707117550826,0.707096009768
96896243195,6042,96904000000,world,10.8999631049,-8.65000233356,4.90000319945,4.79299854103e-05,-2.31873575485e-06,0.707117180332,0.70709638026
96916394899,6043,96920000000,world,10.8999632047,-8.6500022528,4.90000321611,4.81654493483e-05,-1.82746304827e-06,0.70711679841,0.707096762178
96926517368,6044,96936000000,world,10.8999631748,-8.65000227665,4.90000321,4.84069442296e-05,-1.34293530002e-06,0.707116398531,0.707097162053
96946740997,6045,96952000000,world,10.8999629472,-8.65000246216,4.90000317001,4.85308718763e-05,-1.10349960628e-06,0.707116190807,0.707097369774
96967014481,6046,96968000000,world,10.8999626975,-8.65000266993,4.90000312578,4.89151354477e-05,-4.00429818615e-07,0.707115541777,0.707098018796
96977089274,6047,96984000000,world,10.8999628501,-8.65000249718,4.90000317004,4.91784296515e-05,5.1524479528e-08,0.707115099517,0.707098461048
96997332412,6048,97000000000,world,10.8999628977,-8.65000244669,4.90000318185,4.94441215752e-05,4.93230318114e-07,0.707114658256,0.7070989023
97007447798,6049,97016000000,world,10.8999628442,-8.65000250079,4.90000316627,4.97100720353e-05,9.30154384855e-07,0.707114221734,0.707099338813
97027666822,6050,97032000000,world,10.899962683,-8.65000267223,4.90000312349,4.99796592961e-05,1.36529341652e-06,0.707113782224,0.707099778312
97047901217,6051,97048000000,world,10.8999624423,-8.65000303093,4.90000310459,5.02587365573e-05,1.80801390118e-06,0.70711334181,0.707100218714
97058027730,6052,97064000000,world,10.8999625565,-8.65000290016,4.90000312904,5.05465569112e-05,2.26535537689e-06,0.70711290676,0.707100653749
97078192070,6053,97080000000,world,10.8999624888,-8.6500029648,4.90000311072,5.08372221098e-05,2.73917983082e-06,0.707112481797,0.707101078698
97088252488,6054,97096000000,world,10.8999622272,-8.65000324034,4.90000304859,5.11238773082e-05,3.22818667411e-06,0.70711206949,0.707101490988
97108450442,6055,97112000000,world,10.8999623763,-8.65000319535,4.90000310968,5.14012637636e-05,3.73056693595e-06,0.707111670584,0.707101889877
97118505052,6056,97128000000,world,10.8999622754,-8.65000327048,4.90000307907,5.16679678626e-05,4.24564885909e-06,0.707111284948,0.707102275496
97138654746,6057,97144000000,world,10.8999619127,-8.65000338166,4.90000293176,5.19211811986e-05,4.77092459029e-06,0.70711091212,0.707102648307
97158815592,6058,97160000000,world,10.8999620398,-8.65000329916,4.90000297336,5.21597559729e-05,5.3037036288e-06,0.707110551302,0.707103009108
97172882362,6059,97176000000,world,10.8999619443,-8.6500033786,4.90000294617,5.23843589071e-05,5.84296081213e-06,0.707110201719,0.707103358673
97182941840,6060,97192000000,world,10.8999616249,-8.6500036121,4.90000284741,5.25989485369e-05,6.38613589272e-06,0.707109856873,0.707103703501
97203051610,6061,97208000000,world,10.8999616954,-8.65000348077,4.90000285181,5.28139148484e-05,6.93212136842e-06,0.70710950787,0.707104052487
97223254758,6062,97224000000,world,10.899961642,-8.65000353744,4.90000283942,5.30388865138e-05,7.48064214044e-06,0.707109149767,0.707104410569
97233312580,6063,97240000000,world,10.8999614793,-8.65000374565,4.90000281131,5.32751140078e-05,8.03445090844e-06,0.707108785857,0.707104774458
97253425646,6064,97256000000,world,10.8999613888,-8.65000408137,4.90000304484,5.3519726199e-05,8.59897547854e-06,0.707108423791,0.7071051365
97263479485,6065,97272000000,world,10.8999615635,-8.65000383929,4.90000307743,5.37676790245e-05,9.17479708843e-06,0.707108067873,0.707105492394
97283590595,6066,97288000000,world,10.8999616865,-8.65000367299,4.90000310767,5.4015710971e-05,9.75879157442e-06,0.707107718517,0.707105841724
97293846043,6067,97304000000,world,10.8999617588,-8.65000357593,4.90000312637,5.42618634436e-05,1.03505273105e-05,0.707107376698,0.707106183517
97314007809,6068,97320000000,world,10.8999617503,-8.65000358237,4.90000311906,5.45042458391e-05,1.09525896999e-05,0.707107044928,0.70710651526
97334164080,6069,97336000000,world,10.8999616576,-8.6500036974,4.90000308491,5.47422570971e-05,1.15648345022e-05,0.707106723237,0.707106836922
97344305809,6070,97352000000,world,10.8999614722,-8.6500039348,4.90000302577,5.49763536511e-05,1.21877603189e-05,0.707106411494,0.707107148637
97364433029,6071,97368000000,world,10.8999611992,-8.65000434357,4.90000298744,5.52065337797e-05,1.2823575109e-05,0.70710611098,0.707107449121
97374613192,6072,97384000000,world,10.8999612682,-8.65000425955,4.90000301253,5.54324303301e-05,1.34747978441e-05,0.707105823495,0.707107736576
97394736136,6073,97400000000,world,10.8999611705,-8.65000436933,4.90000296933,5.56536452902e-05,1.41433660035e-05,0.707105550546,0.707108009494
97414925216,6074,97416000000,world,10.8999609073,-8.65000470157,4.90000288817,5.58698679357e-05,1.48303755664e-05,0.707105293065,0.707108266943
97424999026,6075,97432000000,world,10.8999609871,-8.65000460718,4.90000291911,5.60809113377e-05,1.55361895497e-05,0.707105051426,0.707108508548
97445243540,6076,97448000000,world,10.8999608861,-8.65000472129,4.90000287188,5.62874754543e-05,1.62475121862e-05,0.70710481932,0.707108740621
97455371064,6077,97464000000,world,10.8999606062,-8.65000504901,4.90000275404,5.64938495042e-05,1.69546798616e-05,0.707104585136,0.70710897477
97475531690,6078,97480000000,world,10.8999606736,-8.65000497591,4.90000279615,5.67053131392e-05,1.76508523559e-05,0.707104336805,0.707109223066
97495703708,6079,97496000000,world,10.899960565,-8.65000510101,4.90000273602,5.6926586512e-05,1.83351880221e-05,0.707104065457,0.707109494377
97505738697,6080,97512000000,world,10.8999602808,-8.65000537698,4.90000251533,5.71581100326e-05,1.90136283336e-05,0.707103772482,0.707109787313
97525912771,6081,97528000000,world,10.8999603545,-8.65000530111,4.90000256576,5.73958386029e-05,1.96957723279e-05,0.707103468804,0.70711009095
97535990909,6082,97544000000,world,10.899960296,-8.65000536502,4.90000253379,5.76357053137e-05,2.03866318855e-05,0.70710316421,0.707110395501
97556180181,6083,97560000000,world,10.899960164,-8.65000550372,4.90000245165,5.78755163124e-05,2.10860186209e-05,0.707102863796,0.707110695873
97566294624,6084,97576000000,world,10.8999599804,-8.65000569614,4.90000232875,5.81191904553e-05,2.17913119707e-05,0.707102562166,0.707110997458
97586366614,6085,97592000000,world,10.8999597342,-8.65000595049,4.90000215269,5.83688805339e-05,2.24902160914e-05,0.707102255425,0.707111304152
97606524903,6086,97608000000,world,10.8999599373,-8.65000573971,4.9000022321,5.86228346323e-05,2.31663263331e-05,0.707101944663,0.707111614868
97616607800,6087,97624000000,world,10.8999600187,-8.65000565545,4.90000226536,5.88777464346e-05,2.38058444156e-05,0.707101633311,0.707111926173
97636818351,6088,97640000000,world,10.8999599622,-8.65000571447,4.90000223775,5.912545526e-05,2.4395138266e-05,0.707101320359,0.70711223908
97646935860,6089,97656000000,world,10.8999600816,-8.65000586119,4.90000217838,5.94028195347e-05,2.50179541707e-05,0.70710301538,0.707110544035
97667145279,6090,97672000000,world,10.8999606119,-8.65000598837,4.90000212894,5.96556813263e-05,2.56519457435e-05,0.707110394204,0.707103165169
97687336337,6091,97688000000,world,10.8999619228,-8.65000606866,4.90000208771,5.9828991119e-05,2.61692239525e-05,0.707127166303,0.707086392467
97697432392,6092,97704000000,world,10.8999645556,-8.65000611112,4.90000203559,5.9953309898e-05,2.64596084579e-05,0.707156032934,0.707057522971
97717680632,6093,97720000000,world,10.8999687926,-8.65000610709,4.90000196366,6.00787048589e-05,2.64647836571e-05,0.707198535201,0.707015012217
97727746286,6094,97736000000,world,10.8999747044,-8.65000605383,4.90000187058,6.0227622798e-05,2.61664534565e-05,0.707255298503,0.70695822962
97758011311,6095,97760000000,world,10.8999866526,-8.65000592502,4.9000016822,6.04912623554e-05,2.52026622819e-05,0.707367507158,0.706845956007
97758011311,6096,97768000000,world,10.8999914352,-8.65000587799,4.9000016034,6.0584734575e-05,2.47562558358e-05,0.707412128264,0.706801299165
97778510083,6097,97784000000,world,10.9000021792,-8.65000579201,4.90000141613,6.07657867639e-05,2.36929555117e-05,0.707512129619,0.706701197245
97798758355,6098,97800000000,world,10.9000138409,-8.6500058084,4.90000119635,6.08234024368e-05,2.24983996836e-05,0.707623203953,0.706589978008
97808902075,6099,97816000000,world,10.9000252542,-8.6500059354,4.90000096484,6.08080676459e-05,2.13332886436e-05,0.70774028135,0.706472710019
97829054922,6100,97832000000,world,10.9000361464,-8.65000614951,4.90000072959,6.07440796492e-05,2.02382150983e-05,0.707862041678,0.706350710237
97839174881,6101,97848000000,world,10.9000470837,-8.65000643754,4.90000048365,6.05651038241e-05,1.915283924e-05,0.707990304634,0.706222149546
97849243044,6102,97864000000,world,10.9000580649,-8.65000678411,4.90000022953,6.02729414195e-05,1.80828429126e-05,0.708124887651,0.706087203913
97879528408,6103,97880000000,world,10.9000693877,-8.65000717631,4.89999996512,5.98361647781e-05,1.70018657668e-05,0.708266647326,0.705945006652
97889604765,6104,97896000000,world,10.9000816974,-8.65000757199,4.89999968166,5.92278753417e-05,1.58392797579e-05,0.708417706339,0.705793418492
97909756687,6105,97912000000,world,10.9000956518,-8.65000792026,4.89999937221,5.84000478679e-05,1.4488996609e-05,0.708577746419,0.705632747015
97919864351,6106,97928000000,world,10.9001117682,-8.65000820314,4.89999903257,5.72821021458e-05,1.28715346972e-05,0.708744431803,0.705465326534
97940108124,6107,97944000000,world,10.9001303376,-8.65000843496,4.89999866,5.58520755404e-05,1.1000720976e-05,0.708915048303,0.705293875664
97950222332,6108,97960000000,world,10.9001514551,-8.65000863651,4.89999825378,5.41418001061e-05,8.95233177846e-06,0.709087390369,0.705120606569
97970381662,6109,97976000000,world,10.9001750945,-8.65000880833,4.89999781435,5.22298436981e-05,6.81130332122e-06,0.709260016743,0.704946966711
97990632647,6110,97992000000,world,10.9002011527,-8.65000894184,4.8999973394,5.02532369128e-05,4.70242480263e-06,0.709432429404,0.704773456908
98000715519,6111,98008000000,world,10.9002295738,-8.65000903266,4.89999682506,4.82704064505e-05,2.67231316861e-06,0.709604334131,0.704600373719
98030997409,6112,98032000000,world,10.9002766722,-8.65000908267,4.8999959726,4.5235515238e-05,-2.96407438659e-07,0.70986041043,0.704342385249
98030997409,6113,98040000000,world,10.9002935856,-8.65000907634,4.89999566603,4.4182294481e-05,-1.29605980212e-06,0.709945114509,0.70425700737
98051186681,6114,98056000000,world,10.9003292867,-8.65000902993,4.89999501903,4.19706964035e-05,-3.35910210741e-06,0.710113203041,0.704087520905
98071423923,6115,98072000000,world,10.900366497,-8.65000893913,4.8999943405,3.96304214624e-05,-5.49953240786e-06,0.710279741179,0.703919517892
98081546229,6116,98088000000,world,10.9004037268,-8.65000881614,4.89999365487,3.72013981482e-05,-7.69181470877e-06,0.710445222693,0.703752502027
98101758655,6117,98104000000,world,10.9004406363,-8.65000866718,4.89999297432,3.46948297113e-05,-9.93453272137e-06,0.710609628042,0.703586494492
98111857140,6118,98120000000,world,10.9004778902,-8.65000849092,4.89999229643,3.21028307895e-05,-1.22494967026e-05,0.71077246017,0.703421999004
98132061184,6119,98136000000,world,10.9005165075,-8.65000829057,4.89999161041,2.94190291255e-05,-1.46722878319e-05,0.710933085802,0.703259657901
98142156911,6120,98152000000,world,10.9005574056,-8.65000807625,4.89999090459,2.66445323072e-05,-1.72405936755e-05,0.711090991948,0.703099993005
98162327711,6121,98168000000,world,10.9006011837,-8.6500078577,4.89999017019,2.37941769421e-05,-1.99715277378e-05,0.71124587037,0.702943319846
98182490735,6122,98184000000,world,10.9006481199,-8.65000764235,4.899989402,2.08833803977e-05,-2.287233056e-05,0.711397614659,0.702789750138
98196884134,6123,98200000000,world,10.9006982606,-8.65000743639,4.89998859787,1.79176349366e-05,-2.59451584597e-05,0.71154625176,0.702639260654
98206941757,6124,98216000000,world,10.9007515399,-8.65000724,4.89998775684,1.48907484756e-05,-2.91810725219e-05,0.711691901172,0.702491734281
98227049319,6125,98232000000,world,10.9008078645,-8.65000704758,4.89998688458,1.17825028666e-05,-3.25727375868e-05,0.711834729027,0.702347006366
98247198139,6126,98248000000,world,10.9008671611,-8.65000685538,4.89998599078,8.57892681715e-06,-3.6117379513e-05,0.711974898975,0.702204914431
98257254806,6127,98264000000,world,10.9009293903,-8.65000666476,4.89998508095,5.27802786968e-06,-3.98078966855e-05,0.712112571847,0.702065298534
98277368190,6128,98280000000,world,10.900994534,-8.65000647808,4.8999841564,1.89604684728e-06,-4.36240416292e-05,0.712247892206,0.701928014928
98287424269,6129,98296000000,world,10.9010625971,-8.65000629949,4.89998321497,-1.54092108731e-06,-4.75402376936e-05,0.712381000234,0.701792924047
98307768421,6130,98312000000,world,10.9011335895,-8.65000612731,4.89998225032,-5.00916839333e-06,-5.15335175686e-05,0.712512049914,0.701659872051
98318019823,6131,98328000000,world,10.901207518,-8.65000595988,4.89998125709,-8.49493167585e-06,-5.55835229584e-05,0.712641216141,0.701528683588
98338371862,6132,98344000000,world,10.9012832774,-8.65000578855,4.89998024199,-1.19885256373e-05,-5.96416459057e-05,0.712768992881,0.701398858771
98358734745,6133,98360000000,world,10.9013592089,-8.65000561285,4.89997922295,-1.5479200258e-05,-6.36728380501e-05,0.712896011964,0.701269756821
98368919622,6134,98376000000,world,10.9014348922,-8.65000543023,4.89997821261,-1.8952014073e-05,-6.76584090152e-05,0.71302247708,0.701141171407
98389071493,6135,98392000000,world,10.9015099866,-8.65000524019,4.89997721996,-2.23975841484e-05,-7.15952120707e-05,0.713148532286,0.701012956564
98399135644,6136,98408000000,world,10.9015848956,-8.65000504481,4.89997624688,-2.58023100283e-05,-7.54748107116e-05,0.71327414193,0.700885149002
98419279091,6137,98424000000,world,10.9016606861,-8.65000484749,4.89997528839,-2.91643469454e-05,-7.93015863627e-05,0.713399154251,0.700757903684
98439490025,6138,98440000000,world,10.901738496,-8.65000465113,4.89997433711,-3.2493917509e-05,-8.3094451549e-05,0.713523435088,0.700631357862
98449576162,6139,98456000000,world,10.9018191624,-8.65000445597,4.89997338655,-3.5805041453e-05,-8.68732749643e-05,0.713646929726,0.700505568046
98469782477,6140,98472000000,world,10.9019031351,-8.65000426159,4.8999724323,-3.91062392814e-05,-9.06508755787e-05,0.713769648238,0.700380524792
98479920011,6141,98488000000,world,10.9019905618,-8.65000407225,4.89997147205,-4.23874637489e-05,-9.44294442797e-05,0.713891639497,0.700256179082
98500127347,6142,98504000000,world,10.9020814112,-8.65000389276,4.89997050484,-4.56439940408e-05,-9.82018356376e-05,0.71401298858,0.700132444908
98510194647,6143,98520000000,world,10.9021755792,-8.65000372921,4.89996953006,-4.88758794491e-05,-0.000101959043473,0.714133788018,0.700009228529
98530393793,6144,98536000000,world,10.9022729652,-8.65000358291,4.89996854731,-5.2089743083e-05,-0.000105691877778,0.714254130323,0.699886436097
98550668041,6145,98552000000,world,10.9023734944,-8.6500034465,4.89996755918,-5.52941982728e-05,-0.000109387713892,0.714374098531,0.699763983301
98580945203,6146,98568000000,world,10.9025301079,-8.6500032404,4.89996607506,-6.00764193813e-05,-0.000114835081541,0.714553479476,0.699580808893
98591035998,6147,98584000000,world,10.9025838613,-8.65000316682,4.89996558103,-6.1661383775e-05,-0.000116620116238,0.71461313866,0.699519867232
98591035998,6148,98600000000,world,10.9026936961,-8.65000300282,4.89996459524,-6.48166544531e-05,-0.000120146145476,0.714732305507,0.699398107539
98611189951,6149,98616000000,world,10.9028054812,-8.65000282147,4.89996361513,-6.79404652356e-05,-0.000123609356574,0.714851310327,0.699276471954
98631387614,6150,98632000000,world,10.9029175012,-8.65000263237,4.89996264494,-7.10193253634e-05,-0.000127013156289,0.714970206237,0.69915490631
98641502757,6151,98648000000,world,10.9030284374,-8.65000243991,4.8999616884,-7.40725592964e-05,-0.000130391081202,0.715089050867,0.699033351738
98661668891,6152,98664000000,world,10.9031383408,-8.65000224548,4.89996074596,-7.71051794572e-05,-0.000133733342205,0.715207867069,0.698911784886
98671752871,6153,98680000000,world,10.9032483098,-8.65000204809,4.89995981446,-8.01275398486e-05,-0.000137016354076,0.715326680541,0.698790179462
98691990960,6154,98696000000,world,10.9033598042,-8.65000184154,4.89995888964,-8.31627745866e-05,-0.00014023587159,0.715445527875,0.698668497974
98702113005,6155,98712000000,world,10.9034740385,-8.65000161762,4.89995796785,-8.62329239437e-05,-0.000143400244228,0.715564443091,0.698546705514
98722369342,6156,98728000000,world,10.9035917282,-8.6500013743,4.89995704666,-8.93513363088e-05,-0.000146511009394,0.71568345353,0.69842477397
98742604350,6157,98744000000,world,10.9037131464,-8.65000111836,4.89995612722,-9.25194279651e-05,-0.000149573347905,0.715802568077,0.698302694111
98752725070,6158,98760000000,world,10.9038382915,-8.65000085963,4.89995521388,-9.57379693766e-05,-0.000152606615392,0.715921786759,0.698180465774
98772962103,6159,98776000000,world,10.9039670373,-8.65000060596,4.89995431133,-9.90079320819e-05,-0.000155632864525,0.716041105808,0.69805809269
98783049898,6160,98792000000,world,10.904099241,-8.65000036194,4.89995342176,-0.000102326793668,-0.000158660372226,0.716160520048,0.697935580036
98803214202,6161,98808000000,world,10.9042347957,-8.65000012843,4.89995254517,-0.00010568956992,-0.000161686833149,0.71628002382,0.697812933502
98823413627,6162,98824000000,world,10.9043736428,-8.64999990368,4.89995168115,-0.000109091483352,-0.000164709910923,0.716399610061,0.697690160224
98833533808,6163,98840000000,world,10.904515765,-8.64999968748,4.89995082933,-0.000112532785795,-0.000167725931995,0.716519279678,0.697567259162
98853732565,6164,98856000000,world,10.9046611672,-8.6499994821,4.89994998939,-0.000116019537012,-0.000170729392892,0.716639043867,0.697444218699
98863861204,6165,98872000000,world,10.9048098457,-8.64999927629,4.89994916231,-0.000119539660002,-0.000173711411662,0.716758913497,0.697321027545
98884108868,6166,98888000000,world,10.9049606028,-8.64999906781,4.89994834796,-0.000123054829802,-0.000176643003641,0.71687885207,0.69719772311
98894185193,6167,98904000000,world,10.9051127814,-8.64999884851,4.89994754783,-0.000126530894788,-0.000179505278782,0.716998846565,0.697074318701
98914384234,6168,98920000000,world,10.9052665816,-8.64999860287,4.89994676458,-0.000129961031427,-0.000182308369421,0.717118930584,0.696950779662
98934657067,6169,98936000000,world,10.9054225752,-8.64999831548,4.89994600046,-0.000133349911085,-0.000185065066085,0.717239159243,0.696827049143
98944743837,6170,98952000000,world,10.9055813531,-8.64999797571,4.89994525669,-0.000136702031317,-0.000187783083388,0.71735957965,0.696703078459
98964956423,6171,98968000000,world,10.9057433439,-8.649997578,4.89994453355,-0.000140019319399,-0.000190465059981,0.717480219905,0.69657883844
98975060404,6172,98984000000,world,10.905908773,-8.64999712049,4.8999438308,-0.000143301460635,-0.000193110055197,0.717601090951,0.696454317553
98995295717,6173,99000000000,world,10.9060777024,-8.64999660296,4.89994314811,-0.000146546228793,-0.000195716034247,0.717722193373,0.696329514928
99015521344,6174,99016000000,world,10.906250101,-8.64999602591,4.89994248518,-0.000149757960276,-0.000198287644663,0.717843531351,0.696204425978
99025598502,6175,99032000000,world,10.9064259028,-8.64999539061,4.89994184155,-0.000152952455775,-0.000200839793527,0.717965107166,0.696079048069
99045838813,6176,99048000000,world,10.9066050396,-8.64999469791,4.89994121662,-0.00015614084817,-0.000203382849989,0.71808690966,0.695953392427
99055964793,6177,99064000000,world,10.9067862699,-8.64999396958,4.89994060724,-0.000159308217207,-0.000205894677606,0.718208857374,0.695827542871
99076161626,6178,99080000000,world,10.9069689138,-8.64999321898,4.89994001156,-0.000162441284307,-0.000208363283792,0.718330894974,0.695701556361
99086299929,6179,99096000000,world,10.9071531509,-8.64999244706,4.89993942922,-0.000165539719503,-0.000210797025502,0.718453009586,0.695575446072
99106531139,6180,99112000000,world,10.9073395278,-8.64999164863,4.89993886108,-0.000168602836095,-0.00021320570539,0.718575211976,0.695449200769
99126710440,6181,99128000000,world,10.9075286228,-8.64999081541,4.89993830843,-0.000171624060902,-0.000215592905942,0.718697519277,0.695322802625
99136765915,6182,99144000000,world,10.9077208645,-8.64998993922,4.89993777235,-0.000174594491479,-0.000217957047483,0.718819945311,0.695196237212
99167010093,6183,99168000000,world,10.9080155871,-8.64998853187,4.89993700047,-0.000178939451134,-0.000221451653778,0.719003823653,0.695006057896
99167010093,6184,99176000000,world,10.9081155532,-8.64998803641,4.89993675184,-0.000180356259505,-0.00022260122794,0.719065181529,0.694942575061
99187169839,6185,99192000000,world,10.908318041,-8.64998700605,4.89993626744,-0.00018314060709,-0.000224875048827,0.719187994048,0.694815475582
99201183374,6186,99208000000,world,10.9085226983,-8.64998594297,4.89993579804,-0.000185849748728,-0.000227093566614,0.719310892234,0.694688242453
99221295897,6187,99224000000,world,10.9087276901,-8.64998487358,4.89993533893,-0.000188486537006,-0.000229243856988,0.719433805794,0.694560948371
99231399162,6188,99240000000,world,10.9089316168,-8.64998381038,4.89993488513,-0.000191090546194,-0.000231357687679,0.719556695639,0.694433633776
99251548798,6189,99256000000,world,10.9091345284,-8.64998274862,4.89993443544,-0.000193669621601,-0.000233429253265,0.719679561157,0.694306299306
99271659392,6190,99272000000,world,10.9093365459,-8.64998168554,4.89993398987,-0.000196223107523,-0.000235453273279,0.719802405549,0.694178941646
99284649437,6191,99288000000,world,10.9095384781,-8.64998060777,4.89993354891,-0.000198748274217,-0.000237415886101,0.719925261356,0.694051527046
99294707791,6192,99304000000,world,10.9097417061,-8.64997948396,4.89993311335,-0.00020125584984,-0.000239328210897,0.720048187627,0.69392399419
99314855423,6193,99320000000,world,10.9099475394,-8.64997828244,4.89993268398,-0.000203763215213,-0.000241211693875,0.720171244866,0.693796280161
99335039100,6194,99336000000,world,10.9101568572,-8.649976982,4.89993226125,-0.00020628563731,-0.000243083779002,0.720294477861,0.693668338271
99345115829,6195,99352000000,world,10.9103700878,-8.64997557226,4.89993184537,-0.000208829619616,-0.000244950654547,0.720417908139,0.693540145934
99365303098,6196,99368000000,world,10.9105873359,-8.64997405438,4.89993143632,-0.000211389578661,-0.000246811766273,0.72054153021,0.693411708613
99375427339,6197,99384000000,world,10.9108085256,-8.64997243589,4.89993103397,-0.000213957494471,-0.000248667226939,0.720665323135,0.693283047837
99395590322,6198,99400000000,world,10.9110335259,-8.64997072378,4.89993063817,-0.000216519921064,-0.000250512159064,0.72078926209,0.693154189209
99415838703,6199,99424000000,world,10.911377935,-8.64996798805,4.89993005644,-0.000220342261639,-0.000253262224054,0.720975414826,0.692960560584
99435994746,6200,99432000000,world,10.9114945506,-8.64996703186,4.89992986567,-0.000221613535656,-0.000254178588686,0.721037527528,0.692895930265
99446122159,6201,99448000000,world,10.9117304829,-8.64996505244,4.8999294888,-0.000224162619434,-0.000256022721987,0.721161842393,0.692766541686
99456241245,6202,99464000000,world,10.9119700078,-8.64996297259,4.8999291181,-0.000226733999834,-0.000257886514764,0.721286254444,0.69263700539
99476476629,6203,99480000000,world,10.9122118619,-8.64996081629,4.89992875265,-0.000229314077302,-0.000259742441284,0.721410702717,0.692507384765
99486606117,6204,99496000000,world,10.9124553397,-8.64995858792,4.89992839194,-0.000231894714944,-0.000261574419563,0.72153515149,0.692377716979
99506822739,6205,99512000000,world,10.9127006399,-8.6499562698,4.89992803607,-0.000234477016852,-0.000263387939627,0.721659594403,0.692248008631
99526978178,6206,99528000000,world,10.9129483598,-8.64995383831,4.89992768544,-0.000237056314282,-0.000265186176011,0.721784030785,0.692118260404
99537054540,6207,99544000000,world,10.9131991157,-8.64995127589,4.89992734044,-0.000239632913785,-0.000266976157474,0.721908468008,0.691988464585
99557290060,6208,99560000000,world,10.9134533513,-8.64994857313,4.89992700136,-0.000242212338791,-0.000268768126059,0.722032917554,0.691858609157
99567414869,6209,99576000000,world,10.9137100627,-8.64994576776,4.89992666744,-0.000244775671228,-0.000270541738422,0.722157362036,0.691728712248
99587632894,6210,99592000000,world,10.9139686323,-8.64994288265,4.89992633819,-0.000247314604355,-0.00027228713249,0.722281792921,0.691598782757
99607855868,6211,99608000000,world,10.9142292262,-8.64993991524,4.89992601371,-0.000249842414647,-0.000274009153265,0.722406227381,0.691468802723
99617941057,6212,99624000000,world,10.9144923544,-8.6499368537,4.89992569436,-0.000252373239347,-0.000275709597638,0.722530685961,0.69133875064
99638195346,6213,99640000000,world,10.9147585484,-8.64993368472,4.8999253805,-0.000254913167322,-0.000277384291488,0.72265518194,0.691208612572
99648266295,6214,99656000000,world,10.9150281895,-8.64993039351,4.89992507239,-0.000257463135399,-0.00027903609406,0.722779710935,0.69107839303
99668466441,6215,99672000000,world,10.9153014809,-8.64992697508,4.89992477015,-0.000260017192376,-0.000280668155058,0.72290425971,0.6909481058
99678589626,6216,99688000000,world,10.9155784871,-8.64992343276,4.8999244738,-0.0002625751909,-0.000282290554528,0.723028821774,0.690817757625
99698752372,6217,99704000000,world,10.9158591887,-8.64991977254,4.8999241833,-0.000265141296832,-0.000283915423846,0.723153398607,0.690687346905
99719016100,6218,99720000000,world,10.9161435275,-8.64991599975,4.89992389986,-0.000267715814274,-0.000285551560595,0.723277996057,0.690556867469
99729143448,6219,99736000000,world,10.9164301994,-8.64991215581,4.89992362309,-0.000270275237319,-0.000287173741869,0.723402593827,0.690426340551
99749339489,6220,99752000000,world,10.916718457,-8.64990824593,4.89992335436,-0.000272800086223,-0.000288768831813,0.723527170441,0.690295788649
99759461635,6221,99768000000,world,10.9170084603,-8.64990424641,4.89992309657,-0.000275283754816,-0.000290340409385,0.72365171729,0.690165220788
99779683036,6222,99784000000,world,10.9173007806,-8.64990012637,4.89992285235,-0.000277717397562,-0.000291887422128,0.723776229738,0.690034641842
99799896642,6223,99800000000,world,10.9175960239,-8.64989586115,4.89992262337,-0.000280101695357,-0.000293414055131,0.723900712729,0.689904046634
99810035192,6224,99816000000,world,10.9178946351,-8.64989143658,4.89992241033,-0.000282445281895,-0.000294930287167,0.724025175763,0.689773425193
99830226097,6225,99832000000,world,10.9181968522,-8.64988684728,4.89992221331,-0.000284758115745,-0.000296446459385,0.72414962775,0.68964276815
99840245438,6226,99848000000,world,10.9185027447,-8.64988209342,4.89992203225,-0.000287047530872,-0.000297970173715,0.724274075161,0.689512068688
99860439163,6227,99864000000,world,10.918812281,-8.64987717744,4.89992186707,-0.000289316798968,-0.000299504915643,0.724398521039,0.689381323586
99870566615,6228,99880000000,world,10.9191253731,-8.64987210294,4.89992171749,-0.000291561530101,-0.000301045301341,0.724522961098,0.689250537327
99890847538,6229,99896000000,world,10.9194419263,-8.64986688478,4.89992158308,-0.000293783040093,-0.000302583065622,0.724647405008,0.689119699726
99911021506,6230,99912000000,world,10.919760656,-8.64986158057,4.89992146044,-0.000295968443867,-0.000304088425704,0.724771840157,0.688988824037
99921091758,6231,99928000000,world,10.92008084,-8.64985622316,4.89992134757,-0.000298114048969,-0.000305549864312,0.724896266379,0.688857910427
99941322779,6232,99944000000,world,10.920402647,-8.64985081122,4.8999212443,-0.000300227843728,-0.000306975922606,0.725020709297,0.688726931896
99951391659,6233,99960000000,world,10.9207266463,-8.64984532926,4.89992115176,-0.000302307460884,-0.000308379162146,0.725145195671,0.688595860217
99971585838,6234,99976000000,world,10.9210534376,-8.64983975953,4.89992107157,-0.000304350275123,-0.00030977952474,0.725269749044,0.688464670502
99991724056,6235,99992000000,world,10.9213834595,-8.64983408791,4.89992100507,-0.000306357169727,-0.000311198035555,0.725394386572,0.688333344558
100001836961,6236,100008000000,world,10.9217157568,-8.64982834573,4.89992095084,-0.000308312069887,-0.000312612962854,0.725519081614,0.688201910365
100022055709,6237,100024000000,world,10.9220497396,-8.64982254861,4.89992090779,-0.000310206288196,-0.000314000490304,0.725643796272,0.688070407813
100032242883,6238,100040000000,world,10.9223855634,-8.64981668593,4.89992087585,-0.000312043992002,-0.000315350329695,0.725768505239,0.687938863552
100052442334,6239,100056000000,world,10.9227225312,-8.64981077281,4.89992085299,-0.000313817970728,-0.00031664642343,0.725893181714,0.68780730586
100062568845,6240,100072000000,world,10.9230604998,-8.64980480774,4.89992083857,-0.000315525729401,-0.000317884365158,0.726017818892,0.687675741934
100082768060,6241,100088000000,world,10.9234000449,-8.64979876977,4.89992083339,-0.000317173875626,-0.000319079385519,0.726142415066,0.687544173585
100103034450,6242,100104000000,world,10.9237419464,-8.64979263604,4.89992083924,-0.000318771599051,-0.000320256764859,0.726266967935,0.68741260325
100113094144,6243,100120000000,world,10.9240868573,-8.64978639357,4.89992085787,-0.000320328700951,-0.000321434276638,0.726391484457,0.687281023584
100133256460,6244,100136000000,world,10.9244339889,-8.64978007734,4.89992088818,-0.000321835586099,-0.00032259206943,0.726515959062,0.687149440504
100143349781,6245,100152000000,world,10.9247828615,-8.64977370865,4.89992092674,-0.000323296319378,-0.000323717117128,0.726640389669,0.687017856237
100163538013,6246,100168000000,world,10.92513369,-8.64976728286,4.89992097009,-0.000324738485167,-0.000324818094645,0.72676479385,0.686886252198
100183740227,6247,100184000000,world,10.9254869793,-8.64976078372,4.89992101718,-0.000326189985952,-0.00032591479428,0.726889194346,0.686754604297
100193797630,6248,100200000000,world,10.9258432383,-8.64975419291,4.89992106824,-0.000327661096179,-0.000327017295156,0.727013599768,0.686622903384
100213961623,6249,100216000000,world,10.9262028141,-8.64974749679,4.8999211236,-0.000329152557601,-0.000328128354023,0.727138009593,0.686491149976
100224091615,6250,100232000000,world,10.9265646812,-8.64974072955,4.89992118231,-0.000330640498974,-0.000329219479332,0.72726240403,0.686359365039
100244231683,6251,100248000000,world,10.9269282239,-8.64973391887,4.8999212438,-0.000332117918549,-0.000330278596269,0.727386803039,0.686227527412
100254292793,6252,100264000000,world,10.9272936041,-8.64972706721,4.89992130821,-0.000333597960748,-0.00033130805401,0.727511243453,0.686095598001
100274403084,6253,100280000000,world,10.9276601326,-8.64972019862,4.8999213749,-0.00033506930778,-0.00033229049269,0.727635718678,0.685963583738
100294513357,6254,100296000000,world,10.9280276635,-8.6497133198,4.89992144374,-0.000336531813185,-0.000333226326289,0.727760218715,0.685831495166
100304567443,6255,100312000000,world,10.9283967739,-8.649706415,4.89992151526,-0.000337988457101,-0.000334125550069,0.727884739354,0.685699336692
100324761200,6256,100328000000,world,10.9287682544,-8.64969946016,4.89992159023,-0.000339447038758,-0.000335005580054,0.728009282269,0.685567106473
100334864605,6257,100344000000,world,10.9291427729,-8.6496924333,4.89992166927,-0.000340917374035,-0.000335884945736,0.728133851588,0.685434800057
