%time,field.header.seq,field.header.stamp,field.header.frame_id,field.orientation.x,field.orientation.y,field.orientation.z,field.orientation.w,field.orientation_covariance0,field.orientation_covariance1,field.orientation_covariance2,field.orientation_covariance3,field.orientation_covariance4,field.orientation_covariance5,field.orientation_covariance6,field.orientation_covariance7,field.orientation_covariance8,field.angular_velocity.x,field.angular_velocity.y,field.angular_velocity.z,field.angular_velocity_covariance0,field.angular_velocity_covariance1,field.angular_velocity_covariance2,field.angular_velocity_covariance3,field.angular_velocity_covariance4,field.angular_velocity_covariance5,field.angular_velocity_covariance6,field.angular_velocity_covariance7,field.angular_velocity_covariance8,field.linear_acceleration.x,field.linear_acceleration.y,field.linear_acceleration.z,field.linear_acceleration_covariance0,field.linear_acceleration_covariance1,field.linear_acceleration_covariance2,field.linear_acceleration_covariance3,field.linear_acceleration_covariance4,field.linear_acceleration_covariance5,field.linear_acceleration_covariance6,field.linear_acceleration_covariance7,field.linear_acceleration_covariance8
27595154735,1395,27592000000,honey/imu,2.20435685058e-05,5.06674626318e-05,0.707138354932,0.707075203873,-1.0,-1.0,-1.0,-1.0,-1.0,-1.0,-1.0,-1.0,-1.0,5.55219995062e-05,-1.68249002533e-05,-6.0561017076e-05,0.0,0.0,0.0,0.0,0.0,0.0,0.0,0.0,0.0,-0.000886849721312,0.000129086778433,0.00020979349942,0.0,0.0,0.0,0.0,0.0,0.0,0.0,0.0,0.0
27615495609,1396,27608000000,honey/imu,2.25459668848e-05,5.0915504069e-05,0.707137850002,0.707075708813,-1.0,-1.0,-1.0,-1.0,-1.0,-1.0,-1.0,-1.0,-1.0,5.42002345657e-05,-1.86037964798e-05,-6.19520125324e-05,0.0,0.0,0.0,0.0,0.0,0.0,0.0,0.0,0.0,-0.000437742469516,0.000244930649333,0.000283326161891,0.0,0.0,0.0,0.0,0.0,0.0,0.0,0.0,0.0
27625601857,1397,27624000000,honey/imu,2.27546523361e-05,5.10169636119e-05,0.707137674618,0.707075884198,-1.0,-1.0,-1.0,-1.0,-1.0,-1.0,-1.0,-1.0,-1.0,5.48268179867e-05,-1.89606717941e-05,-6.20057745045e-05,0.0,0.0,0.0,0.0,0.0,0.0,0.0,0.0,0.0,-0.00011446742051,0.000144263084448,0.000157608450862,0.0,0.0,0.0,0.0,0.0,0.0,0.0,0.0,0.0
27635658744,1398,27640000000,honey/imu,2.31232074008e-05,5.12059168751e-05,0.707137338132,0.707076220689,-1.0,-1.0,-1.0,-1.0,-1.0,-1.0,-1.0,-1.0,-1.0,5.69289919014e-05,-1.88501275041e-05,-6.12919088704e-05,0.0,0.0,0.0,0.0,0.0,0.0,0.0,0.0,0.0,-1.20764139226e-05,4.89327201225e-05,4.78222528422e-05,0.0,0.0,0.0,0.0,0.0,0.0,0.0,0.0,0.0
27655818448,1399,27656000000,honey/imu,2.3462291523e-05,5.136640489e-05,0.70713700816,0.707076550666,-1.0,-1.0,-1.0,-1.0,-1.0,-1.0,-1.0,-1.0,-1.0,4.79066550727e-05,-1.89205995445e-05,-6.00919890689e-05,0.0,0.0,0.0,0.0,0.0,0.0,0.0,0.0,0.0,2.53809466815e-06,8.55746109655e-05,9.59942983148e-05,0.0,0.0,0.0,0.0,0.0,0.0,0.0,0.0,0.0
27675927594,1400,27672000000,honey/imu,2.37917671385e-05,5.15189972281e-05,0.707136685181,0.707076873651,-1.0,-1.0,-1.0,-1.0,-1.0,-1.0,-1.0,-1.0,-1.0,4.98406220445e-05,-1.88351560736e-05,-5.89344832129e-05,0.0,0.0,0.0,0.0,0.0,0.0,0.0,0.0,0.0,1.29094526379e-05,6.38550756175e-05,6.26736196775e-05,0.0,0.0,0.0,0.0,0.0,0.0,0.0,0.0,0.0
27696043356,1401,27688000000,honey/imu,2.41293017785e-05,5.16815947645e-05,0.707136372307,0.707077186528,-1.0,-1.0,-1.0,-1.0,-1.0,-1.0,-1.0,-1.0,-1.0,5.0939208629e-05,-1.88161741763e-05,-5.70640516914e-05,0.0,0.0,0.0,0.0,0.0,0.0,0.0,0.0,0.0,4.69908289567e-05,0.000106823225309,0.000109756388132,0.0,0.0,0.0,0.0,0.0,0.0,0.0,0.0,0.0
27716157039,1402,27704000000,honey/imu,2.44439054486e-05,5.18275748147e-05,0.707136071253,0.707077487584,-1.0,-1.0,-1.0,-1.0,-1.0,-1.0,-1.0,-1.0,-1.0,4.38547396128e-05,-1.8003373487e-05,-5.49348900344e-05,0.0,0.0,0.0,0.0,0.0,0.0,0.0,0.0,0.0,0.000160179806212,0.000103693689835,8.84868249366e-05,0.0,0.0,0.0,0.0,0.0,0.0,0.0,0.0,0.0
27726218968,1403,27720000000,honey/imu,2.47254145327e-05,5.19686140245e-05,0.707135779946,0.707077778895,-1.0,-1.0,-1.0,-1.0,-1.0,-1.0,-1.0,-1.0,-1.0,4.32914137143e-05,-1.52430900125e-05,-5.34775514564e-05,0.0,0.0,0.0,0.0,0.0,0.0,0.0,0.0,0.0,0.00024488717732,0.000183834975235,0.000161153277848,0.0,0.0,0.0,0.0,0.0,0.0,0.0,0.0,0.0
27736232111,1404,27736000000,honey/imu,2.49812537741e-05,5.21266575037e-05,0.707135495127,0.707078063717,-1.0,-1.0,-1.0,-1.0,-1.0,-1.0,-1.0,-1.0,-1.0,4.24757807726e-05,-1.11304920869e-05,-5.24113674398e-05,0.0,0.0,0.0,0.0,0.0,0.0,0.0,0.0,0.0,0.000353018337539,0.000172434019453,0.000123370232898,0.0,0.0,0.0,0.0,0.0,0.0,0.0,0.0,0.0
27756647929,1405,27752000000,honey/imu,2.52407517324e-05,5.23344885574e-05,0.707135075811,0.707078483043,-1.0,-1.0,-1.0,-1.0,-1.0,-1.0,-1.0,-1.0,-1.0,3.51762562557e-05,-6.34497266834e-06,-5.16537773197e-05,0.0,0.0,0.0,0.0,0.0,0.0,0.0,0.0,0.0,0.00038020531669,0.000150252928666,9.88806619882e-05,0.0,0.0,0.0,0.0,0.0,0.0,0.0,0.0,0.0
27766703743,1406,27768000000,honey/imu,2.53505644297e-05,5.24288084371e-05,0.707134930452,0.707078628402,-1.0,-1.0,-1.0,-1.0,-1.0,-1.0,-1.0,-1.0,-1.0,3.60867572372e-05,-2.74303221541e-06,-5.13913699192e-05,0.0,0.0,0.0,0.0,0.0,0.0,0.0,0.0,0.0,0.000227537366987,5.33167964824e-05,7.48906075942e-06,0.0,0.0,0.0,0.0,0.0,0.0,0.0,0.0,0.0
27786817587,1407,27792000000,honey/imu,2.55658252737e-05,5.26481545335e-05,0.707134494638,0.707079064227,-1.0,-1.0,-1.0,-1.0,-1.0,-1.0,-1.0,-1.0,-1.0,2.05777132717e-05,4.21168432161e-07,-5.21687619849e-05,0.0,0.0,0.0,0.0,0.0,0.0,0.0,0.0,0.0,-0.000184891987187,0.00121812939453,0.00152278991154,0.0,0.0,0.0,0.0,0.0,0.0,0.0,0.0,0.0
27806934896,1408,27800000000,honey/imu,2.56677749187e-05,5.27704162765e-05,0.707134350526,0.707079208337,-1.0,-1.0,-1.0,-1.0,-1.0,-1.0,-1.0,-1.0,-1.0,3.96364645879e-05,3.58633417351e-06,-5.09502387424e-05,0.0,0.0,0.0,0.0,0.0,0.0,0.0,0.0,0.0,0.00126048225581,-0.00380975305583,-0.0049320554214,0.0,0.0,0.0,0.0,0.0,0.0,0.0,0.0,0.0
27816993662,1409,27824000000,honey/imu,2.57980794053e-05,5.29778756383e-05,0.707133906725,0.707079652152,-1.0,-1.0,-1.0,-1.0,-1.0,-1.0,-1.0,-1.0,-1.0,1.28771316525e-05,4.30396034565e-06,-5.33681566569e-05,0.0,0.0,0.0,0.0,0.0,0.0,0.0,0.0,0.0,-0.000750782966839,0.000969056898356,0.00134823079409,0.0,0.0,0.0,0.0,0.0,0.0,0.0,0.0,0.0
27837107331,1410,27832000000,honey/imu,2.58558623331e-05,5.30921918095e-05,0.707133764308,0.707079794569,-1.0,-1.0,-1.0,-1.0,-1.0,-1.0,-1.0,-1.0,-1.0,3.04244610106e-05,9.98978802577e-06,-5.03519552411e-05,0.0,0.0,0.0,0.0,0.0,0.0,0.0,0.0,0.0,0.00301213911338,-0.00327990628703,-0.00464599155873,0.0,0.0,0.0,0.0,0.0,0.0,0.0,0.0,0.0
27847202693,1411,27848000000,honey/imu,2.59388429068e-05,5.3286030608e-05,0.707133472192,0.70708008669,-1.0,-1.0,-1.0,-1.0,-1.0,-1.0,-1.0,-1.0,-1.0,3.30710772315e-05,1.27796665362e-05,-5.00187493239e-05,0.0,0.0,0.0,0.0,0.0,0.0,0.0,0.0,0.0,0.000148403167656,-0.000117414100908,-0.000177048367093,0.0,0.0,0.0,0.0,0.0,0.0,0.0,0.0,0.0
27867564914,1412,27864000000,honey/imu,2.59971039534e-05,5.3477575894e-05,0.707133182181,0.707080376706,-1.0,-1.0,-1.0,-1.0,-1.0,-1.0,-1.0,-1.0,-1.0,2.61311510882e-05,1.45823531331e-05,-4.96126192307e-05,0.0,0.0,0.0,0.0,0.0,0.0,0.0,0.0,0.0,7.99423064209e-05,-8.6420923114e-05,-0.000113157180179,0.0,0.0,0.0,0.0,0.0,0.0,0.0,0.0,0.0
27887710948,1413,27880000000,honey/imu,2.60412767546e-05,5.36672923988e-05,0.70713289369,0.707080665202,-1.0,-1.0,-1.0,-1.0,-1.0,-1.0,-1.0,-1.0,-1.0,2.93129049359e-05,1.54587299995e-05,-4.93319831036e-05,0.0,0.0,0.0,0.0,0.0,0.0,0.0,0.0,0.0,2.58590553846e-05,-5.46253308814e-05,-7.44964352193e-05,0.0,0.0,0.0,0.0,0.0,0.0,0.0,0.0,0.0
27897766112,1414,27896000000,honey/imu,2.60951950317e-05,5.38803727736e-05,0.707132607322,0.707080951574,-1.0,-1.0,-1.0,-1.0,-1.0,-1.0,-1.0,-1.0,-1.0,3.22988440608e-05,1.663608774e-05,-4.90132178113e-05,0.0,0.0,0.0,0.0,0.0,0.0,0.0,0.0,0.0,1.98228705084e-05,-7.72267549583e-05,-0.000102360325031,0.0,0.0,0.0,0.0,0.0,0.0,0.0,0.0,0.0
27917900201,1415,27912000000,honey/imu,2.61260782002e-05,5.40838862527e-05,0.707132322784,0.707081236116,-1.0,-1.0,-1.0,-1.0,-1.0,-1.0,-1.0,-1.0,-1.0,2.49333210921e-05,1.76919793444e-05,-4.87828708755e-05,0.0,0.0,0.0,0.0,0.0,0.0,0.0,0.0,0.0,-4.00437625597e-06,-6.3798768839e-05,-6.98869775236e-05,0.0,0.0,0.0,0.0,0.0,0.0,0.0,0.0,0.0
27927955476,1416,27928000000,honey/imu,2.61296614125e-05,5.43667577329e-05,0.707131897774,0.707081661134,-1.0,-1.0,-1.0,-1.0,-1.0,-1.0,-1.0,-1.0,-1.0,2.80271565771e-05,1.90099139916e-05,-4.84874880586e-05,0.0,0.0,0.0,0.0,0.0,0.0,0.0,0.0,0.0,-3.42653556724e-05,-0.000117249914837,-0.000136608444767,0.0,0.0,0.0,0.0,0.0,0.0,0.0,0.0,0.0
27948050255,1417,27944000000,honey/imu,2.61640379821e-05,5.4511066607e-05,0.707131761851,0.707081797055,-1.0,-1.0,-1.0,-1.0,-1.0,-1.0,-1.0,-1.0,-1.0,3.15890720406e-05,1.94296120887e-05,-4.80561183227e-05,0.0,0.0,0.0,0.0,0.0,0.0,0.0,0.0,0.0,-0.000138652928823,-0.000169382995449,-0.00017131563544,0.0,0.0,0.0,0.0,0.0,0.0,0.0,0.0,0.0
27958107272,1418,27960000000,honey/imu,2.61687037986e-05,5.47230310412e-05,0.707131486656,0.707082072252,-1.0,-1.0,-1.0,-1.0,-1.0,-1.0,-1.0,-1.0,-1.0,2.38548310973e-05,1.94155105925e-05,-4.78368281888e-05,0.0,0.0,0.0,0.0,0.0,0.0,0.0,0.0,0.0,-0.000265470911136,-0.000155741606147,-0.000111575354853,0.0,0.0,0.0,0.0,0.0,0.0,0.0,0.0,0.0
27978192729,1419,27976000000,honey/imu,2.61588271102e-05,5.49220000911e-05,0.707131212968,0.707082345944,-1.0,-1.0,-1.0,-1.0,-1.0,-1.0,-1.0,-1.0,-1.0,2.65021402928e-05,1.84781573528e-05,-4.83526112452e-05,0.0,0.0,0.0,0.0,0.0,0.0,0.0,0.0,0.0,-0.000577488938562,-0.000135600330524,-3.34917394293e-05,0.0,0.0,0.0,0.0,0.0,0.0,0.0,0.0,0.0
27998480994,1420,27992000000,honey/imu,2.61602502263e-05,5.51358757524e-05,0.707130941504,0.70708261741,-1.0,-1.0,-1.0,-1.0,-1.0,-1.0,-1.0,-1.0,-1.0,2.88022347935e-05,1.82388976907e-05,-4.82610063195e-05,0.0,0.0,0.0,0.0,0.0,0.0,0.0,0.0,0.0,-0.000272618336975,-3.90510716239e-06,2.95119285307e-05,0.0,0.0,0.0,0.0,0.0,0.0,0.0,0.0,0.0
28008535172,1421,28008000000,honey/imu,2.6178531467e-05,5.53650989977e-05,0.707130672409,0.707082886505,-1.0,-1.0,-1.0,-1.0,-1.0,-1.0,-1.0,-1.0,-1.0,3.17571028962e-05,1.77734824781e-05,-4.79881369702e-05,0.0,0.0,0.0,0.0,0.0,0.0,0.0,0.0,0.0,-8.06097963184e-05,8.77180468158e-06,9.26553434209e-06,0.0,0.0,0.0,0.0,0.0,0.0,0.0,0.0,0.0
28028714281,1422,28024000000,honey/imu,2.61644618088e-05,5.55607959219e-05,0.707130404915,0.707083154002,-1.0,-1.0,-1.0,-1.0,-1.0,-1.0,-1.0,-1.0,-1.0,2.1206045345e-05,1.77226940487e-05,-4.77485371211e-05,0.0,0.0,0.0,0.0,0.0,0.0,0.0,0.0,0.0,5.19595907323e-06,1.54779649068e-05,2.41646886232e-05,0.0,0.0,0.0,0.0,0.0,0.0,0.0,0.0,0.0
28038839843,1423,28040000000,honey/imu,2.61424009442e-05,5.57480672836e-05,0.707130138616,0.707083420305,-1.0,-1.0,-1.0,-1.0,-1.0,-1.0,-1.0,-1.0,-1.0,2.4599271197e-05,1.76922203643e-05,-4.75360498169e-05,0.0,0.0,0.0,0.0,0.0,0.0,0.0,0.0,0.0,1.35339391267e-06,-5.08353701232e-06,-8.41146657059e-06,0.0,0.0,0.0,0.0,0.0,0.0,0.0,0.0,0.0
28059037513,1424,28056000000,honey/imu,2.61401261862e-05,5.5950707926e-05,0.707129873122,0.7070836858,-1.0,-1.0,-1.0,-1.0,-1.0,-1.0,-1.0,-1.0,-1.0,2.75125553863e-05,1.69706366755e-05,-4.75671213325e-05,0.0,0.0,0.0,0.0,0.0,0.0,0.0,0.0,0.0,-0.000126044645672,2.23765673925e-05,3.20265296841e-05,0.0,0.0,0.0,0.0,0.0,0.0,0.0,0.0,0.0
28079163948,1425,28072000000,honey/imu,2.61567508265e-05,5.6166287893e-05,0.707129608611,0.70708395031,-1.0,-1.0,-1.0,-1.0,-1.0,-1.0,-1.0,-1.0,-1.0,3.01172169618e-05,1.61587940658e-05,-4.75577387068e-05,0.0,0.0,0.0,0.0,0.0,0.0,0.0,0.0,0.0,-0.000133713903121,3.62437716231e-05,4.73191093179e-05,0.0,0.0,0.0,0.0,0.0,0.0,0.0,0.0,0.0
28089220322,1426,28088000000,honey/imu,2.61480110413e-05,5.63483183627e-05,0.707129344807,0.707084214118,-1.0,-1.0,-1.0,-1.0,-1.0,-1.0,-1.0,-1.0,-1.0,2.00448301041e-05,1.49651688495e-05,-4.77218922327e-05,0.0,0.0,0.0,0.0,0.0,0.0,0.0,0.0,0.0,-0.00018747497168,0.000100778164518,0.000136119978185,0.0,0.0,0.0,0.0,0.0,0.0,0.0,0.0,0.0
28109358286,1427,28104000000,honey/imu,2.61314602126e-05,5.65157132165e-05,0.707129082077,0.707084476851,-1.0,-1.0,-1.0,-1.0,-1.0,-1.0,-1.0,-1.0,-1.0,2.23349732948e-05,1.40800370566e-05,-4.77370493089e-05,0.0,0.0,0.0,0.0,0.0,0.0,0.0,0.0,0.0,-0.000120143289246,8.70654676363e-05,0.00010530903526,0.0,0.0,0.0,0.0,0.0,0.0,0.0,0.0,0.0
28119414760,1428,28120000000,honey/imu,2.61334310563e-05,5.66970195321e-05,0.707128821979,0.707084736951,-1.0,-1.0,-1.0,-1.0,-1.0,-1.0,-1.0,-1.0,-1.0,2.51252678186e-05,1.35540357804e-05,-4.7300526419e-05,0.0,0.0,0.0,0.0,0.0,0.0,0.0,0.0,0.0,-5.21720660373e-05,5.61209087874e-05,6.07737646264e-05,0.0,0.0,0.0,0.0,0.0,0.0,0.0,0.0,0.0
28139595582,1429,28136000000,honey/imu,2.61536088113e-05,5.68938201427e-05,0.707128564213,0.707084994717,-1.0,-1.0,-1.0,-1.0,-1.0,-1.0,-1.0,-1.0,-1.0,2.80514083698e-05,1.3306892399e-05,-4.69658498801e-05,0.0,0.0,0.0,0.0,0.0,0.0,0.0,0.0,0.0,-1.40339492723e-05,1.99407388488e-05,1.95702809094e-05,0.0,0.0,0.0,0.0,0.0,0.0,0.0,0.0,0.0
28159738847,1430,28152000000,honey/imu,2.61464746197e-05,5.70623980994e-05,0.707128307797,0.707085251135,-1.0,-1.0,-1.0,-1.0,-1.0,-1.0,-1.0,-1.0,-1.0,1.88795427365e-05,1.32873167503e-05,-4.67525215386e-05,0.0,0.0,0.0,0.0,0.0,0.0,0.0,0.0,0.0,1.08620791584e-05,9.67405122591e-06,1.83465149464e-05,0.0,0.0,0.0,0.0,0.0,0.0,0.0,0.0,0.0
28169837143,1431,28168000000,honey/imu,2.61330488307e-05,5.72225710111e-05,0.707128052438,0.707085506496,-1.0,-1.0,-1.0,-1.0,-1.0,-1.0,-1.0,-1.0,-1.0,2.17971259574e-05,1.29653803589e-05,-4.66260034259e-05,0.0,0.0,0.0,0.0,0.0,0.0,0.0,0.0,0.0,-1.46927961285e-05,2.81592679547e-05,3.23661889098e-05,0.0,0.0,0.0,0.0,0.0,0.0,0.0,0.0,0.0
28189989222,1432,28184000000,honey/imu,2.61349810406e-05,5.7393508166e-05,0.707127795763,0.707085763173,-1.0,-1.0,-1.0,-1.0,-1.0,-1.0,-1.0,-1.0,-1.0,2.36277714081e-05,1.23111591808e-05,-4.71259664425e-05,0.0,0.0,0.0,0.0,0.0,0.0,0.0,0.0,0.0,-2.03127814239e-05,8.63459381786e-05,0.000107672354578,0.0,0.0,0.0,0.0,0.0,0.0,0.0,0.0,0.0
28200229762,1433,28200000000,honey/imu,2.61287858735e-05,5.75511594428e-05,0.707127537225,0.707086021714,-1.0,-1.0,-1.0,-1.0,-1.0,-1.0,-1.0,-1.0,-1.0,1.76915648538e-05,1.17213141828e-05,-4.75325481387e-05,0.0,0.0,0.0,0.0,0.0,0.0,0.0,0.0,0.0,1.26423809626e-05,9.17146822614e-05,0.000119254610167,0.0,0.0,0.0,0.0,0.0,0.0,0.0,0.0,0.0
28220468486,1434,28224000000,honey/imu,2.6083330433e-05,5.77586159259e-05,0.707127152418,0.707086406528,-1.0,-1.0,-1.0,-1.0,-1.0,-1.0,-1.0,-1.0,-1.0,5.50527264207e-06,1.65692404287e-05,-4.42250727777e-05,0.0,0.0,0.0,0.0,0.0,0.0,0.0,0.0,0.0,0.00131245944055,0.00120721892719,0.0013287045541,0.0,0.0,0.0,0.0,0.0,0.0,0.0,0.0,0.0
28230592899,1435,28240000000,honey/imu,2.60851020098e-05,5.79114593525e-05,0.70712688905,0.707086669899,-1.0,-1.0,-1.0,-1.0,-1.0,-1.0,-1.0,-1.0,-1.0,6.41124079358e-06,1.60946711393e-05,-4.4880581314e-05,0.0,0.0,0.0,0.0,0.0,0.0,0.0,0.0,0.0,0.000149773136894,0.000109130826533,0.000115675470298,0.0,0.0,0.0,0.0,0.0,0.0,0.0,0.0,0.0
28250899869,1436,28248000000,honey/imu,2.60953499791e-05,5.79788263822e-05,0.707126750041,0.70708680891,-1.0,-1.0,-1.0,-1.0,-1.0,-1.0,-1.0,-1.0,-1.0,1.37219161668e-05,1.00940094173e-05,-4.91478274399e-05,0.0,0.0,0.0,0.0,0.0,0.0,0.0,0.0,0.0,-0.00361851063908,-0.00315627324054,-0.00343687923479,0.0,0.0,0.0,0.0,0.0,0.0,0.0,0.0,0.0
28271207957,1437,28264000000,honey/imu,2.60640276121e-05,5.8089751109e-05,0.707126477508,0.707087081449,-1.0,-1.0,-1.0,-1.0,-1.0,-1.0,-1.0,-1.0,-1.0,1.47060721173e-05,9.64754165597e-06,-5.03338456079e-05,0.0,0.0,0.0,0.0,0.0,0.0,0.0,0.0,0.0,0.000193220301837,0.00011740085418,0.000121560437853,0.0,0.0,0.0,0.0,0.0,0.0,0.0,0.0,0.0
28281264189,1438,28280000000,honey/imu,2.6042255731e-05,5.82033790262e-05,0.707126198846,0.707087360118,-1.0,-1.0,-1.0,-1.0,-1.0,-1.0,-1.0,-1.0,-1.0,1.63212027291e-05,9.3545159617e-06,-5.1143167486e-05,0.0,0.0,0.0,0.0,0.0,0.0,0.0,0.0,0.0,0.00014908501073,7.70644919757e-05,7.65270450737e-05,0.0,0.0,0.0,0.0,0.0,0.0,0.0,0.0,0.0
28301437991,1439,28296000000,honey/imu,2.60346301291e-05,5.83243307714e-05,0.707125918666,0.707087640305,-1.0,-1.0,-1.0,-1.0,-1.0,-1.0,-1.0,-1.0,-1.0,1.8882160437e-05,9.15434072743e-06,-5.08998690153e-05,0.0,0.0,0.0,0.0,0.0,0.0,0.0,0.0,0.0,7.64392532293e-05,3.0178088276e-05,2.86224688236e-05,0.0,0.0,0.0,0.0,0.0,0.0,0.0,0.0,0.0
28311520879,1440,28312000000,honey/imu,2.59964022869e-05,5.84093631086e-05,0.707125639222,0.707087919758,-1.0,-1.0,-1.0,-1.0,-1.0,-1.0,-1.0,-1.0,-1.0,8.84828966787e-06,8.93106195359e-06,-5.05772579876e-05,0.0,0.0,0.0,0.0,0.0,0.0,0.0,0.0,0.0,7.28182399825e-05,4.0163979518e-05,5.46523174486e-05,0.0,0.0,0.0,0.0,0.0,0.0,0.0,0.0,0.0
28331787111,1441,28328000000,honey/imu,2.59521601001e-05,5.84826622801e-05,0.707125362017,0.707088196974,-1.0,-1.0,-1.0,-1.0,-1.0,-1.0,-1.0,-1.0,-1.0,1.210281446e-05,8.70941505558e-06,-4.98857723946e-05,0.0,0.0,0.0,0.0,0.0,0.0,0.0,0.0,0.0,4.62941092348e-05,1.00256128393e-05,7.24024226886e-06,0.0,0.0,0.0,0.0,0.0,0.0,0.0,0.0,0.0
28352204167,1442,28344000000,honey/imu,2.59277639276e-05,5.85698842955e-05,0.707125087547,0.707088471451,-1.0,-1.0,-1.0,-1.0,-1.0,-1.0,-1.0,-1.0,-1.0,1.51746912575e-05,8.38577955918e-06,-4.92942088931e-05,0.0,0.0,0.0,0.0,0.0,0.0,0.0,0.0,0.0,6.20970687903e-05,1.50515754879e-05,1.2431607056e-05,0.0,0.0,0.0,0.0,0.0,0.0,0.0,0.0,0.0
28362323373,1443,28360000000,honey/imu,2.59216455089e-05,5.86647981891e-05,0.707124814571,0.707088744434,-1.0,-1.0,-1.0,-1.0,-1.0,-1.0,-1.0,-1.0,-1.0,1.74261822044e-05,7.65569862331e-06,-4.88424123405e-05,0.0,0.0,0.0,0.0,0.0,0.0,0.0,0.0,0.0,9.78835808845e-05,3.29342000859e-05,2.79650090387e-05,0.0,0.0,0.0,0.0,0.0,0.0,0.0,0.0,0.0
28382601305,1444,28376000000,honey/imu,2.5891996288e-05,5.8720806252e-05,0.707124541358,0.707089017657,-1.0,-1.0,-1.0,-1.0,-1.0,-1.0,-1.0,-1.0,-1.0,7.35446405339e-06,6.96810697001e-06,-4.84885343498e-05,0.0,0.0,0.0,0.0,0.0,0.0,0.0,0.0,0.0,8.55520288485e-05,3.42984459202e-05,4.42947079638e-05,0.0,0.0,0.0,0.0,0.0,0.0,0.0,0.0,0.0
28392723081,1445,28400000000,honey/imu,2.58301549091e-05,5.87456870435e-05,0.707124131321,0.707089427714,-1.0,-1.0,-1.0,-1.0,-1.0,-1.0,-1.0,-1.0,-1.0,-6.64789933691e-06,3.44175751016e-06,-4.87652417919e-05,0.0,0.0,0.0,0.0,0.0,0.0,0.0,0.0,0.0,-0.00036805184854,0.00128372268511,0.00155303355034,0.0,0.0,0.0,0.0,0.0,0.0,0.0,0.0,0.0
28412978814,1446,28408000000,honey/imu,2.58520847858e-05,5.87961603555e-05,0.707123998324,0.707089560713,-1.0,-1.0,-1.0,-1.0,-1.0,-1.0,-1.0,-1.0,-1.0,1.2800414602e-05,5.04268795696e-06,-4.70219591287e-05,0.0,0.0,0.0,0.0,0.0,0.0,0.0,0.0,0.0,0.00144705139622,-0.00383934574198,-0.00468708413763,0.0,0.0,0.0,0.0,0.0,0.0,0.0,0.0,0.0
28423072482,1447,28424000000,honey/imu,2.58706284942e-05,5.88521937292e-05,0.707123729161,0.707089829883,-1.0,-1.0,-1.0,-1.0,-1.0,-1.0,-1.0,-1.0,-1.0,1.60809150263e-05,4.84434023425e-06,-4.63542992873e-05,0.0,0.0,0.0,0.0,0.0,0.0,0.0,0.0,0.0,4.77009794199e-05,-1.81614239987e-05,-2.56205070492e-05,0.0,0.0,0.0,0.0,0.0,0.0,0.0,0.0,0.0
28443190282,1448,28440000000,honey/imu,2.58632733889e-05,5.88776673057e-05,0.707123461539,0.707090097516,-1.0,-1.0,-1.0,-1.0,-1.0,-1.0,-1.0,-1.0,-1.0,6.32737193668e-06,4.70404954506e-06,-4.5983611869e-05,0.0,0.0,0.0,0.0,0.0,0.0,0.0,0.0,0.0,1.07775778472e-05,6.37024683658e-06,1.84873921177e-05,0.0,0.0,0.0,0.0,0.0,0.0,0.0,0.0,0.0
28463368057,1449,28456000000,honey/imu,2.58502642839e-05,5.88958290275e-05,0.707123195073,0.707090363994,-1.0,-1.0,-1.0,-1.0,-1.0,-1.0,-1.0,-1.0,-1.0,9.71585073237e-06,4.66556693225e-06,-4.57551380961e-05,0.0,0.0,0.0,0.0,0.0,0.0,0.0,0.0,0.0,-5.94205849747e-07,-5.42625323047e-06,-9.72463008561e-06,0.0,0.0,0.0,0.0,0.0,0.0,0.0,0.0,0.0
28473490563,1450,28472000000,honey/imu,2.58561814175e-05,5.89326536307e-05,0.707122930137,0.707090628939,-1.0,-1.0,-1.0,-1.0,-1.0,-1.0,-1.0,-1.0,-1.0,1.30293422205e-05,4.61845307304e-06,-4.5488679353e-05,0.0,0.0,0.0,0.0,0.0,0.0,0.0,0.0,0.0,-4.69285014413e-07,-5.30273338234e-06,-9.52992772745e-06,0.0,0.0,0.0,0.0,0.0,0.0,0.0,0.0,0.0
28493642896,1451,28488000000,honey/imu,2.58561256005e-05,5.89595186616e-05,0.707122668936,0.70709089015,-1.0,-1.0,-1.0,-1.0,-1.0,-1.0,-1.0,-1.0,-1.0,7.15693056278e-06,4.08228736179e-06,-4.47575571648e-05,0.0,0.0,0.0,0.0,0.0,0.0,0.0,0.0,0.0,4.02440549791e-05,-7.1063652595e-07,3.84886764194e-06,0.0,0.0,0.0,0.0,0.0,0.0,0.0,0.0,0.0
28503868188,1452,28504000000,honey/imu,2.58528445442e-05,5.89672903223e-05,0.707122408649,0.707091150447,-1.0,-1.0,-1.0,-1.0,-1.0,-1.0,-1.0,-1.0,-1.0,9.28500793649e-06,2.59507478604e-06,-4.46716678993e-05,0.0,0.0,0.0,0.0,0.0,0.0,0.0,0.0,0.0,8.96193176526e-05,-2.17166648327e-06,-2.31987456785e-05,0.0,0.0,0.0,0.0,0.0,0.0,0.0,0.0,0.0
28534065096,1453,28520000000,honey/imu,2.58721097559e-05,5.89716812445e-05,0.707122143986,0.70709141512,-1.0,-1.0,-1.0,-1.0,-1.0,-1.0,-1.0,-1.0,-1.0,1.031256203e-05,4.85878528504e-07,-4.54094695991e-05,0.0,0.0,0.0,0.0,0.0,0.0,0.0,0.0,0.0,0.000135472889727,1.91045345125e-06,-3.18381961375e-05,0.0,0.0,0.0,0.0,0.0,0.0,0.0,0.0,0.0
28534065096,1454,28536000000,honey/imu,2.58848451602e-05,5.89424722755e-05,0.707121869686,0.707091689435,-1.0,-1.0,-1.0,-1.0,-1.0,-1.0,-1.0,-1.0,-1.0,1.94464103091e-06,-1.41821868673e-06,-4.70558849699e-05,0.0,0.0,0.0,0.0,0.0,0.0,0.0,0.0,0.0,0.000170191344423,4.57292118214e-06,-2.56827444818e-05,0.0,0.0,0.0,0.0,0.0,0.0,0.0,0.0,0.0
28554352936,1455,28552000000,honey/imu,2.58949462737e-05,5.88802020831e-05,0.707121581536,0.707091977602,-1.0,-1.0,-1.0,-1.0,-1.0,-1.0,-1.0,-1.0,-1.0,2.09581656716e-06,-3.83705828593e-06,-4.9411419277e-05,0.0,0.0,0.0,0.0,0.0,0.0,0.0,0.0,0.0,0.00017158375276,-1.22741852838e-05,-5.16738771601e-05,0.0,0.0,0.0,0.0,0.0,0.0,0.0,0.0,0.0
28574512598,1456,28568000000,honey/imu,2.59257149012e-05,5.88098437109e-05,0.707121281452,0.707092277703,-1.0,-1.0,-1.0,-1.0,-1.0,-1.0,-1.0,-1.0,-1.0,2.71459024142e-06,-6.0425081061e-06,-5.11811023641e-05,0.0,0.0,0.0,0.0,0.0,0.0,0.0,0.0,0.0,0.000122410162399,-2.00203645335e-05,-4.69766010057e-05,0.0,0.0,0.0,0.0,0.0,0.0,0.0,0.0,0.0
28584567303,1457,28584000000,honey/imu,2.59440567239e-05,5.87067989765e-05,0.707120973419,0.707092585756,-1.0,-1.0,-1.0,-1.0,-1.0,-1.0,-1.0,-1.0,-1.0,-4.86115369582e-06,-7.48555194765e-06,-5.23283157976e-05,0.0,0.0,0.0,0.0,0.0,0.0,0.0,0.0,0.0,6.15653315126e-05,-1.19316520747e-05,-1.3441402903e-05,0.0,0.0,0.0,0.0,0.0,0.0,0.0,0.0,0.0
28604782668,1458,28600000000,honey/imu,2.59618876342e-05,5.85836986893e-05,0.707120659307,0.70709289989,-1.0,-1.0,-1.0,-1.0,-1.0,-1.0,-1.0,-1.0,-1.0,-3.35103441093e-06,-9.24728190646e-06,-5.33409045177e-05,0.0,0.0,0.0,0.0,0.0,0.0,0.0,0.0,0.0,4.03788334118e-05,-1.68512565345e-05,-2.40808367953e-05,0.0,0.0,0.0,0.0,0.0,0.0,0.0,0.0,0.0
28614842745,1459,28616000000,honey/imu,2.60130154338e-05,5.83620641206e-05,0.707120176129,0.707093383103,-1.0,-1.0,-1.0,-1.0,-1.0,-1.0,-1.0,-1.0,-1.0,-1.6818779157e-06,-1.10274265909e-05,-5.36346185205e-05,0.0,0.0,0.0,0.0,0.0,0.0,0.0,0.0,0.0,1.86666216534e-05,-1.2203714465e-05,-1.48107645847e-05,0.0,0.0,0.0,0.0,0.0,0.0,0.0,0.0,0.0
28634955535,1460,28632000000,honey/imu,2.60234808657e-05,5.82948816702e-05,0.707120022999,0.707093536244,-1.0,-1.0,-1.0,-1.0,-1.0,-1.0,-1.0,-1.0,-1.0,-1.00252687944e-05,-1.37293762927e-05,-5.41410664115e-05,0.0,0.0,0.0,0.0,0.0,0.0,0.0,0.0,0.0,2.16898741054e-05,-5.08544445017e-06,4.28438519742e-06,0.0,0.0,0.0,0.0,0.0,0.0,0.0,0.0,0.0
28655101412,1461,28648000000,honey/imu,2.60490704934e-05,5.80920180097e-05,0.707119699034,0.707093860237,-1.0,-1.0,-1.0,-1.0,-1.0,-1.0,-1.0,-1.0,-1.0,-1.00310070664e-05,-1.74974008045e-05,-5.50770776389e-05,0.0,0.0,0.0,0.0,0.0,0.0,0.0,0.0,0.0,3.81931828628e-05,-1.99351245828e-05,-2.38968585607e-05,0.0,0.0,0.0,0.0,0.0,0.0,0.0,0.0,0.0
28665156705,1462,28664000000,honey/imu,2.60956273037e-05,5.78710072394e-05,0.707119370645,0.707094188654,-1.0,-1.0,-1.0,-1.0,-1.0,-1.0,-1.0,-1.0,-1.0,-9.68850753828e-06,-2.08547496111e-05,-5.58649035507e-05,0.0,0.0,0.0,0.0,0.0,0.0,0.0,0.0,0.0,3.69487673407e-05,-2.4130483541e-05,-2.94597927793e-05,0.0,0.0,0.0,0.0,0.0,0.0,0.0,0.0,0.0
28685270951,1463,28680000000,honey/imu,2.61321663526e-05,5.760110701e-05,0.707119029549,0.707094529783,-1.0,-1.0,-1.0,-1.0,-1.0,-1.0,-1.0,-1.0,-1.0,-1.83968002562e-05,-2.43783160949e-05,-5.85727186816e-05,0.0,0.0,0.0,0.0,0.0,0.0,0.0,0.0,0.0,2.91473669345e-05,-2.28211346183e-05,-1.3153076289e-05,0.0,0.0,0.0,0.0,0.0,0.0,0.0,0.0,0.0
28695546468,1464,28704000000,honey/imu,2.61750848866e-05,5.7080853096e-05,0.707118466844,0.707095092547,-1.0,-1.0,-1.0,-1.0,-1.0,-1.0,-1.0,-1.0,-1.0,-3.31307297118e-05,-3.75510947843e-05,-7.01443768427e-05,0.0,0.0,0.0,0.0,0.0,0.0,0.0,0.0,0.0,-0.00152554786824,0.000713852911332,0.00110025142321,0.0,0.0,0.0,0.0,0.0,0.0,0.0,0.0,0.0
28725847272,1465,28712000000,honey/imu,2.6203731974e-05,5.69233755469e-05,0.707118272966,0.707095286444,-1.0,-1.0,-1.0,-1.0,-1.0,-1.0,-1.0,-1.0,-1.0,-2.27732691543e-05,-3.29061573019e-05,-6.8548175244e-05,0.0,0.0,0.0,0.0,0.0,0.0,0.0,0.0,0.0,0.00465880012529,-0.00227418681179,-0.00342175162096,0.0,0.0,0.0,0.0,0.0,0.0,0.0,0.0,0.0
28735940917,1466,28728000000,honey/imu,2.6228141286e-05,5.65069024166e-05,0.707117838698,0.707095720757,-1.0,-1.0,-1.0,-1.0,-1.0,-1.0,-1.0,-1.0,-1.0,-3.26214139192e-05,-3.64666072321e-05,-7.6474557754e-05,0.0,0.0,0.0,0.0,0.0,0.0,0.0,0.0,0.0,-3.83137331328e-05,-4.97098838184e-05,-1.15744567454e-05,0.0,0.0,0.0,0.0,0.0,0.0,0.0,0.0,0.0
28745994657,1467,28744000000,honey/imu,2.6236285396e-05,5.60494102731e-05,0.707117366095,0.707096193411,-1.0,-1.0,-1.0,-1.0,-1.0,-1.0,-1.0,-1.0,-1.0,-3.36563287575e-05,-3.82638139642e-05,-8.29051078478e-05,0.0,0.0,0.0,0.0,0.0,0.0,0.0,0.0,0.0,-3.99075586433e-05,-4.36068278266e-05,-2.1955746844e-05,0.0,0.0,0.0,0.0,0.0,0.0,0.0,0.0,0.0
28766299700,1468,28760000000,honey/imu,2.62491350674e-05,5.55802443365e-05,0.707116861284,0.707096698273,-1.0,-1.0,-1.0,-1.0,-1.0,-1.0,-1.0,-1.0,-1.0,-3.33946177527e-05,-3.95298723216e-05,-8.80633229063e-05,0.0,0.0,0.0,0.0,0.0,0.0,0.0,0.0,0.0,-9.18473505398e-05,-8.83327724059e-05,-4.69632309016e-05,0.0,0.0,0.0,0.0,0.0,0.0,0.0,0.0,0.0
28776359412,1469,28776000000,honey/imu,2.62449077785e-05,5.50905541134e-05,0.707116340948,0.707097218663,-1.0,-1.0,-1.0,-1.0,-1.0,-1.0,-1.0,-1.0,-1.0,-3.99490658776e-05,-3.98212814354e-05,-8.99969949532e-05,0.0,0.0,0.0,0.0,0.0,0.0,0.0,0.0,0.0,-6.26927076954e-05,-4.78062826034e-05,-2.00984397189e-05,0.0,0.0,0.0,0.0,0.0,0.0,0.0,0.0,0.0
28796473770,1470,28792000000,honey/imu,2.62365707879e-05,5.45969754455e-05,0.707115822684,0.707097736979,-1.0,-1.0,-1.0,-1.0,-1.0,-1.0,-1.0,-1.0,-1.0,-3.6561764115e-05,-3.98534692743e-05,-8.94620015288e-05,0.0,0.0,0.0,0.0,0.0,0.0,0.0,0.0,0.0,-2.03805388757e-06,-7.38200544981e-06,-1.11592401021e-05,0.0,0.0,0.0,0.0,0.0,0.0,0.0,0.0,0.0
28806548340,1471,28808000000,honey/imu,2.62470101987e-05,5.41216511114e-05,0.707115307892,0.70709825182,-1.0,-1.0,-1.0,-1.0,-1.0,-1.0,-1.0,-1.0,-1.0,-3.33012199422e-05,-3.99367773254e-05,-8.88402425807e-05,0.0,0.0,0.0,0.0,0.0,0.0,0.0,0.0,0.0,-1.34853700732e-06,-7.21901099461e-06,-1.09141517763e-05,0.0,0.0,0.0,0.0,0.0,0.0,0.0,0.0,0.0
28826663494,1472,28824000000,honey/imu,2.62416440779e-05,5.36239672241e-05,0.70711479586,0.707098763902,-1.0,-1.0,-1.0,-1.0,-1.0,-1.0,-1.0,-1.0,-1.0,-4.06669852757e-05,-4.07608682702e-05,-8.84409643621e-05,0.0,0.0,0.0,0.0,0.0,0.0,0.0,0.0,0.0,-3.82974161824e-05,1.29737421209e-05,3.52694586223e-05,0.0,0.0,0.0,0.0,0.0,0.0,0.0,0.0,0.0
28846872754,1473,28840000000,honey/imu,2.62344667835e-05,5.31141753242e-05,0.707114286274,0.707099273538,-1.0,-1.0,-1.0,-1.0,-1.0,-1.0,-1.0,-1.0,-1.0,-3.78360620849e-05,-4.17436312977e-05,-8.80321417828e-05,0.0,0.0,0.0,0.0,0.0,0.0,0.0,0.0,0.0,-3.27938510062e-05,3.36073741188e-06,1.1380060328e-05,0.0,0.0,0.0,0.0,0.0,0.0,0.0,0.0,0.0
28856939192,1474,28856000000,honey/imu,2.62474628341e-05,5.26099992201e-05,0.707113777538,0.707099782322,-1.0,-1.0,-1.0,-1.0,-1.0,-1.0,-1.0,-1.0,-1.0,-3.55741949981e-05,-4.32355578433e-05,-8.80422981608e-05,0.0,0.0,0.0,0.0,0.0,0.0,0.0,0.0,0.0,-6.0284937375e-05,1.97636407487e-05,3.54511660537e-05,0.0,0.0,0.0,0.0,0.0,0.0,0.0,0.0,0.0
28877071589,1475,28872000000,honey/imu,2.62528005455e-05,5.20770501119e-05,0.707113268289,0.70710029162,-1.0,-1.0,-1.0,-1.0,-1.0,-1.0,-1.0,-1.0,-1.0,-4.28665201493e-05,-4.53666238342e-05,-8.82309637493e-05,0.0,0.0,0.0,0.0,0.0,0.0,0.0,0.0,0.0,-9.69967782788e-05,7.28816651388e-05,0.000105325026588,0.0,0.0,0.0,0.0,0.0,0.0,0.0,0.0,0.0
28887126647,1476,28888000000,honey/imu,2.62559804311e-05,5.15207756691e-05,0.70711275804,0.707100801918,-1.0,-1.0,-1.0,-1.0,-1.0,-1.0,-1.0,-1.0,-1.0,-4.1015541001e-05,-4.71246568975e-05,-8.83872715326e-05,0.0,0.0,0.0,0.0,0.0,0.0,0.0,0.0,0.0,-6.96425770408e-05,6.71713493031e-05,7.76355104905e-05,0.0,0.0,0.0,0.0,0.0,0.0,0.0,0.0,0.0
28907240204,1477,28904000000,honey/imu,2.6279159509e-05,5.09634513011e-05,0.70711224555,0.707101314456,-1.0,-1.0,-1.0,-1.0,-1.0,-1.0,-1.0,-1.0,-1.0,-3.94844292497e-05,-4.89494075673e-05,-8.88877560601e-05,0.0,0.0,0.0,0.0,0.0,0.0,0.0,0.0,0.0,-6.68406311722e-05,8.19517039228e-05,9.29610093468e-05,0.0,0.0,0.0,0.0,0.0,0.0,0.0,0.0,0.0
28917295626,1478,28920000000,honey/imu,2.62990164951e-05,5.03778403631e-05,0.707111730422,0.707101829632,-1.0,-1.0,-1.0,-1.0,-1.0,-1.0,-1.0,-1.0,-1.0,-4.64921404407e-05,-5.12029771435e-05,-8.91948835325e-05,0.0,0.0,0.0,0.0,0.0,0.0,0.0,0.0,0.0,-8.00962957333e-05,0.000125203925273,0.000151853303878,0.0,0.0,0.0,0.0,0.0,0.0,0.0,0.0,0.0
28937581322,1479,28936000000,honey/imu,2.63326147233e-05,4.9421998493e-05,0.707110948559,0.707102611572,-1.0,-1.0,-1.0,-1.0,-1.0,-1.0,-1.0,-1.0,-1.0,-4.56395440443e-05,-5.40114734312e-05,-8.91588841159e-05,0.0,0.0,0.0,0.0,0.0,0.0,0.0,0.0,0.0,-9.51991001683e-05,0.000147061395993,0.000163259049432,0.0,0.0,0.0,0.0,0.0,0.0,0.0,0.0,0.0
28958022362,1480,28952000000,honey/imu,2.63646424976e-05,4.91349032097e-05,0.707110695145,0.707102865008,-1.0,-1.0,-1.0,-1.0,-1.0,-1.0,-1.0,-1.0,-1.0,-4.50888611542e-05,-5.64180531768e-05,-8.95968673956e-05,0.0,0.0,0.0,0.0,0.0,0.0,0.0,0.0,0.0,-0.000111373243014,0.000164406225526,0.000180788913271,0.0,0.0,0.0,0.0,0.0,0.0,0.0,0.0,0.0
28968097678,1481,28968000000,honey/imu,2.64074714492e-05,4.84838938338e-05,0.707110166817,0.707103393385,-1.0,-1.0,-1.0,-1.0,-1.0,-1.0,-1.0,-1.0,-1.0,-5.19006172265e-05,-5.76585462392e-05,-9.11193087298e-05,0.0,0.0,0.0,0.0,0.0,0.0,0.0,0.0,0.0,-0.000102520228024,0.000162265734643,0.00018356400777,0.0,0.0,0.0,0.0,0.0,0.0,0.0,0.0,0.0
28988211898,1482,28984000000,honey/imu,2.64579554579e-05,4.78276864884e-05,0.707109625611,0.707103934638,-1.0,-1.0,-1.0,-1.0,-1.0,-1.0,-1.0,-1.0,-1.0,-5.35456699717e-05,-5.80169945252e-05,-9.31653686776e-05,0.0,0.0,0.0,0.0,0.0,0.0,0.0,0.0,0.0,-2.60071926962e-05,0.000138351369744,0.000132324309463,0.0,0.0,0.0,0.0,0.0,0.0,0.0,0.0,0.0
28998289242,1483,29000000000,honey/imu,2.6511614527e-05,4.71769415407e-05,0.707109076835,0.70710448346,-1.0,-1.0,-1.0,-1.0,-1.0,-1.0,-1.0,-1.0,-1.0,-5.57281261487e-05,-5.80053268913e-05,-9.45120906297e-05,0.0,0.0,0.0,0.0,0.0,0.0,0.0,0.0,0.0,6.12032638328e-05,0.000123817221305,9.63816291223e-05,0.0,0.0,0.0,0.0,0.0,0.0,0.0,0.0,0.0
29018568245,1484,29016000000,honey/imu,2.65731942966e-05,4.65400821652e-05,0.707108523001,0.707105037337,-1.0,-1.0,-1.0,-1.0,-1.0,-1.0,-1.0,-1.0,-1.0,-5.6862321207e-05,-5.79196305016e-05,-9.56568556283e-05,0.0,0.0,0.0,0.0,0.0,0.0,0.0,0.0,0.0,7.52009875069e-05,0.000129938372565,9.94284224568e-05,0.0,0.0,0.0,0.0,0.0,0.0,0.0,0.0,0.0
29038683767,1485,29032000000,honey/imu,2.66041148886e-05,4.58778297017e-05,0.707107963416,0.707105596966,-1.0,-1.0,-1.0,-1.0,-1.0,-1.0,-1.0,-1.0,-1.0,-6.1493845396e-05,-5.77548224894e-05,-9.69257667931e-05,0.0,0.0,0.0,0.0,0.0,0.0,0.0,0.0,0.0,9.15457052828e-05,0.000146369439573,0.000111984786718,0.0,0.0,0.0,0.0,0.0,0.0,0.0,0.0,0.0
29048740072,1486,29048000000,honey/imu,2.66422938033e-05,4.52266660167e-05,0.707107398637,0.707106161787,-1.0,-1.0,-1.0,-1.0,-1.0,-1.0,-1.0,-1.0,-1.0,-6.05318576268e-05,-5.76892756649e-05,-9.79989555004e-05,0.0,0.0,0.0,0.0,0.0,0.0,0.0,0.0,0.0,9.79978854159e-05,0.000164201879868,0.000121704853362,0.0,0.0,0.0,0.0,0.0,0.0,0.0,0.0,0.0
29068853286,1487,29064000000,honey/imu,2.66807044353e-05,4.45792610092e-05,0.707106828629,0.707106731835,-1.0,-1.0,-1.0,-1.0,-1.0,-1.0,-1.0,-1.0,-1.0,-6.16238286308e-05,-5.75608320069e-05,-9.90216129387e-05,0.0,0.0,0.0,0.0,0.0,0.0,0.0,0.0,0.0,9.57119611763e-05,0.000135779433846,0.000102476469955,0.0,0.0,0.0,0.0,0.0,0.0,0.0,0.0,0.0
29088964183,1488,29080000000,honey/imu,2.66836985025e-05,4.38991627976e-05,0.707106254386,0.707107306121,-1.0,-1.0,-1.0,-1.0,-1.0,-1.0,-1.0,-1.0,-1.0,-6.64213665073e-05,-5.74368206741e-05,-9.9762845187e-05,0.0,0.0,0.0,0.0,0.0,0.0,0.0,0.0,0.0,5.37788042699e-05,6.91133870184e-05,5.48701143364e-05,0.0,0.0,0.0,0.0,0.0,0.0,0.0,0.0,0.0
29099018240,1489,29096000000,honey/imu,2.67483222027e-05,4.29242691565e-05,0.70710538872,0.707108171841,-1.0,-1.0,-1.0,-1.0,-1.0,-1.0,-1.0,-1.0,-1.0,-6.33503501189e-05,-5.74640578554e-05,-9.96635717251e-05,0.0,0.0,0.0,0.0,0.0,0.0,0.0,0.0,0.0,1.76244669843e-08,1.47722647718e-06,3.50262928994e-06,0.0,0.0,0.0,0.0,0.0,0.0,0.0,0.0,0.0
29119159435,1490,29112000000,honey/imu,2.67346574053e-05,4.25854446004e-05,0.707105109732,0.707108450849,-1.0,-1.0,-1.0,-1.0,-1.0,-1.0,-1.0,-1.0,-1.0,-6.23106617376e-05,-5.74856498071e-05,-9.86385708074e-05,0.0,0.0,0.0,0.0,0.0,0.0,0.0,0.0,0.0,1.39556906351e-05,1.97755470629e-05,1.99419629771e-05,0.0,0.0,0.0,0.0,0.0,0.0,0.0,0.0,0.0
29129214435,1491,29128000000,honey/imu,2.6738090749e-05,4.19065788157e-05,0.707104550379,0.70710901024,-1.0,-1.0,-1.0,-1.0,-1.0,-1.0,-1.0,-1.0,-1.0,-6.60125669096e-05,-5.74211552709e-05,-9.64193773424e-05,0.0,0.0,0.0,0.0,0.0,0.0,0.0,0.0,0.0,7.51391135367e-05,8.33516672704e-05,6.00993558398e-05,0.0,0.0,0.0,0.0,0.0,0.0,0.0,0.0,0.0
29149330317,1492,29144000000,honey/imu,2.67604311879e-05,4.12475307245e-05,0.70710400746,0.707109553193,-1.0,-1.0,-1.0,-1.0,-1.0,-1.0,-1.0,-1.0,-1.0,-6.25537949326e-05,-5.72804336687e-05,-9.32507663166e-05,0.0,0.0,0.0,0.0,0.0,0.0,0.0,0.0,0.0,0.000135990311625,0.000131056186721,7.97364871266e-05,0.0,0.0,0.0,0.0,0.0,0.0,0.0,0.0,0.0
29159425619,1493,29160000000,honey/imu,2.67947831151e-05,4.06021938337e-05,0.707103480193,0.707110080491,-1.0,-1.0,-1.0,-1.0,-1.0,-1.0,-1.0,-1.0,-1.0,-6.12930755603e-05,-5.70853766878e-05,-9.06026922471e-05,0.0,0.0,0.0,0.0,0.0,0.0,0.0,0.0,0.0,0.000143972391826,0.000113842589769,6.07599578632e-05,0.0,0.0,0.0,0.0,0.0,0.0,0.0,0.0,0.0
29179576911,1494,29176000000,honey/imu,2.68015220262e-05,3.99314465417e-05,0.707102965988,0.707110594729,-1.0,-1.0,-1.0,-1.0,-1.0,-1.0,-1.0,-1.0,-1.0,-6.46807540827e-05,-5.67524063263e-05,-8.83409255518e-05,0.0,0.0,0.0,0.0,0.0,0.0,0.0,0.0,0.0,0.00018445626822,0.000104163745147,2.7792940517e-05,0.0,0.0,0.0,0.0,0.0,0.0,0.0,0.0,0.0
29199775831,1495,29192000000,honey/imu,2.68262275591e-05,3.9282091534e-05,0.707102464762,0.707111095985,-1.0,-1.0,-1.0,-1.0,-1.0,-1.0,-1.0,-1.0,-1.0,-6.07626906666e-05,-5.62328230523e-05,-8.58249975381e-05,0.0,0.0,0.0,0.0,0.0,0.0,0.0,0.0,0.0,0.000247270550249,7.15644934876e-05,-3.41013172499e-05,0.0,0.0,0.0,0.0,0.0,0.0,0.0,0.0,0.0
29209856329,1496,29208000000,honey/imu,2.6858906095e-05,3.86542361178e-05,0.7071019784,0.707111582374,-1.0,-1.0,-1.0,-1.0,-1.0,-1.0,-1.0,-1.0,-1.0,-5.87897611794e-05,-5.43788966062e-05,-8.29423306532e-05,0.0,0.0,0.0,0.0,0.0,0.0,0.0,0.0,0.0,0.000363972326191,-1.26515149083e-05,-0.000193488560276,0.0,0.0,0.0,0.0,0.0,0.0,0.0,0.0,0.0
29230019165,1497,29224000000,honey/imu,2.6873952156e-05,3.80276798762e-05,0.707101503737,0.707112057064,-1.0,-1.0,-1.0,-1.0,-1.0,-1.0,-1.0,-1.0,-1.0,-5.65629843927e-05,-5.22764470117e-05,-8.07455324076e-05,0.0,0.0,0.0,0.0,0.0,0.0,0.0,0.0,0.0,0.000340843680211,-0.000189042239875,-0.000405273062713,0.0,0.0,0.0,0.0,0.0,0.0,0.0,0.0,0.0
29240149016,1498,29240000000,honey/imu,2.68986398008e-05,3.74250232322e-05,0.707101038998,0.707112521827,-1.0,-1.0,-1.0,-1.0,-1.0,-1.0,-1.0,-1.0,-1.0,-5.19326803241e-05,-5.08265538783e-05,-7.88934977843e-05,0.0,0.0,0.0,0.0,0.0,0.0,0.0,0.0,0.0,0.000218940622657,-0.000420012623235,-0.000601414505903,0.0,0.0,0.0,0.0,0.0,0.0,0.0,0.0,0.0
29260260303,1499,29256000000,honey/imu,2.69346955936e-05,3.68384039731e-05,0.707100582395,0.707112978451,-1.0,-1.0,-1.0,-1.0,-1.0,-1.0,-1.0,-1.0,-1.0,-4.79155896379e-05,-5.06822706054e-05,-7.74475545239e-05,0.0,0.0,0.0,0.0,0.0,0.0,0.0,0.0,0.0,-7.96193935901e-05,-0.000600079897698,-0.000638717374207,0.0,0.0,0.0,0.0,0.0,0.0,0.0,0.0,0.0
29270318069,1500,29272000000,honey/imu,2.70184988777e-05,3.59602884828e-05,0.707099901183,0.707113659693,-1.0,-1.0,-1.0,-1.0,-1.0,-1.0,-1.0,-1.0,-1.0,-4.11121959294e-05,-5.12975948549e-05,-7.65505168077e-05,0.0,0.0,0.0,0.0,0.0,0.0,0.0,0.0,0.0,-0.000211252530397,-0.000370331141341,-0.000310902119224,0.0,0.0,0.0,0.0,0.0,0.0,0.0,0.0,0.0
29280372367,1501,29288000000,honey/imu,2.70364472034e-05,3.56852821767e-05,0.707099685007,0.707113875878,-1.0,-1.0,-1.0,-1.0,-1.0,-1.0,-1.0,-1.0,-1.0,-4.54408732065e-05,-5.17913974333e-05,-7.64293676872e-05,0.0,0.0,0.0,0.0,0.0,0.0,0.0,0.0,0.0,-0.00011898004501,-0.000122105165471,-8.78185655542e-05,0.0,0.0,0.0,0.0,0.0,0.0,0.0,0.0,0.0
29310575919,1502,29304000000,honey/imu,2.70887045447e-05,3.51035950044e-05,0.707099239179,0.707114321724,-1.0,-1.0,-1.0,-1.0,-1.0,-1.0,-1.0,-1.0,-1.0,-4.12818783176e-05,-5.23834746236e-05,-7.61916086173e-05,0.0,0.0,0.0,0.0,0.0,0.0,0.0,0.0,0.0,-0.000124801425383,-0.000111410678967,-7.7077977375e-05,0.0,0.0,0.0,0.0,0.0,0.0,0.0,0.0,0.0
29320634054,1503,29320000000,honey/imu,2.71461296437e-05,3.4519365973e-05,0.707098798668,0.707114762251,-1.0,-1.0,-1.0,-1.0,-1.0,-1.0,-1.0,-1.0,-1.0,-4.36621555009e-05,-5.34030100996e-05,-7.52270336957e-05,0.0,0.0,0.0,0.0,0.0,0.0,0.0,0.0,0.0,-0.000219160490761,-0.000147122412753,-4.74221517464e-05,0.0,0.0,0.0,0.0,0.0,0.0,0.0,0.0,0.0
29340747675,1504,29336000000,honey/imu,2.72081042523e-05,3.39320968321e-05,0.707098364779,0.707115196156,-1.0,-1.0,-1.0,-1.0,-1.0,-1.0,-1.0,-1.0,-1.0,-3.95769852871e-05,-5.42461598658e-05,-7.41985019021e-05,0.0,0.0,0.0,0.0,0.0,0.0,0.0,0.0,0.0,-0.000179088228108,-8.79361409268e-05,-7.14004881064e-06,0.0,0.0,0.0,0.0,0.0,0.0,0.0,0.0,0.0
29350802843,1505,29352000000,honey/imu,2.72908321685e-05,3.33611106324e-05,0.707097935521,0.707115625428,-1.0,-1.0,-1.0,-1.0,-1.0,-1.0,-1.0,-1.0,-1.0,-3.61391482267e-05,-5.46616348142e-05,-7.35564851035e-05,0.0,0.0,0.0,0.0,0.0,0.0,0.0,0.0,0.0,-9.37073873543e-05,-3.22224077947e-05,6.27481436901e-06,0.0,0.0,0.0,0.0,0.0,0.0,0.0,0.0,0.0
29360895663,1506,29368000000,honey/imu,2.73547816889e-05,3.27691985575e-05,0.707097508779,0.707116052184,-1.0,-1.0,-1.0,-1.0,-1.0,-1.0,-1.0,-1.0,-1.0,-4.35217855247e-05,-5.4819657812e-05,-7.3284251273e-05,0.0,0.0,0.0,0.0,0.0,0.0,0.0,0.0,0.0,-2.85906904144e-05,6.4720615915e-07,1.2783815876e-05,0.0,0.0,0.0,0.0,0.0,0.0,0.0,0.0,0.0
29391261699,1507,29384000000,honey/imu,2.74141507404e-05,3.2181090534e-05,0.707097086309,0.707116474668,-1.0,-1.0,-1.0,-1.0,-1.0,-1.0,-1.0,-1.0,-1.0,-3.92730505084e-05,-5.38970052084e-05,-7.23862690571e-05,0.0,0.0,0.0,0.0,0.0,0.0,0.0,0.0,0.0,-6.73054206956e-05,-6.42630641973e-06,5.82282384991e-06,0.0,0.0,0.0,0.0,0.0,0.0,0.0,0.0,0.0
29401323302,1508,29400000000,honey/imu,2.7488405544e-05,3.16319814294e-05,0.707096673718,0.707116887269,-1.0,-1.0,-1.0,-1.0,-1.0,-1.0,-1.0,-1.0,-1.0,-3.40150080055e-05,-5.1537841038e-05,-7.04728348864e-05,0.0,0.0,0.0,0.0,0.0,0.0,0.0,0.0,0.0,-0.000156117491799,3.47407807115e-06,6.37990522221e-05,0.0,0.0,0.0,0.0,0.0,0.0,0.0,0.0,0.0
29411410008,1509,29416000000,honey/imu,2.75423270162e-05,3.10911600281e-05,0.707096272425,0.707117288572,-1.0,-1.0,-1.0,-1.0,-1.0,-1.0,-1.0,-1.0,-1.0,-3.91361987047e-05,-4.91117253583e-05,-6.85326085271e-05,0.0,0.0,0.0,0.0,0.0,0.0,0.0,0.0,0.0,-0.000135777166355,3.56590994646e-05,0.000109116110905,0.0,0.0,0.0,0.0,0.0,0.0,0.0,0.0,0.0
29431520582,1510,29432000000,honey/imu,2.75980252876e-05,3.03011995882e-05,0.707095689896,0.707117871116,-1.0,-1.0,-1.0,-1.0,-1.0,-1.0,-1.0,-1.0,-1.0,-3.3742043133e-05,-4.6285609097e-05,-6.60886443547e-05,0.0,0.0,0.0,0.0,0.0,0.0,0.0,0.0,0.0,-0.000139224547303,5.09745045924e-05,0.00012222728844,0.0,0.0,0.0,0.0,0.0,0.0,0.0,0.0,0.0
29451718694,1511,29448000000,honey/imu,2.76373241612e-05,3.00982495273e-05,0.707095507917,0.707118053096,-1.0,-1.0,-1.0,-1.0,-1.0,-1.0,-1.0,-1.0,-1.0,-2.89289213919e-05,-4.2827053918e-05,-6.43378661192e-05,0.0,0.0,0.0,0.0,0.0,0.0,0.0,0.0,0.0,-0.000159165545247,9.22294030617e-05,0.00018341330371,0.0,0.0,0.0,0.0,0.0,0.0,0.0,0.0,0.0
29471869462,1512,29464000000,honey/imu,2.76626450721e-05,2.96427717828e-05,0.707095136521,0.707118424498,-1.0,-1.0,-1.0,-1.0,-1.0,-1.0,-1.0,-1.0,-1.0,-3.40933544311e-05,-3.87831281944e-05,-6.36718366824e-05,0.0,0.0,0.0,0.0,0.0,0.0,0.0,0.0,0.0,-0.000169001626142,0.000150817955919,0.00026131278152,0.0,0.0,0.0,0.0,0.0,0.0,0.0,0.0,0.0
29481944628,1513,29480000000,honey/imu,2.76637207614e-05,2.92010273445e-05,0.707094764565,0.70711879646,-1.0,-1.0,-1.0,-1.0,-1.0,-1.0,-1.0,-1.0,-1.0,-3.14154343331e-05,-3.54386346395e-05,-6.38781696049e-05,0.0,0.0,0.0,0.0,0.0,0.0,0.0,0.0,0.0,-0.000171496071206,0.000177383347047,0.000277331290575,0.0,0.0,0.0,0.0,0.0,0.0,0.0,0.0,0.0
29502103544,1514,29496000000,honey/imu,2.76678093402e-05,2.87851837848e-05,0.707094386904,0.707119174125,-1.0,-1.0,-1.0,-1.0,-1.0,-1.0,-1.0,-1.0,-1.0,-3.02077095564e-05,-3.32354372187e-05,-6.48289329654e-05,0.0,0.0,0.0,0.0,0.0,0.0,0.0,0.0,0.0,-0.000166440352769,0.000181011555022,0.000282535425537,0.0,0.0,0.0,0.0,0.0,0.0,0.0,0.0,0.0
29512452726,1515,29512000000,honey/imu,2.76732331922e-05,2.83784072381e-05,0.707094000446,0.707119560585,-1.0,-1.0,-1.0,-1.0,-1.0,-1.0,-1.0,-1.0,-1.0,-3.70659564468e-05,-3.18727851396e-05,-6.57139519423e-05,0.0,0.0,0.0,0.0,0.0,0.0,0.0,0.0,0.0,-8.76088239967e-05,0.000152686677139,0.00022613424556,0.0,0.0,0.0,0.0,0.0,0.0,0.0,0.0,0.0
29532622139,1516,29528000000,honey/imu,2.76634157173e-05,2.797741007e-05,0.707093613603,0.70711994743,-1.0,-1.0,-1.0,-1.0,-1.0,-1.0,-1.0,-1.0,-1.0,-4.21878665482e-05,-3.09419133367e-05,-6.62687802329e-05,0.0,0.0,0.0,0.0,0.0,0.0,0.0,0.0,0.0,8.46006920035e-05,0.000190577462822,0.00017116824935,0.0,0.0,0.0,0.0,0.0,0.0,0.0,0.0,0.0
29542735601,1517,29544000000,honey/imu,2.76558217475e-05,2.75947972127e-05,0.707093224553,0.707120336481,-1.0,-1.0,-1.0,-1.0,-1.0,-1.0,-1.0,-1.0,-1.0,-4.19951918057e-05,-3.03673255394e-05,-6.72617827059e-05,0.0,0.0,0.0,0.0,0.0,0.0,0.0,0.0,0.0,6.09508860288e-05,0.000157044417048,0.000161301832722,0.0,0.0,0.0,0.0,0.0,0.0,0.0,0.0,0.0
29573034314,1518,29568000000,honey/imu,2.76143308445e-05,2.69974888091e-05,0.707092624941,0.707120936094,-1.0,-1.0,-1.0,-1.0,-1.0,-1.0,-1.0,-1.0,-1.0,-3.19372573552e-05,-3.36926619114e-05,-7.23510491255e-05,0.0,0.0,0.0,0.0,0.0,0.0,0.0,0.0,0.0,-0.000858218635935,-0.00128127511977,-0.00100388837431,0.0,0.0,0.0,0.0,0.0,0.0,0.0,0.0,0.0
29583118760,1519,29576000000,honey/imu,2.75593405327e-05,2.67773339585e-05,0.707092425263,0.707121135774,-1.0,-1.0,-1.0,-1.0,-1.0,-1.0,-1.0,-1.0,-1.0,-4.8638698798e-05,-2.92009412545e-05,-7.0596142668e-05,0.0,0.0,0.0,0.0,0.0,0.0,0.0,0.0,0.0,0.0027720436742,0.00442505806007,0.0037038044953,0.0,0.0,0.0,0.0,0.0,0.0,0.0,0.0,0.0
29593723556,1520,29592000000,honey/imu,2.75027551291e-05,2.63767336228e-05,0.707092010167,0.707121550871,-1.0,-1.0,-1.0,-1.0,-1.0,-1.0,-1.0,-1.0,-1.0,-4.89554277995e-05,-2.82297965906e-05,-7.25955248716e-05,0.0,0.0,0.0,0.0,0.0,0.0,0.0,0.0,0.0,6.77483167472e-05,0.000162546904261,0.000179762178003,0.0,0.0,0.0,0.0,0.0,0.0,0.0,0.0,0.0
29613937618,1521,29608000000,honey/imu,2.74309149054e-05,2.59746291697e-05,0.707091586423,0.707121974614,-1.0,-1.0,-1.0,-1.0,-1.0,-1.0,-1.0,-1.0,-1.0,-5.17272917593e-05,-2.70068535766e-05,-7.40053336484e-05,0.0,0.0,0.0,0.0,0.0,0.0,0.0,0.0,0.0,0.000101205404511,0.000182574370712,0.000168917431028,0.0,0.0,0.0,0.0,0.0,0.0,0.0,0.0,0.0
29624191142,1522,29624000000,honey/imu,2.73039216772e-05,2.55294584885e-05,0.707091160254,0.707122400786,-1.0,-1.0,-1.0,-1.0,-1.0,-1.0,-1.0,-1.0,-1.0,-5.86955694842e-05,-2.59871109707e-05,-7.41202313494e-05,0.0,0.0,0.0,0.0,0.0,0.0,0.0,0.0,0.0,0.000111079512205,0.000149718414355,9.30664586067e-05,0.0,0.0,0.0,0.0,0.0,0.0,0.0,0.0,0.0
29644402189,1523,29640000000,honey/imu,2.71612956142e-05,2.4913225304e-05,0.707090520065,0.707123040973,-1.0,-1.0,-1.0,-1.0,-1.0,-1.0,-1.0,-1.0,-1.0,-5.605542064e-05,-2.53262435109e-05,-7.3897063359e-05,0.0,0.0,0.0,0.0,0.0,0.0,0.0,0.0,0.0,5.28206778243e-05,6.64774755682e-05,1.21744498119e-05,0.0,0.0,0.0,0.0,0.0,0.0,0.0,0.0,0.0
29654460530,1524,29656000000,honey/imu,2.70807974901e-05,2.46929283896e-05,0.707090313761,0.707123247279,-1.0,-1.0,-1.0,-1.0,-1.0,-1.0,-1.0,-1.0,-1.0,-5.3173100485e-05,-2.47170767218e-05,-7.29390039274e-05,0.0,0.0,0.0,0.0,0.0,0.0,0.0,0.0,0.0,5.43851000558e-05,6.80844543357e-05,-4.14835997302e-06,0.0,0.0,0.0,0.0,0.0,0.0,0.0,0.0,0.0
29674761586,1525,29672000000,honey/imu,2.69432176042e-05,2.42579742623e-05,0.70708989676,0.70712366428,-1.0,-1.0,-1.0,-1.0,-1.0,-1.0,-1.0,-1.0,-1.0,-5.8188682191e-05,-2.4172542466e-05,-7.22229838698e-05,0.0,0.0,0.0,0.0,0.0,0.0,0.0,0.0,0.0,4.3470239516e-05,5.78630680075e-05,-4.27496079961e-06,0.0,0.0,0.0,0.0,0.0,0.0,0.0,0.0,0.0
29694876940,1526,29688000000,honey/imu,2.6822895007e-05,2.38425609561e-05,0.707089482159,0.70712407888,-1.0,-1.0,-1.0,-1.0,-1.0,-1.0,-1.0,-1.0,-1.0,-5.49307951779e-05,-2.40801950167e-05,-7.18907551407e-05,0.0,0.0,0.0,0.0,0.0,0.0,0.0,0.0,0.0,4.58842741679e-06,1.44872893019e-05,-3.1073767992e-06,0.0,0.0,0.0,0.0,0.0,0.0,0.0,0.0,0.0
29704930214,1527,29704000000,honey/imu,2.67159771989e-05,2.34403366374e-05,0.707089069062,0.707124491974,-1.0,-1.0,-1.0,-1.0,-1.0,-1.0,-1.0,-1.0,-1.0,-5.3461817792e-05,-2.41569806722e-05,-7.16670178206e-05,0.0,0.0,0.0,0.0,0.0,0.0,0.0,0.0,0.0,-9.13421739182e-06,-3.93311743668e-06,6.75840331389e-06,0.0,0.0,0.0,0.0,0.0,0.0,0.0,0.0,0.0
29725117236,1528,29720000000,honey/imu,2.65726382737e-05,2.30111499027e-05,0.707088658582,0.707124902452,-1.0,-1.0,-1.0,-1.0,-1.0,-1.0,-1.0,-1.0,-1.0,-5.78774812771e-05,-2.29322482134e-05,-7.10712178328e-05,0.0,0.0,0.0,0.0,0.0,0.0,0.0,0.0,0.0,5.30594886605e-05,3.00150743821e-05,-1.24107949415e-05,0.0,0.0,0.0,0.0,0.0,0.0,0.0,0.0,0.0
29735180781,1529,29736000000,honey/imu,2.64438792611e-05,2.26220363585e-05,0.707088253628,0.707125307403,-1.0,-1.0,-1.0,-1.0,-1.0,-1.0,-1.0,-1.0,-1.0,-5.25345410887e-05,-2.00837549941e-05,-6.97966636375e-05,0.0,0.0,0.0,0.0,0.0,0.0,0.0,0.0,0.0,0.000133855456236,4.67269375616e-05,-6.78984699475e-05,0.0,0.0,0.0,0.0,0.0,0.0,0.0,0.0,0.0
29755472797,1530,29752000000,honey/imu,2.6319108805e-05,2.22776740584e-05,0.707087857425,0.707125703601,-1.0,-1.0,-1.0,-1.0,-1.0,-1.0,-1.0,-1.0,-1.0,-4.88620918994e-05,-1.57916656284e-05,-6.78724340421e-05,0.0,0.0,0.0,0.0,0.0,0.0,0.0,0.0,0.0,0.000232760812466,4.14822430459e-05,-0.000166517426353,0.0,0.0,0.0,0.0,0.0,0.0,0.0,0.0,0.0
29775626878,1531,29768000000,honey/imu,2.61608165351e-05,2.19415078651e-05,0.707087472046,0.707126088976,-1.0,-1.0,-1.0,-1.0,-1.0,-1.0,-1.0,-1.0,-1.0,-4.84232733159e-05,-1.17005900863e-05,-6.5560382257e-05,0.0,0.0,0.0,0.0,0.0,0.0,0.0,0.0,0.0,0.000286838898657,-4.72495741698e-05,-0.000322972510837,0.0,0.0,0.0,0.0,0.0,0.0,0.0,0.0,0.0
29785684865,1532,29784000000,honey/imu,2.60166265492e-05,2.16483418884e-05,0.707087095548,0.707126465467,-1.0,-1.0,-1.0,-1.0,-1.0,-1.0,-1.0,-1.0,-1.0,-4.34155990798e-05,-9.12616935975e-06,-6.38692332848e-05,0.0,0.0,0.0,0.0,0.0,0.0,0.0,0.0,0.0,0.000155280243326,-0.00011483339389,-0.000277607415579,0.0,0.0,0.0,0.0,0.0,0.0,0.0,0.0,0.0
29805824404,1533,29800000000,honey/imu,2.58614664962e-05,2.13581506184e-05,0.707086726859,0.70712683415,-1.0,-1.0,-1.0,-1.0,-1.0,-1.0,-1.0,-1.0,-1.0,-4.25535399056e-05,-7.95815913509e-06,-6.24220188197e-05,0.0,0.0,0.0,0.0,0.0,0.0,0.0,0.0,0.0,7.72362239108e-05,-0.000141586242673,-0.000237574025874,0.0,0.0,0.0,0.0,0.0,0.0,0.0,0.0,0.0
29826039877,1534,29824000000,honey/imu,2.56606267109e-05,2.09408295701e-05,0.707086171541,0.707127389456,-1.0,-1.0,-1.0,-1.0,-1.0,-1.0,-1.0,-1.0,-1.0,-3.24538217526e-05,-1.51619391399e-05,-6.73679467885e-05,0.0,0.0,0.0,0.0,0.0,0.0,0.0,0.0,0.0,-0.00172073042766,-0.00121981273687,-7.43561290764e-05,0.0,0.0,0.0,0.0,0.0,0.0,0.0,0.0,0.0
29846241635,1535,29832000000,honey/imu,2.55031203776e-05,2.06610605209e-05,0.707085802689,0.7071277583,-1.0,-1.0,-1.0,-1.0,-1.0,-1.0,-1.0,-1.0,-1.0,-4.13760787789e-05,-7.11986597654e-06,-6.25799968261e-05,0.0,0.0,0.0,0.0,0.0,0.0,0.0,0.0,0.0,0.00510071034543,0.00330698154841,-0.000187058817201,0.0,0.0,0.0,0.0,0.0,0.0,0.0,0.0,0.0
29846241635,1536,29856000000,honey/imu,2.53444961976e-05,2.03903602454e-05,0.707085434048,0.707128126932,-1.0,-1.0,-1.0,-1.0,-1.0,-1.0,-1.0,-1.0,-1.0,-3.52991128909e-05,-1.3623714664e-05,-6.76980361315e-05,0.0,0.0,0.0,0.0,0.0,0.0,0.0,0.0,0.0,-0.00175850097977,-0.00113432476547,7.58628265823e-05,0.0,0.0,0.0,0.0,0.0,0.0,0.0,0.0,0.0
29866447062,1537,29864000000,honey/imu,2.52466502911e-05,2.0262486513e-05,0.707085257919,0.707128303058,-1.0,-1.0,-1.0,-1.0,-1.0,-1.0,-1.0,-1.0,-1.0,-3.99020296652e-05,-5.31143819751e-06,-6.22702634571e-05,0.0,0.0,0.0,0.0,0.0,0.0,0.0,0.0,0.0,0.00519059748463,0.00325209054946,-0.000381170341476,0.0,0.0,0.0,0.0,0.0,0.0,0.0,0.0,0.0
29886643986,1538,29880000000,honey/imu,2.50823305357e-05,2.00121701273e-05,0.707084893966,0.707128667002,-1.0,-1.0,-1.0,-1.0,-1.0,-1.0,-1.0,-1.0,-1.0,-3.87419088152e-05,-3.09933716394e-06,-6.15067969344e-05,0.0,0.0,0.0,0.0,0.0,0.0,0.0,0.0,0.0,-3.17196864312e-05,-4.43056422319e-05,-3.73004489846e-05,0.0,0.0,0.0,0.0,0.0,0.0,0.0,0.0,0.0
29896749751,1539,29896000000,honey/imu,2.49061457973e-05,1.97879068755e-05,0.70708453254,0.707129028418,-1.0,-1.0,-1.0,-1.0,-1.0,-1.0,-1.0,-1.0,-1.0,-3.7214763376e-05,6.73375839064e-07,-6.11436582591e-05,0.0,0.0,0.0,0.0,0.0,0.0,0.0,0.0,0.0,-8.3352347159e-05,-9.24249926881e-05,-5.59812447141e-05,0.0,0.0,0.0,0.0,0.0,0.0,0.0,0.0,0.0
29916999519,1540,29912000000,honey/imu,2.4716783621e-05,1.95904796149e-05,0.707084172675,0.707129388272,-1.0,-1.0,-1.0,-1.0,-1.0,-1.0,-1.0,-1.0,-1.0,-3.59328887548e-05,4.16417630044e-06,-6.08783590557e-05,0.0,0.0,0.0,0.0,0.0,0.0,0.0,0.0,0.0,-9.22199057449e-05,-8.21009057897e-05,-2.71258349149e-05,0.0,0.0,0.0,0.0,0.0,0.0,0.0,0.0,0.0
29927068425,1541,29928000000,honey/imu,2.45192870838e-05,1.94120639025e-05,0.707083814381,0.707129746555,-1.0,-1.0,-1.0,-1.0,-1.0,-1.0,-1.0,-1.0,-1.0,-3.49382919005e-05,6.25113633132e-06,-6.05914261808e-05,0.0,0.0,0.0,0.0,0.0,0.0,0.0,0.0,0.0,-0.000136147158208,-9.3572286528e-05,2.01440403491e-06,0.0,0.0,0.0,0.0,0.0,0.0,0.0,0.0,0.0
29947258529,1542,29944000000,honey/imu,2.43193406126e-05,1.92437755285e-05,0.707083460709,0.707130100215,-1.0,-1.0,-1.0,-1.0,-1.0,-1.0,-1.0,-1.0,-1.0,-3.4274656094e-05,7.05887404212e-06,-5.96339906203e-05,0.0,0.0,0.0,0.0,0.0,0.0,0.0,0.0,0.0,-0.000199372621312,-0.000111519620368,3.91177895309e-05,0.0,0.0,0.0,0.0,0.0,0.0,0.0,0.0,0.0
29967508231,1543,29960000000,honey/imu,2.41189061248e-05,1.90795809915e-05,0.707083112072,0.70713044884,-1.0,-1.0,-1.0,-1.0,-1.0,-1.0,-1.0,-1.0,-1.0,-3.40919971373e-05,7.30800261503e-06,-5.86797566129e-05,0.0,0.0,0.0,0.0,0.0,0.0,0.0,0.0,0.0,-0.000256533796413,-0.000119967172759,7.76494790644e-05,0.0,0.0,0.0,0.0,0.0,0.0,0.0,0.0,0.0
29977607637,1544,29976000000,honey/imu,2.39199865344e-05,1.89156632569e-05,0.707082769263,0.707130791638,-1.0,-1.0,-1.0,-1.0,-1.0,-1.0,-1.0,-1.0,-1.0,-3.41888356879e-05,7.05782615224e-06,-5.76508119721e-05,0.0,0.0,0.0,0.0,0.0,0.0,0.0,0.0,0.0,-0.00031057719547,-0.000124000383204,0.000106486993138,0.0,0.0,0.0,0.0,0.0,0.0,0.0,0.0,0.0
29997829115,1545,29992000000,honey/imu,2.37240775477e-05,1.87516308857e-05,0.707082432474,0.707131128415,-1.0,-1.0,-1.0,-1.0,-1.0,-1.0,-1.0,-1.0,-1.0,-3.4620768095e-05,6.60333311507e-06,-5.66971107472e-05,0.0,0.0,0.0,0.0,0.0,0.0,0.0,0.0,0.0,-0.000332898472492,-0.000121157790877,0.000112820360119,0.0,0.0,0.0,0.0,0.0,0.0,0.0,0.0,0.0
30007907925,1546,30008000000,honey/imu,2.3546420511e-05,1.86104513285e-05,0.707082103125,0.70713145775,-1.0,-1.0,-1.0,-1.0,-1.0,-1.0,-1.0,-1.0,-1.0,-3.57374966612e-05,6.27870158043e-06,-5.59373770715e-05,0.0,0.0,0.0,0.0,0.0,0.0,0.0,0.0,0.0,-0.000197852172615,-6.04917321916e-05,7.63552494962e-05,0.0,0.0,0.0,0.0,0.0,0.0,0.0,0.0,0.0
30028031526,1547,30024000000,honey/imu,2.332824255e-05,1.84487595508e-05,0.707081784396,0.707131776468,-1.0,-1.0,-1.0,-1.0,-1.0,-1.0,-1.0,-1.0,-1.0,-4.18070427567e-05,6.18271635432e-06,-5.54023715951e-05,0.0,0.0,0.0,0.0,0.0,0.0,0.0,0.0,0.0,-7.18288432252e-05,1.60602318562e-05,6.65345400667e-05,0.0,0.0,0.0,0.0,0.0,0.0,0.0,0.0,0.0
30048303435,1548,30040000000,honey/imu,2.31221141596e-05,1.83111776548e-05,0.707081472645,0.707132088207,-1.0,-1.0,-1.0,-1.0,-1.0,-1.0,-1.0,-1.0,-1.0,-3.89827583813e-05,6.18301390256e-06,-5.49095371929e-05,0.0,0.0,0.0,0.0,0.0,0.0,0.0,0.0,0.0,-7.20606666845e-05,2.1862508841e-05,6.2625225258e-05,0.0,0.0,0.0,0.0,0.0,0.0,0.0,0.0,0.0
30058515755,1549,30056000000,honey/imu,2.29219150592e-05,1.81943221437e-05,0.70708116921,0.70713239163,-1.0,-1.0,-1.0,-1.0,-1.0,-1.0,-1.0,-1.0,-1.0,-3.66169337082e-05,6.89123140005e-06,-5.38251121035e-05,0.0,0.0,0.0,0.0,0.0,0.0,0.0,0.0,0.0,-0.000109009942733,5.01379273382e-05,0.000111905041975,0.0,0.0,0.0,0.0,0.0,0.0,0.0,0.0,0.0
30078725955,1550,30072000000,honey/imu,2.26744891174e-05,1.80468910886e-05,0.70708087456,0.70713268627,-1.0,-1.0,-1.0,-1.0,-1.0,-1.0,-1.0,-1.0,-1.0,-4.29994167355e-05,7.62331649861e-06,-5.27455363197e-05,0.0,0.0,0.0,0.0,0.0,0.0,0.0,0.0,0.0,-0.000107501222079,6.56956686477e-05,0.000134167360352,0.0,0.0,0.0,0.0,0.0,0.0,0.0,0.0,0.0
30088783393,1551,30088000000,honey/imu,2.24352128644e-05,1.79199746215e-05,0.70708058614,0.70713297468,-1.0,-1.0,-1.0,-1.0,-1.0,-1.0,-1.0,-1.0,-1.0,-4.00572933304e-05,8.32711936195e-06,-5.19759922421e-05,0.0,0.0,0.0,0.0,0.0,0.0,0.0,0.0,0.0,-6.3242619525e-05,3.39784584059e-05,6.59066039339e-05,0.0,0.0,0.0,0.0,0.0,0.0,0.0,0.0,0.0
30119133585,1552,30104000000,honey/imu,2.22041836336e-05,1.78136346792e-05,0.70708030497,0.707133255839,-1.0,-1.0,-1.0,-1.0,-1.0,-1.0,-1.0,-1.0,-1.0,-3.74746997253e-05,9.36959600461e-06,-5.06534844067e-05,0.0,0.0,0.0,0.0,0.0,0.0,0.0,0.0,0.0,-8.53017804756e-05,4.99371313359e-05,9.51329668088e-05,0.0,0.0,0.0,0.0,0.0,0.0,0.0,0.0,0.0
30129191431,1553,30120000000,honey/imu,2.19697035415e-05,1.7717406201e-05,0.707080031212,0.707133529586,-1.0,-1.0,-1.0,-1.0,-1.0,-1.0,-1.0,-1.0,-1.0,-3.84426212313e-05,1.04423323588e-05,-4.94680957444e-05,0.0,0.0,0.0,0.0,0.0,0.0,0.0,0.0,0.0,-8.48402712484e-05,5.7645171068e-05,0.000107400548774,0.0,0.0,0.0,0.0,0.0,0.0,0.0,0.0,0.0
30149387009,1554,30136000000,honey/imu,2.16849826957e-05,1.75806528907e-05,0.70707976276,0.70713379803,-1.0,-1.0,-1.0,-1.0,-1.0,-1.0,-1.0,-1.0,-1.0,-4.44807289478e-05,1.10745416979e-05,-4.87136081936e-05,0.0,0.0,0.0,0.0,0.0,0.0,0.0,0.0,0.0,-4.43923086053e-05,3.6443325111e-05,6.32130718727e-05,0.0,0.0,0.0,0.0,0.0,0.0,0.0,0.0,0.0
30159448040,1555,30152000000,honey/imu,2.14153473436e-05,1.74648932578e-05,0.707079497645,0.707134063136,-1.0,-1.0,-1.0,-1.0,-1.0,-1.0,-1.0,-1.0,-1.0,-4.11723476689e-05,1.14912779529e-05,-4.82331573808e-05,0.0,0.0,0.0,0.0,0.0,0.0,0.0,0.0,0.0,-3.16795894795e-06,5.26950546088e-06,8.56096850232e-07,0.0,0.0,0.0,0.0,0.0,0.0,0.0,0.0,0.0
30169536630,1556,30168000000,honey/imu,2.11620673404e-05,1.73691240568e-05,0.707079234449,0.707134326321,-1.0,-1.0,-1.0,-1.0,-1.0,-1.0,-1.0,-1.0,-1.0,-3.80130998684e-05,1.17187912458e-05,-4.80065809354e-05,0.0,0.0,0.0,0.0,0.0,0.0,0.0,0.0,0.0,8.6305696118e-06,5.19492830731e-06,-5.3745141962e-07,0.0,0.0,0.0,0.0,0.0,0.0,0.0,0.0,0.0
30189691791,1557,30184000000,honey/imu,2.0877631605e-05,1.72416641024e-05,0.707078971132,0.707134589629,-1.0,-1.0,-1.0,-1.0,-1.0,-1.0,-1.0,-1.0,-1.0,-4.35118401574e-05,1.16747249814e-05,-4.8016692565e-05,0.0,0.0,0.0,0.0,0.0,0.0,0.0,0.0,0.0,-1.70218300872e-06,8.26151225058e-06,1.08859260793e-05,0.0,0.0,0.0,0.0,0.0,0.0,0.0,0.0,0.0
30199750701,1558,30200000000,honey/imu,2.06125581987e-05,1.71332066478e-05,0.707078708115,0.707134852636,-1.0,-1.0,-1.0,-1.0,-1.0,-1.0,-1.0,-1.0,-1.0,-4.01657851154e-05,1.1650599105e-05,-4.79355077181e-05,0.0,0.0,0.0,0.0,0.0,0.0,0.0,0.0,0.0,6.35465282628e-06,-9.7199316142e-07,-8.4602510442e-06,0.0,0.0,0.0,0.0,0.0,0.0,0.0,0.0,0.0
30221783969,1559,30216000000,honey/imu,2.02273662591e-05,1.70063919596e-05,0.707078325115,0.707135235619,-1.0,-1.0,-1.0,-1.0,-1.0,-1.0,-1.0,-1.0,-1.0,-3.81346667872e-05,1.22467057846e-05,-4.69991688765e-05,0.0,0.0,0.0,0.0,0.0,0.0,0.0,0.0,0.0,-5.13416031739e-05,4.37950557243e-05,7.15549244298e-05,0.0,0.0,0.0,0.0,0.0,0.0,0.0,0.0,0.0
30231840742,1560,30232000000,honey/imu,2.00625306879e-05,1.69201411812e-05,0.707078195095,0.707135365636,-1.0,-1.0,-1.0,-1.0,-1.0,-1.0,-1.0,-1.0,-1.0,-4.43868787872e-05,1.3888963471e-05,-4.59688799944e-05,0.0,0.0,0.0,0.0,0.0,0.0,0.0,0.0,0.0,-0.000125518756843,0.000117573925949,0.000189897959002,0.0,0.0,0.0,0.0,0.0,0.0,0.0,0.0,0.0
30251953241,1561,30248000000,honey/imu,1.97698459132e-05,1.68310436094e-05,0.707077947147,0.707135613573,-1.0,-1.0,-1.0,-1.0,-1.0,-1.0,-1.0,-1.0,-1.0,-4.11439234213e-05,1.67295992784e-05,-4.48752756373e-05,0.0,0.0,0.0,0.0,0.0,0.0,0.0,0.0,0.0,-0.000116165379716,0.000189261904976,0.000257303700687,0.0,0.0,0.0,0.0,0.0,0.0,0.0,0.0,0.0
30272080698,1562,30264000000,honey/imu,1.94776063649e-05,1.6781757499e-05,0.707077704773,0.707135855937,-1.0,-1.0,-1.0,-1.0,-1.0,-1.0,-1.0,-1.0,-1.0,-3.78459559316e-05,2.08387541677e-05,-4.36657067333e-05,0.0,0.0,0.0,0.0,0.0,0.0,0.0,0.0,0.0,4.79943852947e-05,0.000297567309423,0.000302784441766,0.0,0.0,0.0,0.0,0.0,0.0,0.0,0.0,0.0
30272080698,1563,30280000000,honey/imu,1.91776947572e-05,1.67655631996e-05,0.707077467775,0.707136092924,-1.0,-1.0,-1.0,-1.0,-1.0,-1.0,-1.0,-1.0,-1.0,-3.73764540127e-05,2.50658464422e-05,-4.22801168355e-05,0.0,0.0,0.0,0.0,0.0,0.0,0.0,0.0,0.0,0.000365135361968,0.000317951471601,0.000187783794465,0.0,0.0,0.0,0.0,0.0,0.0,0.0,0.0,0.0
30302252283,1564,30296000000,honey/imu,1.88189108058e-05,1.67347172476e-05,0.707077236992,0.707136323698,-1.0,-1.0,-1.0,-1.0,-1.0,-1.0,-1.0,-1.0,-1.0,-4.2315827998e-05,3.03707060517e-05,-4.02808582573e-05,0.0,0.0,0.0,0.0,0.0,0.0,0.0,0.0,0.0,0.000787913625136,0.000270277845846,-6.31606073082e-05,0.0,0.0,0.0,0.0,0.0,0.0,0.0,0.0,0.0
30312309212,1565,30312000000,honey/imu,1.84744720128e-05,1.67636841514e-05,0.707077012858,0.707136547822,-1.0,-1.0,-1.0,-1.0,-1.0,-1.0,-1.0,-1.0,-1.0,-3.44119535866e-05,3.59736178811e-05,-3.80409140999e-05,0.0,0.0,0.0,0.0,0.0,0.0,0.0,0.0,0.0,0.000895876843614,-7.63894409688e-05,-0.000476209972755,0.0,0.0,0.0,0.0,0.0,0.0,0.0,0.0,0.0
30342533059,1566,30336000000,honey/imu,1.79879611213e-05,1.68838127092e-05,0.707076675059,0.707136885602,-1.0,-1.0,-1.0,-1.0,-1.0,-1.0,-1.0,-1.0,-1.0,-2.00785973586e-05,3.46763488902e-05,-4.12918325834e-05,0.0,0.0,0.0,0.0,0.0,0.0,0.0,0.0,0.0,-0.00125423427007,-0.00146124019034,-0.00110626999335,0.0,0.0,0.0,0.0,0.0,0.0,0.0,0.0,0.0
30342533059,1567,30352000000,honey/imu,1.76423935249e-05,1.69859443522e-05,0.707076455101,0.707137105548,-1.0,-1.0,-1.0,-1.0,-1.0,-1.0,-1.0,-1.0,-1.0,-1.46003864402e-05,3.62681129903e-05,-4.12336642849e-05,0.0,0.0,0.0,0.0,0.0,0.0,0.0,0.0,0.0,-0.000136942314082,-9.12668691185e-05,-5.66606407632e-05,0.0,0.0,0.0,0.0,0.0,0.0,0.0,0.0,0.0
30362681248,1568,30360000000,honey/imu,1.74479605759e-05,1.70414222401e-05,0.707076352454,0.707137208189,-1.0,-1.0,-1.0,-1.0,-1.0,-1.0,-1.0,-1.0,-1.0,-2.45659279476e-05,4.41764697605e-05,-3.62913482998e-05,0.0,0.0,0.0,0.0,0.0,0.0,0.0,0.0,0.0,0.00473509114755,0.00332705620434,0.00175015622766,0.0,0.0,0.0,0.0,0.0,0.0,0.0,0.0,0.0
30382993537,1569,30376000000,honey/imu,1.70920013681e-05,1.71482289845e-05,0.70707613444,0.707137426191,-1.0,-1.0,-1.0,-1.0,-1.0,-1.0,-1.0,-1.0,-1.0,-2.66298951108e-05,4.46972373856e-05,-3.6089841222e-05,0.0,0.0,0.0,0.0,0.0,0.0,0.0,0.0,0.0,-1.46738329376e-05,-2.30598822335e-05,-1.25118600292e-05,0.0,0.0,0.0,0.0,0.0,0.0,0.0,0.0,0.0
30382993537,1570,30392000000,honey/imu,1.67502251317e-05,1.72822997553e-05,0.707075920248,0.707137640368,-1.0,-1.0,-1.0,-1.0,-1.0,-1.0,-1.0,-1.0,-1.0,-2.32003046928e-05,4.60961522046e-05,-3.51856299954e-05,0.0,0.0,0.0,0.0,0.0,0.0,0.0,0.0,0.0,-4.80650567632e-05,-5.86462887221e-05,-3.85579514627e-05,0.0,0.0,0.0,0.0,0.0,0.0,0.0,0.0,0.0
