%time,field.header.seq,field.header.stamp,field.header.frame_id,field.pose.pose.position.x,field.pose.pose.position.y,field.pose.pose.position.z,field.pose.pose.orientation.x,field.pose.pose.orientation.y,field.pose.pose.orientation.z,field.pose.pose.orientation.w,field.pose.covariance0,field.pose.covariance1,field.pose.covariance2,field.pose.covariance3,field.pose.covariance4,field.pose.covariance5,field.pose.covariance6,field.pose.covariance7,field.pose.covariance8,field.pose.covariance9,field.pose.covariance10,field.pose.covariance11,field.pose.covariance12,field.pose.covariance13,field.pose.covariance14,field.pose.covariance15,field.pose.covariance16,field.pose.covariance17,field.pose.covariance18,field.pose.covariance19,field.pose.covariance20,field.pose.covariance21,field.pose.covariance22,field.pose.covariance23,field.pose.covariance24,field.pose.covariance25,field.pose.covariance26,field.pose.covariance27,field.pose.covariance28,field.pose.covariance29,field.pose.covariance30,field.pose.covariance31,field.pose.covariance32,field.pose.covariance33,field.pose.covariance34,field.pose.covariance35
29330689418,0,0,honey/haz_cam,7.21919714124e-05,-2.00007772446,-0.000561284658033,-0.000106159575807,9.81941557257e-05,0.707004666328,0.707208871841,1.345034525e-05,5.57973077464e-11,4.35727356973e-11,1.94107527089e-14,4.63398042161e-10,-2.16068038461e-10,5.57973077464e-11,1.33665116664e-05,-1.82552417627e-09,-4.56337106991e-10,-6.20398676876e-10,1.40987438613e-07,4.35727356973e-11,-1.82552417627e-09,1.33778594318e-05,1.35969457915e-10,-2.51145610974e-08,3.04341418733e-09,1.94107527089e-14,-4.56337106991e-10,1.35969457915e-10,9.17438228498e-06,-2.39548485215e-12,2.02776601066e-10,4.63398042161e-10,-6.20398676876e-10,-2.51145610974e-08,-2.39548485215e-12,9.19661670196e-06,6.29066743141e-10,-2.16068038461e-10,1.40987438613e-07,3.04341418733e-09,2.02776601066e-10,6.29066743141e-10,4.49547660537e-05
30302252283,1,0,honey/haz_cam,0.000544602575246,-2.00018215179,-0.00238791061565,-0.000284541049041,0.000266656570602,0.706893026829,0.707320392132,2.24551276915e-05,2.09429570908e-10,1.57712856663e-10,-1.51443517015e-12,1.96651033235e-08,-5.2790483096e-09,2.09429570908e-10,2.21786121983e-05,-3.74319464314e-09,-1.8470448282e-08,-4.3948045203e-09,8.50005108077e-07,1.57712856663e-10,-3.74319464314e-09,2.22436719923e-05,4.49453629869e-09,-2.34584746295e-07,1.15228333541e-08,-1.51443517015e-12,-1.8470448282e-08,4.49453629869e-09,5.32576705154e-05,-6.36697472522e-10,-3.41860086905e-08,1.96651033235e-08,-4.3948045203e-09,-2.34584746295e-07,-6.36697472522e-10,5.49385658815e-05,1.12730793589e-08,-5.2790483096e-09,8.50005108077e-07,1.15228333541e-08,-3.41860086905e-08,1.12730793589e-08,0.000141669603181
31342299325,2,0,honey/haz_cam,0.00250606238842,-2.00036239624,-0.00781802181154,-0.00050105684204,0.000517274951562,0.706764757633,0.707448303699,3.46093438566e-05,7.24116877571e-10,6.7119365621e-10,-2.12872636185e-11,1.17767953611e-07,-4.07257232382e-08,7.24116877571e-10,3.39079015248e-05,-7.0975336719e-09,-9.08465551674e-08,-2.62777177795e-08,4.1080174924e-06,6.7119365621e-10,-7.0975336719e-09,3.41055601893e-05,3.02381764072e-08,-1.67790210526e-06,4.43728467303e-08,-2.12872636185e-11,-9.08465551674e-08,3.02381764072e-08,0.000209038247704,-6.31503453974e-08,-3.96842381178e-07,1.17767953611e-07,-2.62777177795e-08,-1.67790210526e-06,-6.31503453974e-08,0.000261085398961,1.68826019831e-07,-4.07257232382e-08,4.1080174924e-06,4.43728467303e-08,-3.96842381178e-07,1.68826019831e-07,0.000427493243478
32311995146,3,0,honey/haz_cam,0.00609353976324,-2.00043606758,-0.0168057028204,-0.000717613205779,0.00076209672261,0.706646203995,0.707566320896,4.35696383647e-05,1.74448677726e-09,1.85623461046e-09,-7.77893860437e-11,4.07701662652e-07,-1.60599157084e-07,1.74448677726e-09,4.23076307925e-05,-8.44163405844e-09,-2.65761514129e-07,-5.6907342838e-08,1.119816352e-05,1.85623461046e-09,-8.44163405844e-09,4.26963633799e-05,1.09162279216e-07,-5.35772096555e-06,7.89716310123e-08,-7.77893860437e-11,-2.65761514129e-07,1.09162279216e-07,0.000341787701473,-6.2419292135e-07,-2.48351852861e-06,4.07701662652e-07,-5.6907342838e-08,-5.35772096555e-06,-6.2419292135e-07,0.000587181653827,5.49885271539e-07,-1.60599157084e-07,1.119816352e-05,7.89716310123e-08,-2.48351852861e-06,5.49885271539e-07,0.000789295590948
33311807340,4,0,honey/haz_cam,0.0127587225288,-2.00018572807,-0.0320772901177,-0.000911967421416,0.000987351639196,0.706545114517,0.707666695118,5.45780421817e-05,3.60396623655e-09,4.50834658494e-09,-2.3479754252e-10,1.10056089397e-06,-4.67047613029e-07,3.60396623655e-09,5.26168951183e-05,-9.20456422193e-09,-6.57239866086e-07,-1.05150249397e-07,2.66841816483e-05,4.50834658494e-09,-9.20456422193e-09,5.32246849616e-05,3.01254544866e-07,-1.47270548041e-05,1.41365845252e-07,-2.3479754252e-10,-6.57239866086e-07,3.01254544866e-07,0.00044964265544,-3.7674737996e-06,-1.2216975847e-05,1.10056089397e-06,-1.05150249397e-07,-1.47270548041e-05,-3.7674737996e-06,0.00124084122945,1.65076039593e-06,-4.67047613029e-07,2.66841816483e-05,1.41365845252e-07,-1.2216975847e-05,1.65076039593e-06,0.00141962897032
34472644105,5,0,honey/haz_cam,0.0230729803443,-1.99928426743,-0.0537549704313,-0.00106996495742,0.00114178296644,0.706477403641,0.707733869553,6.76335184835e-05,6.61223564791e-09,9.77896341681e-09,-2.58005672382e-10,2.58404134001e-06,-1.15785655908e-06,6.61223564791e-09,6.49446592433e-05,-8.51648085387e-09,-1.7361232949e-06,-1.65740686953e-07,5.55934238946e-05,9.77896341681e-09,-8.51648085387e-09,6.57351556583e-05,7.95848905e-07,-3.49360561813e-05,2.21276863499e-07,-2.58005672382e-10,-1.7361232949e-06,7.95848905e-07,0.000490878242999,-1.54725785251e-05,-4.26720362157e-05,2.58404134001e-06,-1.65740686953e-07,-3.49360561813e-05,-1.54725785251e-05,0.00232653226703,4.20789592681e-06,-1.15785655908e-06,5.55934238946e-05,2.21276863499e-07,-4.26720362157e-05,4.20789592681e-06,0.00233812932856
35429727049,6,0,honey/haz_cam,0.0317428186536,-1.99815249443,-0.0708824023604,-0.00115494825877,0.00121922895778,0.70644146204,0.707769453526,7.64576325309e-05,9.72969171897e-09,1.59025397295e-08,1.03622492531e-10,4.38323741037e-06,-2.04376806323e-06,9.72969171897e-09,7.32687039999e-05,-6.37567953987e-09,-3.41418217431e-06,-1.66829437376e-07,8.5004590801e-05,1.59025397295e-08,-6.37567953987e-09,7.41535841371e-05,1.56534872531e-06,-5.76646489208e-05,2.21165237235e-07,1.03622492531e-10,-3.41418217431e-06,1.56534872531e-06,0.000444812321803,-3.01580566884e-05,-7.5619915151e-05,4.38323741037e-06,-1.66829437376e-07,-5.76646489208e-05,-3.01580566884e-05,0.0030153861735,4.97319524584e-06,-2.04376806323e-06,8.5004590801e-05,2.21165237235e-07,-7.5619915151e-05,4.97319524584e-06,0.00278707267717
36390874720,7,0,honey/haz_cam,0.0402576178312,-1.99683046341,-0.0868482589722,-0.00121844676323,0.00126508029643,0.706417441368,0.707793295383,8.66953705554e-05,1.28899824148e-08,2.28192114093e-08,1.20382881441e-09,6.6094835347e-06,-3.1830008993e-06,1.28899824148e-08,8.31284851301e-05,-4.33520375154e-09,-5.80342930334e-06,-1.69297834418e-07,0.000119603144412,2.28192114093e-08,-4.33520375154e-09,8.40655702632e-05,2.6823108783e-06,-8.65884503582e-05,2.30767554399e-07,1.20382881441e-09,-5.80342930334e-06,2.6823108783e-06,0.000425351579906,-5.11774742336e-05,-0.000118122014101,6.6094835347e-06,-1.69297834418e-07,-8.65884503582e-05,-5.11774742336e-05,0.00377628346905,4.49278923043e-06,-3.1830008993e-06,0.000119603144412,2.30767554399e-07,-0.000118122014101,4.49278923043e-06,0.00326246162876
37493729104,8,0,honey/haz_cam,0.0472123995423,-1.99553573132,-0.0996602103114,-0.00126540742349,0.00129825354088,0.706402480602,0.707808077335,9.77793897619e-05,1.54474797398e-08,2.92614998898e-08,2.40170416888e-09,9.08895071916e-06,-4.47075353804e-06,1.54474797398e-08,9.3920622021e-05,-1.27067367739e-09,-8.74885790836e-06,-2.00107407977e-07,0.000156573849381,2.92614998898e-08,-1.27067367739e-09,9.48993474594e-05,4.09280573876e-06,-0.000119366821309,2.56165577639e-07,2.40170416888e-09,-8.74885790836e-06,4.09280573876e-06,0.000410894339439,-7.60293551139e-05,-0.000163514763699,9.08895071916e-06,-2.00107407977e-07,-0.000119366821309,-7.60293551139e-05,0.00445402413607,3.66834819943e-06,-4.47075353804e-06,0.000156573849381,2.56165577639e-07,-0.000163514763699,3.66834819943e-06,0.00366975879297
38468854908,9,0,honey/haz_cam,0.052148360759,-1.99446022511,-0.108987003565,-0.00130664987955,0.00134096073452,0.706390023232,0.707820296288,0.000110130487883,1.65873537128e-08,3.38961676505e-08,3.36082295327e-09,1.17650415632e-05,-5.83386281505e-06,1.65873537128e-08,0.000105992832687,3.16618353757e-09,-1.21354014482e-05,-2.58409414755e-07,0.000195401109522,3.38961676505e-08,3.16618353757e-09,0.00010703564476,5.72347698835e-06,-0.000155040150275,3.04376015947e-07,3.36082295327e-09,-1.21354014482e-05,5.72347698835e-06,0.000401749130106,-0.000102058969787,-0.000208793455386,1.17650415632e-05,-2.58409414755e-07,-0.000155040150275,-0.000102058969787,0.00503417802975,1.75428840521e-06,-5.83386281505e-06,0.000195401109522,3.04376015947e-07,-0.000208793455386,1.75428840521e-06,0.00403497321531
39376975158,10,0,honey/haz_cam,0.0550086647272,-1.99370014668,-0.114944085479,-0.00137306691613,0.00140498660039,0.706372320652,0.707837760448,0.000124243742903,1.54389994123e-08,3.51282807287e-08,3.12773829059e-09,1.46577212945e-05,-7.23807579561e-06,1.54389994123e-08,0.000119767071737,8.96711149778e-09,-1.58691946126e-05,-3.11981352752e-07,0.000236256440985,3.51282807287e-08,8.96711149778e-09,0.000120916753076,7.50329627408e-06,-0.000193218293134,3.59523113502e-07,3.12773829059e-09,-1.58691946126e-05,7.50329627408e-06,0.000398013595259,-0.00012723520922,-0.000252323807217,1.46577212945e-05,-3.11981352752e-07,-0.000193218293134,-0.00012723520922,0.00552398152649,4.44146934342e-07,-7.23807579561e-06,0.000236256440985,3.59523113502e-07,-0.000252323807217,4.44146934342e-07,0.00438704155385
40456900413,11,0,honey/haz_cam,0.0560397990048,-1.99326062202,-0.11766666919,-0.00147131760605,0.00150195264723,0.70634073019,0.707868874073,0.000141526194056,1.1036529024e-08,3.18602921823e-08,2.2070802963e-09,1.79849303095e-05,-8.79736853676e-06,1.1036529024e-08,0.000136562244734,1.44355825071e-08,-2.01399579964e-05,-3.40240490004e-07,0.000281760818325,3.18602921823e-08,1.44355825071e-08,0.000137878552778,9.51251058723e-06,-0.000236039617448,3.92976176045e-07,2.2070802963e-09,-2.01399579964e-05,9.51251058723e-06,0.00040419283323,-0.000152834429173,-0.00029858131893,1.79849303095e-05,-3.40240490004e-07,-0.000236039617448,-0.000152834429173,0.00601111259311,-2.08437889171e-08,-8.79736853676e-06,0.000281760818325,3.92976176045e-07,-0.00029858131893,-2.08437889171e-08,0.00481089344248
41386799696,12,0,honey/haz_cam,0.0539786592126,-1.99349462986,-0.114422276616,-0.0015566861257,0.00157704134472,0.70631146431,0.707897782326,0.000153716086061,6.25487617256e-09,2.64520192417e-08,5.32447641532e-10,1.9161920136e-05,-9.21077844396e-06,6.25487617256e-09,0.000148353748955,1.59604276462e-08,-2.15312738874e-05,-3.02943021779e-07,0.000308792805299,2.64520192417e-08,1.59604276462e-08,0.0001498072088,1.00879988167e-05,-0.000262410379946,3.43078738752e-07,5.32447641532e-10,-2.15312738874e-05,1.00879988167e-05,0.000371318194084,-0.000145629019244,-0.000285613146843,1.9161920136e-05,-3.02943021779e-07,-0.000262410379946,-0.000145629019244,0.00575045356527,-8.21420428565e-07,-9.21077844396e-06,0.000308792805299,3.43078738752e-07,-0.000285613146843,-8.21420428565e-07,0.004623580724
42377995713,13,0,honey/haz_cam,0.0522423684597,-1.99370706081,-0.111656412482,-0.0016491325805,0.00165736232884,0.706261575222,0.707947134972,0.000168556463905,1.02188613127e-09,2.01307077674e-08,-6.71677935493e-10,2.09953068406e-05,-9.99300755211e-06,1.02188613127e-09,0.000162687327247,1.59025841384e-08,-2.36119612964e-05,-2.6708133305e-07,0.000341383944033,2.01307077674e-08,1.59025841384e-08,0.000164301527548,1.10226583274e-05,-0.000293940363917,3.18131412769e-07,-6.71677935493e-10,-2.36119612964e-05,1.10226583274e-05,0.000366196065443,-0.000144170218846,-0.000284476845991,2.09953068406e-05,-2.6708133305e-07,-0.000293940363917,-0.000144170218846,0.00574423139915,-1.1306980241e-06,-9.99300755211e-06,0.000341383944033,3.18131412769e-07,-0.000284476845991,-1.1306980241e-06,0.00467732874677
43466438984,14,0,honey/haz_cam,0.0501635335386,-1.99400568008,-0.108069546521,-0.00174563145265,0.00173943722621,0.706197142601,0.708010971546,0.000185843658983,-3.92093735258e-09,1.40232643275e-08,-6.76843081582e-10,2.30432488024e-05,-1.09250859168e-05,-3.92093735258e-09,0.000179361581104,1.48401850808e-08,-2.58079617197e-05,-2.44009811468e-07,0.000377425370971,1.40232643275e-08,1.48401850808e-08,0.00018115369312,1.20427412185e-05,-0.000329057103954,2.90010916615e-07,-6.76843081582e-10,-2.58079617197e-05,1.20427412185e-05,0.000373614107957,-0.000144737103255,-0.00028775818646,2.30432488024e-05,-2.44009811468e-07,-0.000329057103954,-0.000144737103255,0.00584367336705,-9.3668018053e-07,-1.09250859168e-05,0.000377425370971,2.90010916615e-07,-0.00028775818646,-9.3668018053e-07,0.00484798196703
44385150728,15,0,honey/haz_cam,0.0475085116923,-1.99444234371,-0.103340871632,-0.00182274100371,0.00181059748866,0.706144988537,0.708062648773,0.000200013804715,-7.00548818955e-09,9.86300374706e-09,-2.31753005675e-10,2.39574746956e-05,-1.12744828584e-05,-7.00548818955e-09,0.000193002852029,1.40896174727e-08,-2.63721030933e-05,-2.4011012556e-07,0.000402762118028,9.86300374706e-09,1.40896174727e-08,0.000194937703782,1.22577639559e-05,-0.000354309013346,2.56315757952e-07,-2.31753005675e-10,-2.63721030933e-05,1.22577639559e-05,0.000359632569598,-0.000133234731038,-0.000267895491561,2.39574746956e-05,-2.4011012556e-07,-0.000354309013346,-0.000133234731038,0.00561807164922,-1.48213632656e-06,-1.12744828584e-05,0.000402762118028,2.56315757952e-07,-0.000267895491561,-1.48213632656e-06,0.00471686152741
45494620308,16,0,honey/haz_cam,0.0450926236808,-1.99486577511,-0.0988039150834,-0.00191610236652,0.00190397608094,0.706093490124,0.70811355114,0.000220125497435,-8.66517169129e-09,9.06970232251e-09,1.11805475989e-09,2.5951931093e-05,-1.22028823171e-05,-8.66517169129e-09,0.000212423314224,1.50586920711e-08,-2.80327221844e-05,-2.44151976858e-07,0.000441061682068,9.06970232251e-09,1.50586920711e-08,0.000214528365177,1.30335829454e-05,-0.000392375281081,2.2912338693e-07,1.11805475989e-09,-2.80327221844e-05,1.30335829454e-05,0.00038014902384,-0.000133172827191,-0.000271332188277,2.5951931093e-05,-2.44151976858e-07,-0.000392375281081,-0.000133172827191,0.00581115717068,-1.23699976484e-06,-1.22028823171e-05,0.000441061682068,2.2912338693e-07,-0.000271332188277,-1.23699976484e-06,0.00499126221985
46343027211,17,0,honey/haz_cam,0.0426123999059,-1.99531424046,-0.0942618474364,-0.00197488605045,0.00197704113089,0.706058561802,0.70814794302,0.000234870269196,-8.51979997663e-09,1.08117239606e-08,2.57786414437e-09,2.65797189059e-05,-1.2407936083e-05,-8.51979997663e-09,0.000226652933634,1.69555640639e-08,-2.79001778836e-05,-2.37322197449e-07,0.000464520504465,1.08117239606e-08,1.69555640639e-08,0.000228875302128,1.2884384887e-05,-0.000416101713199,2.04519523095e-07,2.57786414437e-09,-2.79001778836e-05,1.2884384887e-05,0.00036269982229,-0.000119772303151,-0.000247761694482,2.65797189059e-05,-2.37322197449e-07,-0.000416101713199,-0.000119772303151,0.0055409190245,-1.15991122129e-06,-1.2407936083e-05,0.000464520504465,2.04519523095e-07,-0.000247761694482,-1.15991122129e-06,0.00480439281091
47394195238,18,0,honey/haz_cam,0.0401037707925,-1.9958101511,-0.0895770639181,-0.00204614805989,0.00207606772892,0.70601785183,0.708187997341,0.000258602696704,-6.37786312652e-09,1.72476983806e-08,3.95340560289e-09,2.8540733183e-05,-1.33195835588e-05,-6.37786312652e-09,0.000249663717113,2.14493773854e-08,-2.89063627861e-05,-2.10714020454e-07,0.000507125398144,1.72476983806e-08,2.14493773854e-08,0.000252045370871,1.33337598527e-05,-0.00045896609663,1.87085717585e-07,3.95340560289e-09,-2.89063627861e-05,1.33337598527e-05,0.00039331271546,-0.0001203886859,-0.00025321348221,2.8540733183e-05,-2.10714020454e-07,-0.00045896609663,-0.0001203886859,0.00585807301104,8.45593888243e-07,-1.33195835588e-05,0.000507125398144,1.87085717585e-07,-0.00025321348221,8.45593888243e-07,0.00520133879036
48353086964,19,0,honey/haz_cam,0.0377136133611,-1.99626088142,-0.0851242467761,-0.00209761760198,0.00216468190774,0.705984771252,0.708220601082,0.000282248918666,-2.49442200229e-09,2.72505271681e-08,6.18756823556e-09,2.99730363622e-05,-1.38905434142e-05,-2.49442200229e-09,0.000272635341389,2.64993786914e-08,-2.913330718e-05,-1.94602804982e-07,0.00054692523554,2.72505271681e-08,2.64993786914e-08,0.000275159953162,1.3327349734e-05,-0.000498939247336,1.62947671356e-07,6.18756823556e-09,-2.913330718e-05,1.3327349734e-05,0.000401179248001,-0.00011519423424,-0.000247007439611,2.99730363622e-05,-1.94602804982e-07,-0.000498939247336,-0.00011519423424,0.00598142575473,1.50984863012e-06,-1.38905434142e-05,0.00054692523554,1.62947671356e-07,-0.000247007439611,1.50984863012e-06,0.0053998385556
49372881903,20,0,honey/haz_cam,0.0356041193008,-1.99666893482,-0.0812518671155,-0.0021433532238,0.00224402616732,0.705943882465,0.708260953426,0.000308008136926,2.07786921003e-09,3.88514678207e-08,9.42180289343e-09,3.13723176077e-05,-1.44635623656e-05,2.07786921003e-09,0.000297715218039,3.12901775601e-08,-2.92760523735e-05,-1.73704478357e-07,0.000590055133216,3.88514678207e-08,3.12901775601e-08,0.000300386949675,1.32774894155e-05,-0.000541991845239,1.16823777319e-07,9.42180289343e-09,-2.92760523735e-05,1.32774894155e-05,0.000407472689403,-0.000109983375296,-0.000240030756686,3.13723176077e-05,-1.73704478357e-07,-0.000541991845239,-0.000109983375296,0.00610880879685,2.09101290238e-06,-1.44635623656e-05,0.000590055133216,1.16823777319e-07,-0.000240030756686,2.09101290238e-06,0.00559204630554
50331793110,21,0,honey/haz_cam,0.0340012423694,-1.99700379372,-0.0783770829439,-0.0022028114181,0.0023138737306,0.705909490585,0.708294868469,0.000334196782205,5.88072213148e-09,4.98651928638e-08,1.31408235404e-08,3.28559654008e-05,-1.50317746375e-05,5.88072213148e-09,0.000323251384543,3.52101920953e-08,-2.96678826999e-05,-1.47557344121e-07,0.000634012452792,4.98651928638e-08,3.52101920953e-08,0.000326071749441,1.32884797495e-05,-0.000585481117014,6.42925854777e-08,1.31408235404e-08,-2.96678826999e-05,1.32884797495e-05,0.000406955659855,-0.000104196915345,-0.000231686615734,3.28559654008e-05,-1.47557344121e-07,-0.000585481117014,-0.000104196915345,0.00615633558482,2.54241467701e-06,-1.50317746375e-05,0.000634012452792,6.42925854777e-08,-0.000231686615734,2.54241467701e-06,0.00569040467963
51342023593,22,0,honey/haz_cam,0.0329865515232,-1.99718213081,-0.0767901092768,-0.00225328747183,0.00237120129168,0.705881297588,0.708322584629,0.000356986129191,8.08976352573e-09,5.80844918829e-08,1.43380809448e-08,3.43652063748e-05,-1.55905891006e-05,8.08976352573e-09,0.000345490232576,3.789631009e-08,-3.05212124658e-05,-1.2042683295e-07,0.000672432826832,5.80844918829e-08,3.789631009e-08,0.000348442204995,1.35412401505e-05,-0.000623072555754,2.98269391408e-08,1.43380809448e-08,-3.05212124658e-05,1.35412401505e-05,0.000391895213397,-9.74342983682e-05,-0.000219812980504,3.43652063748e-05,-1.2042683295e-07,-0.000623072555754,-9.74342983682e-05,0.00599264958873,2.03018112188e-06,-1.55905891006e-05,0.000672432826832,2.98269391408e-08,-0.000219812980504,2.03018112188e-06,0.00555845629424
52363351778,23,0,honey/haz_cam,0.0319520682096,-1.9973410368,-0.0749748200178,-0.00232695136219,0.00243618921377,0.705845296383,0.708358049393,0.000386945495848,9.2760057413e-09,6.49472369219e-08,1.88167632587e-08,3.61855818483e-05,-1.63255917869e-05,9.2760057413e-09,0.000374737253878,4.07953493209e-08,-3.15257493639e-05,-8.75422756508e-08,0.00072481384268,6.49472369219e-08,4.07953493209e-08,0.000377870193915,1.38226396302e-05,-0.000674444541801,-3.35017240616e-08,1.88167632587e-08,-3.15257493639e-05,1.38226396302e-05,0.00040814690874,-9.74821741693e-05,-0.000223029448534,3.61855818483e-05,-8.75422756508e-08,-0.000674444541801,-9.74821741693e-05,0.00622655497864,2.58772797679e-06,-1.63255917869e-05,0.00072481384268,-3.35017240616e-08,-0.000223029448534,2.58772797679e-06,0.00582491885871
53371473925,24,0,honey/haz_cam,0.0316320508718,-1.99733495712,-0.0746289268136,-0.00238673039712,0.00248793815263,0.705819129944,0.70838367939,0.000411326211179,8.70878302806e-09,6.88699870466e-08,1.90923667986e-08,3.82225152862e-05,-1.71550109371e-05,8.70878302806e-09,0.000398540141759,4.27456683383e-08,-3.33591633535e-05,-6.38234141093e-08,0.000768194731791,6.88699870466e-08,4.27456683383e-08,0.000401823985158,1.45623353092e-05,-0.000716459413525,-5.63915776297e-08,1.90923667986e-08,-3.33591633535e-05,1.45623353092e-05,0.000392489921069,-9.47724547586e-05,-0.000218325891183,3.82225152862e-05,-6.38234141093e-08,-0.000716459413525,-9.47724547586e-05,0.00610719900578,2.21500090447e-06,-1.71550109371e-05,0.000768194731791,-5.63915776297e-08,-0.000218325891183,2.21500090447e-06,0.00571764493361
54353706545,25,0,honey/haz_cam,0.0314225293696,-1.99730861187,-0.0743065327406,-0.00246265134774,0.00253183720633,0.705810964108,0.708391427994,0.000439161754912,6.56507559427e-09,7.15741066415e-08,1.99521927868e-08,4.04117927246e-05,-1.79656526598e-05,6.56507559427e-09,0.000425713631557,4.48278392184e-08,-3.53376999556e-05,-4.38642366873e-08,0.000818662403617,7.15741066415e-08,4.48278392184e-08,0.000429173378507,1.52699103637e-05,-0.000765442266129,-8.90201050652e-08,1.99521927868e-08,-3.53376999556e-05,1.52699103637e-05,0.000395407580072,-9.5650786534e-05,-0.000222549933824,4.04117927246e-05,-4.38642366873e-08,-0.000765442266129,-9.5650786534e-05,0.00620364863425,2.34411072597e-06,-1.79656526598e-05,0.000818662403617,-8.90201050652e-08,-0.000222549933824,2.34411072597e-06,0.00582625437528
55378871410,26,0,honey/haz_cam,0.0314713008702,-1.9972537756,-0.0743083432317,-0.00254646618851,0.00257478607818,0.70580470562,0.708397209644,0.000469992082799,3.79540132656e-09,7.33586915658e-08,2.20593499023e-08,4.29304127465e-05,-1.90061691683e-05,3.79540132656e-09,0.000455808098195,4.71149199655e-08,-3.78302029276e-05,-2.9564150239e-08,0.000875635712873,7.33586915658e-08,4.71149199655e-08,0.000459464004962,1.62634023582e-05,-0.000820679124445,-1.20875441212e-07,2.20593499023e-08,-3.78302029276e-05,1.62634023582e-05,0.000402951496653,-9.9260956631e-05,-0.000232183592743,4.29304127465e-05,-2.9564150239e-08,-0.000820679124445,-9.9260956631e-05,0.006409607362,2.33405967265e-06,-1.90061691683e-05,0.000875635712873,-1.20875441212e-07,-0.000232183592743,2.33405967265e-06,0.00603794213384
56350704699,27,0,honey/haz_cam,0.0316264107823,-1.99717795849,-0.0747369006276,-0.00261151674204,0.00261666649021,0.7057736516,0.708427727222,0.000500347290654,1.63408797604e-09,7.44735260128e-08,1.97682012981e-08,4.57240239484e-05,-2.02181799978e-05,1.63408797604e-09,0.000485437223688,4.9074667885e-08,-4.09220556321e-05,-1.80527184312e-08,0.000932956580073,7.44735260128e-08,4.9074667885e-08,0.000489285739604,1.76570429176e-05,-0.000876135251019,-1.22297265648e-07,1.97682012981e-08,-4.09220556321e-05,1.76570429176e-05,0.00040109542897,-0.000103381018562,-0.000240841196501,4.57240239484e-05,-1.80527184312e-08,-0.000876135251019,-0.000103381018562,0.0065293982625,1.856000722e-06,-2.02181799978e-05,0.000932956580073,-1.22297265648e-07,-0.000240841196501,1.856000722e-06,0.00615579914302
57312783608,28,0,honey/haz_cam,0.0319329723716,-1.99708724022,-0.0754588246346,-0.00266717560589,0.00269159744494,0.705722630024,0.708478093147,0.000534629332833,4.63879684665e-10,7.65593028973e-08,2.08761665732e-08,4.89100675622e-05,-2.16841017391e-05,4.63879684665e-10,0.000518903252669,5.18353537871e-08,-4.4434244046e-05,5.77695358217e-09,0.000998408184387,7.65593028973e-08,5.18353537871e-08,0.000522966671269,1.92286242964e-05,-0.000939580320846,-1.37443961989e-07,2.08761665732e-08,-4.4434244046e-05,1.92286242964e-05,0.000408765801694,-0.000110450782813,-0.00025558975176,4.89100675622e-05,5.77695358217e-09,-0.000939580320846,-0.000110450782813,0.00678722700104,1.81766790774e-06,-2.16841017391e-05,0.000998408184387,-1.37443961989e-07,-0.00025558975176,1.81766790774e-06,0.00640662480146
58363468322,29,0,honey/haz_cam,0.032392654568,-1.99700450897,-0.0761074274778,-0.00271895015612,0.00277041271329,0.705673396587,0.708526611328,0.000572340039071,-4.58635740497e-10,7.92195393728e-08,2.64943125217e-08,5.26130097569e-05,-2.35364605032e-05,-4.58635740497e-10,0.000555722508579,5.42973914719e-08,-4.87204597448e-05,4.39291447663e-08,0.00107128219679,7.92195393728e-08,5.42973914719e-08,0.000560018175747,2.12257164094e-05,-0.00101034669206,-1.31136971504e-07,2.64943125217e-08,-4.87204597448e-05,2.12257164094e-05,0.000417596078478,-0.000119545678899,-0.000274289399385,5.26130097569e-05,4.39291447663e-08,-0.00101034669206,-0.000119545678899,0.0070981560275,1.2376937093e-06,-2.35364605032e-05,0.00107128219679,-1.31136971504e-07,-0.000274289399385,1.2376937093e-06,0.00670495629311
59366611874,30,0,honey/haz_cam,0.0327614955604,-1.99693357944,-0.0769563242793,-0.00277352123521,0.00283749657683,0.705628037453,0.708571255207,0.000604839704465,-9.11347386445e-10,8.24754096129e-08,2.56524987918e-08,5.61787601328e-05,-2.52661156992e-05,-9.11347386445e-10,0.000587458198424,5.60626887136e-08,-5.28972232132e-05,4.19106420679e-08,0.00113524461631,8.24754096129e-08,5.60626887136e-08,0.000591952179093,2.32482416322e-05,-0.00107244437095,-1.26864051708e-07,2.56524987918e-08,-5.28972232132e-05,2.32482416322e-05,0.000404380029067,-0.000123365141917,-0.00028046630905,5.61787601328e-05,4.19106420679e-08,-0.00107244437095,-0.000123365141917,0.00708638411015,1.54067919311e-07,-2.52661156992e-05,0.00113524461631,-1.26864051708e-07,-0.00028046630905,1.54067919311e-07,0.00668051792309
60377170805,31,0,honey/haz_cam,0.0330371782184,-1.99686050415,-0.0776657909155,-0.00285276630893,0.002924147062,0.705573916435,0.708624541759,0.000643981620669,-1.1547897083e-09,8.75461481087e-08,2.41382238642e-08,6.03746193519e-05,-2.71453827736e-05,-1.1547897083e-09,0.000625690212473,5.8121045754e-08,-5.75933263463e-05,6.28583975981e-08,0.00121192308143,8.75461481087e-08,5.8121045754e-08,0.000630419526715,2.53594662354e-05,-0.00114713551011,-1.62166003292e-07,2.41382238642e-08,-5.75933263463e-05,2.53594662354e-05,0.000415640708525,-0.000132196000777,-0.000299043633277,6.03746193519e-05,6.28583975981e-08,-0.00114713551011,-0.000132196000777,0.00737029034644,3.30476439103e-07,-2.71453827736e-05,0.00121192308143,-1.62166003292e-07,-0.000299043633277,3.30476439103e-07,0.00695504574105
61385547750,32,0,honey/haz_cam,0.0331618413329,-1.99682867527,-0.0781112015247,-0.00291681382805,0.00299228890799,0.705545246601,0.708652555943,0.000674113631248,-1.08098863194e-09,9.2374200733e-08,1.94531537545e-08,6.38581768726e-05,-2.85145906673e-05,-1.08098863194e-09,0.000655125302728,5.9321532575e-08,-6.15531680523e-05,4.10438474319e-08,0.00127181096468,9.2374200733e-08,5.9321532575e-08,0.000660034362227,2.70463933703e-05,-0.00120552757289,-1.37346916063e-07,1.94531537545e-08,-6.15531680523e-05,2.70463933703e-05,0.000395125563955,-0.000131685374072,-0.000298206112348,6.38581768726e-05,4.10438474319e-08,-0.00120552757289,-0.000131685374072,0.00721793062985,-9.43201314385e-07,-2.85145906673e-05,0.00127181096468,-1.37346916063e-07,-0.000298206112348,-9.43201314385e-07,0.00679597305134
62353680842,33,0,honey/haz_cam,0.0332346335053,-1.99679911137,-0.0784621611238,-0.00297524873167,0.00306250876747,0.70551520586,0.708681881428,0.000704044534359,-1.38140188177e-09,9.66207736042e-08,1.71877090338e-08,6.70580484439e-05,-2.98490467685e-05,-1.38140188177e-09,0.000684368831571,5.96366476202e-08,-6.51058289804e-05,1.78082188995e-08,0.00133104308043,9.66207736042e-08,5.96366476202e-08,0.000689454143867,2.85821570287e-05,-0.00126336631365,-1.83970740864e-07,1.71877090338e-08,-6.51058289804e-05,2.85821570287e-05,0.00038651668001,-0.000132281900733,-0.00029964116402,6.70580484439e-05,1.78082188995e-08,-0.00126336631365,-0.000132281900733,0.0071648908779,-1.35486129693e-06,-2.98490467685e-05,0.00133104308043,-1.83970740864e-07,-0.00029964116402,-1.35486129693e-06,0.00673814723268
63362966767,34,0,honey/haz_cam,0.033231779933,-1.9967828989,-0.0785537660122,-0.00304649630561,0.00313834520057,0.70548504591,0.708711266518,0.000744337332435,-1.09373954338e-09,1.03151293729e-07,1.55991681794e-08,7.12326582288e-05,-3.15604011121e-05,-1.09373954338e-09,0.000723742763512,6.12525710153e-08,-6.97225186741e-05,2.53115022275e-08,0.00141015730333,1.03151293729e-07,6.12525710153e-08,0.000729065272026,3.05289977405e-05,-0.00134085805621,-1.90592729155e-07,1.55991681794e-08,-6.97225186741e-05,3.05289977405e-05,0.000409269036027,-0.00014147622278,-0.000321091065416,7.12326582288e-05,2.53115022275e-08,-0.00134085805621,-0.00014147622278,0.00755859958008,-1.81426594281e-06,-3.15604011121e-05,0.00141015730333,-1.90592729155e-07,-0.000321091065416,-1.81426594281e-06,0.00712686916813
64371894920,35,0,honey/haz_cam,0.0332244113088,-1.99678122997,-0.0784856751561,-0.00312269758433,0.00320575246587,0.70547491312,0.708720743656,0.000784802832641,-2.2031272362e-09,1.09568098594e-07,1.38736595545e-08,7.53092754167e-05,-3.31554947479e-05,-2.2031272362e-09,0.000763290328905,6.27264711284e-08,-7.40418909118e-05,2.61388848344e-08,0.00148970377631,1.09568098594e-07,6.27264711284e-08,0.000768850324675,3.22797204717e-05,-0.00141895085108,-1.83629452977e-07,1.38736595545e-08,-7.40418909118e-05,3.22797204717e-05,0.000415072514443,-0.000147500657476,-0.000336326105753,7.53092754167e-05,2.61388848344e-08,-0.00141895085108,-0.000147500657476,0.0078317085281,-2.3665113531e-06,-3.31554947479e-05,0.00148970377631,-1.83629452977e-07,-0.000336326105753,-2.3665113531e-06,0.00739759486169
65430871515,36,0,honey/haz_cam,0.0331918895245,-1.99677932262,-0.0782675594091,-0.00319523504004,0.00323865865357,0.705454707146,0.708740472794,0.000823506677989,-2.31225172342e-09,1.14874126211e-07,9.40879729683e-09,7.90737103671e-05,-3.48329704138e-05,-2.31225172342e-09,0.000801119196694,6.3091015079e-08,-7.7871067333e-05,1.2247713066e-08,0.00156568887178,1.14874126211e-07,6.3091015079e-08,0.000806905387435,3.40710939781e-05,-0.00149363907985,-2.03793462106e-07,9.40879729683e-09,-7.7871067333e-05,3.40710939781e-05,0.000409858243074,-0.000150900741573,-0.000343360705301,7.90737103671e-05,1.2247713066e-08,-0.00149363907985,-0.000150900741573,0.0079532591626,-2.67176505986e-06,-3.48329704138e-05,0.00156568887178,-2.03793462106e-07,-0.000343360705301,-2.67176505986e-06,0.00752094062045
66391047396,37,0,honey/haz_cam,0.0331788733602,-1.99678707123,-0.0779899507761,-0.00323908473365,0.00325505505316,0.705430090427,0.708764672279,0.000853601901326,-1.52137613618e-09,1.18912581115e-07,7.35169658483e-09,8.18611879367e-05,-3.61939128197e-05,-1.52137613618e-09,0.000830535835121,6.30885637065e-08,-8.06106399978e-05,-1.99561096537e-08,0.00162475358229,1.18912581115e-07,6.30885637065e-08,0.000836497696582,3.54536459781e-05,-0.00155180145521,-1.89399557371e-07,7.35169658483e-09,-8.06106399978e-05,3.54536459781e-05,0.000386215309845,-0.000147715007188,-0.000334606185788,8.18611879367e-05,-1.99561096537e-08,-0.00155180145521,-0.000147715007188,0.00775582203642,-3.26325607602e-06,-3.61939128197e-05,0.00162475358229,-1.89399557371e-07,-0.000334606185788,-3.26325607602e-06,0.00732738291845
67348468571,38,0,honey/haz_cam,0.0331717804074,-1.99680149555,-0.077719271183,-0.00328278611414,0.00330295343883,0.705404877663,0.708789288998,0.000890989846084,-1.06629494123e-09,1.24122081502e-07,5.75222358634e-09,8.54655809235e-05,-3.79509656341e-05,-1.06629494123e-09,0.000867083203048,6.34949657297e-08,-8.41966466396e-05,-2.051444703e-08,0.00169783388264,1.24122081502e-07,6.34949657297e-08,0.00087326252833,3.72288996004e-05,-0.00162378093228,-2.18993449153e-07,5.75222358634e-09,-8.41966466396e-05,3.72288996004e-05,0.000393995054765,-0.000152107095346,-0.000342808576534,8.54655809235e-05,-2.051444703e-08,-0.00162378093228,-0.000152107095346,0.0079288976267,-3.23910512634e-06,-3.79509656341e-05,0.00169783388264,-2.18993449153e-07,-0.000342808576534,-3.23910512634e-06,0.00750383781269
68337376948,39,0,honey/haz_cam,0.0331020206213,-1.99682807922,-0.0773786082864,-0.00332255335525,0.0033576185815,0.705377578735,0.708816051483,0.000928168650717,-8.37427419076e-11,1.29504314827e-07,3.54298546057e-09,8.90652372618e-05,-3.96641589759e-05,-8.37427419076e-11,0.000903428997844,6.45064446303e-08,-8.76828926266e-05,-3.66185588518e-08,0.00177036493551,1.29504314827e-07,6.45064446303e-08,0.000909823982511,3.89377237298e-05,-0.00169528881088,-2.17298662619e-07,3.54298546057e-09,-8.76828926266e-05,3.89377237298e-05,0.000395982176997,-0.000155631059897,-0.00034929663525,8.90652372618e-05,-3.66185588518e-08,-0.00169528881088,-0.000155631059897,0.00806383788586,-3.85973044104e-06,-3.96641589759e-05,0.00177036493551,-2.17298662619e-07,-0.00034929663525,-3.85973044104e-06,0.00764366798103
69407960824,40,0,honey/haz_cam,0.0329435095191,-1.99686539173,-0.0769586786628,-0.00338635523804,0.00344039686024,0.705344796181,0.708847939968,0.000977201736532,1.65117119977e-09,1.3767673579e-07,-1.06323594373e-09,9.38888115343e-05,-4.19066964241e-05,1.65117119977e-09,0.000951365102082,6.50148024306e-08,-9.23762272578e-05,4.15160261724e-09,0.0018656993052,1.3767673579e-07,6.50148024306e-08,0.000958044256549,4.12114386563e-05,-0.00178935867734,-2.88393636083e-07,-1.06323594373e-09,-9.23762272578e-05,4.12114386563e-05,0.000420827214839,-0.00016714000958,-0.000373357674107,9.38888115343e-05,4.15160261724e-09,-0.00178935867734,-0.00016714000958,0.0085739037022,-3.23919903167e-06,-4.19066964241e-05,0.0018656993052,-2.88393636083e-07,-0.000373357674107,-3.23919903167e-06,0.00815889053047
70355969719,41,0,honey/haz_cam,0.0327462553978,-1.99690854549,-0.0766003802419,-0.00343141658232,0.00349040515721,0.705321848392,0.708870351315,0.00100988696795,3.34409966385e-09,1.43498738225e-07,-2.82798606754e-09,9.70009787125e-05,-4.30846994277e-05,3.34409966385e-09,0.000983321922831,6.52841194437e-08,-9.52270856942e-05,-2.11371400383e-08,0.00192911585327,1.43498738225e-07,6.52841194437e-08,0.000990189844742,4.23148885602e-05,-0.00185201247223,-2.62364892478e-07,-2.82798606754e-09,-9.52270856942e-05,4.23148885602e-05,0.000391683948692,-0.000162690281286,-0.000364443898434,9.70009787125e-05,-2.11371400383e-08,-0.00185201247223,-0.000162690281286,0.00836948864162,-3.81283985007e-06,-4.30846994277e-05,0.00192911585327,-2.62364892478e-07,-0.000364443898434,-3.81283985007e-06,0.00796179845929
71345319141,42,0,honey/haz_cam,0.0324446894228,-1.99697506428,-0.0761582553387,-0.0034989444539,0.00355596491136,0.705297768116,0.708893597126,0.00105253071524,5.9659490681e-09,1.52042019863e-07,-6.6574057378e-09,0.000101175275631,-4.46851117886e-05,5.9659490681e-09,0.00102501816582,6.58792984609e-08,-9.92389759631e-05,-1.24846328831e-08,0.00201185815968,1.52042019863e-07,6.58792984609e-08,0.00103213218972,4.3927502702e-05,-0.00193376955576,-2.68207571708e-07,-6.6574057378e-09,-9.92389759631e-05,4.3927502702e-05,0.000401029683417,-0.000167099569808,-0.000375734642148,0.000101175275631,-1.24846328831e-08,-0.00193376955576,-0.000167099569808,0.00860648695379,-3.77182777811e-06,-4.46851117886e-05,0.00201185815968,-2.68207571708e-07,-0.000375734642148,-3.77182777811e-06,0.00820500776172
72344338441,43,0,honey/haz_cam,0.0321069844067,-1.99702882767,-0.0756656527519,-0.0035786239896,0.00362227647565,0.705264747143,0.70892572403,0.00110032630619,9.48812317603e-09,1.6188496943e-07,-1.11871436559e-08,0.000105714556412,-4.64342774649e-05,9.48812317603e-09,0.00107175495941,6.63053398853e-08,-0.000103583559394,-7.04081726255e-09,0.00210443162359,1.6188496943e-07,6.63053398853e-08,0.00107914325781,4.56821326225e-05,-0.00202525011264,-2.92376910238e-07,-1.11871436559e-08,-0.000103583559394,4.56821326225e-05,0.000414050038671,-0.000173480599187,-0.000391565612517,0.000105714556412,-7.04081726255e-09,-0.00202525011264,-0.000173480599187,0.00894750654697,-3.62830974154e-06,-4.64342774649e-05,0.00210443162359,-2.92376910238e-07,-0.000391565612517,-3.62830974154e-06,0.0085533009842
73357024553,44,0,honey/haz_cam,0.0318732857704,-1.99706792831,-0.0752484872937,-0.00364492577501,0.00366405583918,0.705243647099,0.708946168423,0.00113712600432,1.16627081326e-08,1.69327648791e-07,-1.16693490426e-08,0.000109121254354,-4.77438115922e-05,1.16627081326e-08,0.00110774335917,6.70892390531e-08,-0.000106774503365,-5.37718349847e-08,0.00217563542537,1.69327648791e-07,6.70892390531e-08,0.00111534190364,4.69064543722e-05,-0.00209562014788,-2.46079054023e-07,-1.16693490426e-08,-0.000106774503365,4.69064543722e-05,0.000394494563807,-0.00017076007498,-0.000387158768717,0.000109121254354,-5.37718349847e-08,-0.00209562014788,-0.00017076007498,0.00884729623795,-4.41182828581e-06,-4.77438115922e-05,0.00217563542537,-2.46079054023e-07,-0.000387158768717,-4.41182828581e-06,0.00846054125577
74365941347,45,0,honey/haz_cam,0.0316618345678,-1.99709832668,-0.0748490989208,-0.0037163218949,0.00370928808115,0.705216646194,0.708972394466,0.00117340928409,1.489978807e-08,1.77332367457e-07,-1.27461401433e-08,0.000112541980343,-4.9158323236e-05,1.489978807e-08,0.00114322837908,6.76117934972e-08,-0.000110006229079,-8.55998578686e-08,0.00224582059309,1.77332367457e-07,6.76117934972e-08,0.00115103414282,4.8259684263e-05,-0.00216500810347,-2.07966564858e-07,-1.27461401433e-08,-0.000110006229079,4.8259684263e-05,0.000385183520848,-0.000169864724739,-0.000385935971281,0.000112541980343,-8.55998578686e-08,-0.00216500810347,-0.000169864724739,0.00881775282323,-4.87742727273e-06,-4.9158323236e-05,0.00224582059309,-2.07966564858e-07,-0.000385935971281,-4.87742727273e-06,0.00843732990324
75374158278,46,0,honey/haz_cam,0.0313221886754,-1.99713182449,-0.0743076503277,-0.00379345775582,0.00378859136254,0.705160021782,0.709027945995,0.00122491724323,2.09361648018e-08,1.88667186762e-07,-1.53743666687e-08,0.000117304858577,-5.12396072736e-05,2.09361648018e-08,0.00119360571261,6.87039687364e-08,-0.000114648864837,-7.79486910574e-08,0.00234545278363,1.88667186762e-07,6.87039687364e-08,0.00120170484297,5.03276678501e-05,-0.00226353737526,-2.29534478535e-07,-1.53743666687e-08,-0.000114648864837,5.03276678501e-05,0.00041183779831,-0.000179608265171,-0.000407676125178,0.000117304858577,-7.79486910574e-08,-0.00226353737526,-0.000179608265171,0.00929843168706,-4.46950252808e-06,-5.12396072736e-05,0.00234545278363,-2.29534478535e-07,-0.000407676125178,-4.46950252808e-06,0.00892486050725
76351970427,47,0,honey/haz_cam,0.0310123711824,-1.99717450142,-0.0737923830748,-0.00385520863347,0.00386368483305,0.705112576485,0.709074378014,0.00127520004753,2.59358152732e-08,1.98979833499e-07,-1.58835078423e-08,0.000121884433611,-5.33200363861e-05,2.59358152732e-08,0.00124278839212,7.04944298491e-08,-0.000119096090202,-1.04026192105e-07,0.00244274898432,1.98979833499e-07,7.04944298491e-08,0.00125117297284,5.2343650168e-05,-0.00235975300893,-1.94461080127e-07,-1.58835078423e-08,-0.000119096090202,5.2343650168e-05,0.000416910537751,-0.000185808734386,-0.000421331322286,0.000121884433611,-1.04026192105e-07,-0.00235975300893,-0.000185808734386,0.00959660857916,-4.9297282203e-06,-5.33200363861e-05,0.00244274898432,-1.94461080127e-07,-0.000421331322286,-4.9297282203e-06,0.00923023931682
77431629231,48,0,honey/haz_cam,0.0307669490576,-1.99720954895,-0.0733736604452,-0.00389931397513,0.00392899056897,0.705080211163,0.709105968475,0.00131707661785,2.94988957705e-08,2.07758404258e-07,-1.52313095469e-08,0.000125663122162,-5.49684300495e-05,2.94988957705e-08,0.00128375284839,7.24385955664e-08,-0.000122770201415,-1.55072484631e-07,0.00252384366468,2.07758404258e-07,7.24385955664e-08,0.00129237445071,5.39231223229e-05,-0.00243991869502,-1.48246300569e-07,-1.52313095469e-08,-0.000122770201415,5.39231223229e-05,0.000400589284254,-0.000185266384506,-0.000420484226197,0.000125663122162,-1.55072484631e-07,-0.00243991869502,-0.000185266384506,0.00957206543535,-5.77312584937e-06,-5.49684300495e-05,0.00252384366468,-1.48246300569e-07,-0.000420484226197,-5.77312584937e-06,0.00921225175261
78369554024,49,0,honey/haz_cam,0.0305303037167,-1.99723958969,-0.0729588866234,-0.0039574438706,0.00399820460007,0.705052018166,0.709133267403,0.00136557721999,3.31590470637e-08,2.18198792368e-07,-1.60386850467e-08,0.000130071624881,-5.67299794056e-05,3.31590470637e-08,0.00133120000828,7.42609884696e-08,-0.000127135499497,-1.84428699868e-07,0.00261777010746,2.18198792368e-07,7.42609884696e-08,0.0013400958851,5.56777704332e-05,-0.0025328185875,-1.23574167787e-07,-1.60386850467e-08,-0.000127135499497,5.56777704332e-05,0.000405979168136,-0.000189275189769,-0.000430774176493,0.000130071624881,-1.84428699868e-07,-0.0025328185875,-0.000189275189769,0.00979504361749,-5.8933010223e-06,-5.67299794056e-05,0.00261777010746,-1.23574167787e-07,-0.000430774176493,-5.8933010223e-06,0.00944140739739
79347962329,50,0,honey/haz_cam,0.0303456224501,-1.99725627899,-0.0726675391197,-0.00400226237252,0.00405275076628,0.705033004284,0.709151625633,0.00140523631126,3.63178536134e-08,2.26517840929e-07,-1.68373990306e-08,0.00013377245341,-5.82320753892e-05,3.63178536134e-08,0.00137000251561,7.62519718478e-08,-0.000130795160658,-2.19292758175e-07,0.00269461446442,2.26517840929e-07,7.62519718478e-08,0.00137912249193,5.71698728891e-05,-0.00260882847942,-6.29727736623e-08,-1.68373990306e-08,-0.000130795160658,5.71698728891e-05,0.000391032954212,-0.000187915982679,-0.00042867747834,0.00013377245341,-2.19292758175e-07,-0.00260882847942,-0.000187915982679,0.00973400194198,-6.32325236438e-06,-5.82320753892e-05,0.00269461446442,-6.29727736623e-08,-0.00042867747834,-6.32325236438e-06,0.00938551034778
80381789535,51,0,honey/haz_cam,0.0301910918206,-1.99726974964,-0.0724358335137,-0.00405510794371,0.00410596840084,0.705020964146,0.70916301012,0.0014491394395,3.81436322527e-08,2.35353681433e-07,-1.64843232398e-08,0.000137973460369,-5.9727793996e-05,3.81436322527e-08,0.00141295755748,7.78477229346e-08,-0.000134967267513,-2.55836340557e-07,0.00277971173637,2.35353681433e-07,7.78477229346e-08,0.00142232468352,5.86442220083e-05,-0.0026930172462,-1.89612947565e-08,-1.64843232398e-08,-0.000134967267513,5.86442220083e-05,0.000392801681301,-0.000189829966985,-0.000435514521087,0.000137973460369,-2.55836340557e-07,-0.0026930172462,-0.000189829966985,0.00986754707992,-6.4024020503e-06,-5.9727793996e-05,0.00277971173637,-1.89612947565e-08,-0.000435514521087,-6.4024020503e-06,0.00952409952879
81352676524,52,0,honey/haz_cam,0.0300174131989,-1.99728178978,-0.0720870643854,-0.0041141314432,0.00416680239141,0.704997241497,0.709185838699,0.0015024485765,4.08136671126e-08,2.47565196787e-07,-1.04482680285e-08,0.000142866294482,-6.19086640654e-05,4.08136671126e-08,0.00146511627827,7.92224597035e-08,-0.000139988769661,-3.13838455668e-07,0.00288300449029,2.47565196787e-07,7.92224597035e-08,0.00147478445433,6.07374313404e-05,-0.002795195207,-6.63019972258e-10,-1.04482680285e-08,-0.000139988769661,6.07374313404e-05,0.000410165957874,-0.000197455752641,-0.000454128283309,0.000142866294482,-3.13838455668e-07,-0.002795195207,-0.000197455752641,0.0102599207312,-6.74320972394e-06,-6.19086640654e-05,0.00288300449029,-6.63019972258e-10,-0.000454128283309,-6.74320972394e-06,0.00992335006595
82340797339,53,0,honey/haz_cam,0.0298929158598,-1.99729692936,-0.0716843381524,-0.00417363690212,0.00422590691596,0.704953372478,0.709228813648,0.00156052561942,4.53003501377e-08,2.57987977648e-07,-1.43639065087e-08,0.000148009625264,-6.44943866064e-05,4.53003501377e-08,0.00152194523253,8.19943153374e-08,-0.000145190701005,-3.75630520466e-07,0.00299567659386,2.57987977648e-07,8.19943153374e-08,0.00153193925507,6.34190364508e-05,-0.00290671433322,5.84841899354e-08,-1.43639065087e-08,-0.000145190701005,6.34190364508e-05,0.000422496465035,-0.000207105069421,-0.000473552092444,0.000148009625264,-3.75630520466e-07,-0.00290671433322,-0.000207105069421,0.0106819812208,-6.8622280196e-06,-6.44943866064e-05,0.00299567659386,5.84841899354e-08,-0.000473552092444,-6.8622280196e-06,0.0103505346924
83402800795,54,0,honey/haz_cam,0.0297922790051,-1.99730265141,-0.0712677538395,-0.00422089267522,0.00429533561692,0.704906761646,0.709274470806,0.00161839136854,5.07291915142e-08,2.70278945891e-07,-1.13928466661e-08,0.000153261935338,-6.72286769259e-05,5.07291915142e-08,0.00157856650185,8.47865919695e-08,-0.000150455322,-4.43291668262e-07,0.00310789328068,2.70278945891e-07,8.47865919695e-08,0.00158888520673,6.60882215016e-05,-0.00301777385175,1.01970528021e-07,-1.13928466661e-08,-0.000150455322,6.60882215016e-05,0.000423533754656,-0.000214372004848,-0.00048744524247,0.000153261935338,-4.43291668262e-07,-0.00301777385175,-0.000214372004848,0.0109753645957,-7.6606802395e-06,-6.72286769259e-05,0.00310789328068,1.01970528021e-07,-0.00048744524247,-7.6606802395e-06,0.0106486631557
84423250974,55,0,honey/haz_cam,0.0296360682696,-1.99730324745,-0.0709714516997,-0.00427070260048,0.00435469858348,0.704860508442,0.709319710732,0.00167333555873,5.4708980457e-08,2.79564488892e-07,-1.39813947087e-08,0.000158252645633,-6.98215590091e-05,5.4708980457e-08,0.00163233291823,8.72564029919e-08,-0.000155350877321,-5.06751405283e-07,0.0032146316953,2.79564488892e-07,8.72564029919e-08,0.00164295826107,6.86764469719e-05,-0.00312344217673,1.63463269587e-07,-1.39813947087e-08,-0.000155350877321,6.86764469719e-05,0.000417380797444,-0.000218881352339,-0.00049454101827,0.000158252645633,-5.06751405283e-07,-0.00312344217673,-0.000218881352339,0.011125436984,-8.18291391624e-06,-6.98215590091e-05,0.0032146316953,1.63463269587e-07,-0.00049454101827,-8.18291391624e-06,0.0108034284785
85350828724,56,0,honey/haz_cam,0.0294450707734,-1.99732899666,-0.0705445185304,-0.00433358596638,0.00442250259221,0.70482468605,0.709354460239,0.00172917579766,5.75961038862e-08,2.8788397799e-07,-1.550016826e-08,0.000163540971698,-7.20911484677e-05,5.75961038862e-08,0.00168698315974,9.0275761977e-08,-0.000160727460752,-5.46539752122e-07,0.00332322716713,2.8788397799e-07,9.0275761977e-08,0.00169792200904,7.09960586391e-05,-0.00323103601113,2.67846615998e-07,-1.550016826e-08,-0.000160727460752,7.09960586391e-05,0.000416069757193,-0.000222925635171,-0.000503632007167,0.000163540971698,-5.46539752122e-07,-0.00323103601113,-0.000222925635171,0.0112994220108,-8.69780888024e-06,-7.20911484677e-05,0.00332322716713,2.67846615998e-07,-0.000503632007167,-8.69780888024e-06,0.0109816845506
86330239048,57,0,honey/haz_cam,0.0292171835899,-1.99737167358,-0.0701346322894,-0.00439580297098,0.00448686955497,0.704789459705,0.70938873291,0.00178864120971,6.03796834753e-08,2.95532231576e-07,-2.1409775286e-08,0.000168990489328,-7.42894117138e-05,6.03796834753e-08,0.00174518628046,9.43325204616e-08,-0.000166285448358,-5.85172188039e-07,0.00343895051628,2.95532231576e-07,9.43325204616e-08,0.00175645796116,7.33342094463e-05,-0.00334573350847,3.98256332801e-07,-2.1409775286e-08,-0.000166285448358,7.33342094463e-05,0.000420866213972,-0.000228303353651,-0.000516252883244,0.000168990489328,-5.85172188039e-07,-0.00334573350847,-0.000228303353651,0.0115615874529,-9.15002510737e-06,-7.42894117138e-05,0.00343895051628,3.98256332801e-07,-0.000516252883244,-9.15002510737e-06,0.0112475417554
87318601558,58,0,honey/haz_cam,0.0290428046137,-1.99742245674,-0.0698093101382,-0.00448658550158,0.00454816408455,0.704764306545,0.709412693977,0.00184633245226,5.83270640675e-08,3.03916635858e-07,-1.94822753485e-08,0.000174408822204,-7.65212971601e-05,5.83270640675e-08,0.00180164945778,9.53952934424e-08,-0.000171745443367,-7.0474908398e-07,0.00355145242065,3.03916635858e-07,9.53952934424e-08,0.0018132457044,7.5536154327e-05,-0.0034571508877,4.29705153238e-07,-1.94822753485e-08,-0.000171745443367,7.5536154327e-05,0.000418849929702,-0.000231751284446,-0.000525667273905,0.000174408822204,-7.0474908398e-07,-0.0034571508877,-0.000231751284446,0.011743683368,-9.41373218666e-06,-7.65212971601e-05,0.00355145242065,4.29705153238e-07,-0.000525667273905,-9.41373218666e-06,0.0114343501627
88379096684,59,0,honey/haz_cam,0.0288123488426,-1.99747824669,-0.0694657564163,-0.0045901639387,0.0046215490438,0.704742908478,0.709432899952,0.00191760668531,5.94213354077e-08,3.15937825235e-07,-3.92074070987e-08,0.000181506518857,-7.90813064668e-05,5.94213354077e-08,0.00187141064089,9.67297992815e-08,-0.000178533111466,-7.31012050892e-07,0.00369023694657,3.15937825235e-07,9.67297992815e-08,0.00188339827582,7.83299692557e-05,-0.0035947682336,5.99510144639e-07,-3.92074070987e-08,-0.000178533111466,7.83299692557e-05,0.000437232316472,-0.000241884146817,-0.00054996291874,0.000181506518857,-7.31012050892e-07,-0.0035947682336,-0.000241884146817,0.0122569566593,-1.0171213944e-05,-7.90813064668e-05,0.00369023694657,5.99510144639e-07,-0.00054996291874,-1.0171213944e-05,0.0119513701648
89338191056,60,0,honey/haz_cam,0.0287496391684,-1.99751341343,-0.0691793784499,-0.00465530855581,0.00469206366688,0.704711437225,0.709463238716,0.00197444437072,5.95371467682e-08,3.25574433191e-07,-3.67779833255e-08,0.000187331868801,-8.16598185338e-05,5.95371467682e-08,0.00192703714129,9.7403891175e-08,-0.000184075848665,-8.25062159038e-07,0.0038009993732,3.25574433191e-07,9.7403891175e-08,0.00193934037816,8.07253236417e-05,-0.00370450783521,6.18898297944e-07,-3.67779833255e-08,-0.000184075848665,8.07253236417e-05,0.000420257885708,-0.000242993424763,-0.000552849611267,0.000187331868801,-8.25062159038e-07,-0.00370450783521,-0.000242993424763,0.0122812241316,-1.0613840459e-05,-8.16598185338e-05,0.0038009993732,6.18898297944e-07,-0.000552849611267,-1.0613840459e-05,0.0119804693386
90337053185,61,0,honey/haz_cam,0.0286112241447,-1.99756503105,-0.0687262415886,-0.00472504738718,0.00474878866225,0.704669892788,0.70950371027,0.00203209253959,5.88286113157e-08,3.30072737142e-07,-3.66553436493e-08,0.000192860214156,-8.45714239404e-05,5.88286113157e-08,0.0019834660925,9.80901759817e-08,-0.000189556041732,-8.78907201241e-07,0.00391338998452,3.30072737142e-07,9.80901759817e-08,0.00199608807452,8.35898026708e-05,-0.00381597643718,7.05700415438e-07,-3.66553436493e-08,-0.000189556041732,8.35898026708e-05,0.00041511078598,-0.000246967392741,-0.000559196632821,0.000192860214156,-8.78907201241e-07,-0.00381597643718,-0.000246967392741,0.0123966690153,-1.10862756628e-05,-8.45714239404e-05,0.00391338998452,7.05700415438e-07,-0.000559196632821,-1.10862756628e-05,0.0121007980779
91349388830,62,0,honey/haz_cam,0.0284142810851,-1.99759745598,-0.0682830438018,-0.00479211099446,0.00479159271345,0.704641461372,0.709531128407,0.00209350581281,5.6610069521e-08,3.32607470455e-07,-4.0387529765e-08,0.000198322086362,-8.70013900567e-05,5.6610069521e-08,0.00204358296469,9.91766810898e-08,-0.000194952561287,-9.00566078599e-07,0.00403303001076,3.32607470455e-07,9.91766810898e-08,0.00205653999001,8.60426662257e-05,-0.00393471121788,8.40229063215e-07,-4.0387529765e-08,-0.000194952561287,8.60426662257e-05,0.000418780371547,-0.000251994089922,-0.000569890078623,0.000198322086362,-9.00566078599e-07,-0.00393471121788,-0.000251994089922,0.012636013329,-1.15434122563e-05,-8.70013900567e-05,0.00403303001076,8.40229063215e-07,-0.000569890078623,-1.15434122563e-05,0.0123449470848
92339016127,63,0,honey/haz_cam,0.028213057667,-1.99760556221,-0.067842386663,-0.00486502842978,0.00484808953479,0.704602956772,0.709568500519,0.00215881736949,5.42057954078e-08,3.37414292062e-07,-3.61330307896e-08,0.000204146213946,-8.97230784176e-05,5.42057954078e-08,0.00210750824772,9.77301155558e-08,-0.000200734488317,-1.00308545825e-06,0.00416024262086,3.37414292062e-07,9.77301155558e-08,0.00212082802318,8.86460402398e-05,-0.00406087283045,8.82127608293e-07,-3.61330307896e-08,-0.000200734488317,8.86460402398e-05,0.000425090343924,-0.000258481915807,-0.000584150664508,0.000204146213946,-1.00308545825e-06,-0.00406087283045,-0.000258481915807,0.0129514466971,-1.20692675409e-05,-8.97230784176e-05,0.00416024262086,8.82127608293e-07,-0.000584150664508,-1.20692675409e-05,0.0126654244959
93297497017,64,0,honey/haz_cam,0.0273716337979,-1.99760711193,-0.0675039887428,-0.00491085508838,0.00489935558289,0.704580903053,0.709589779377,0.0022146392148,7.77890747372e-08,3.90812544993e-07,-6.01952123702e-08,0.000210279409657,-9.18080186239e-05,7.77890747372e-08,0.0021621347405,1.86490012766e-07,-0.000205792661291,-6.77870616528e-07,0.00426785368472,3.90812544993e-07,1.86490012766e-07,0.00217557535507,9.08412475837e-05,-0.00416741799563,5.87924830597e-07,-6.01952123702e-08,-0.000205792661291,9.08412475837e-05,0.000412276713178,-0.000259597960394,-0.000586768437643,0.000210279409657,-6.77870616528e-07,-0.00416741799563,-0.000259597960394,0.0129924826324,-1.21453958855e-05,-9.18080186239e-05,0.00426785368472,5.87924830597e-07,-0.000586768437643,-1.21453958855e-05,0.0127130793408
94300566190,65,0,honey/haz_cam,0.027405180037,-1.99761104584,-0.0672162771225,-0.00496288156137,0.0049582766369,0.704550087452,0.709619581699,0.00227871024981,8.14176743802e-08,4.03565536544e-07,-5.41778604202e-08,0.00021655621822,-9.26091961446e-05,8.14176743802e-08,0.00222484860569,1.94166688061e-07,-0.000211570586544,-7.20803200238e-07,0.00439234636724,4.03565536544e-07,1.94166688061e-07,0.00223864172585,9.13142212084e-05,-0.00429092952982,6.29216231118e-07,-5.41778604202e-08,-0.000211570586544,9.13142212084e-05,0.000418876530603,-0.000260560773313,-0.000600455212407,0.00021655621822,-7.20803200238e-07,-0.00429092952982,-0.000260560773313,0.0132914511487,-1.20846871141e-05,-9.26091961446e-05,0.00439234636724,6.29216231118e-07,-0.000600455212407,-1.20846871141e-05,0.0130166476592
95309633024,66,0,honey/haz_cam,0.0275125280023,-1.997600317,-0.0668993517756,-0.00501473806798,0.00501297833398,0.704514563084,0.709654092789,0.00234056659974,8.72056062917e-08,4.17574909761e-07,-2.67512145768e-08,0.000222482776735,-9.65086001088e-05,8.72056062917e-08,0.00228540692478,1.98696838538e-07,-0.0002173766552,-7.55067731006e-07,0.00451259547845,4.17574909761e-07,1.98696838538e-07,0.00229952461086,9.45358988247e-05,-0.00441015977412,6.43847329229e-07,-2.67512145768e-08,-0.0002173766552,9.45358988247e-05,0.000417634990299,-0.000266226619715,-0.000610898016021,0.000222482776735,-7.55067731006e-07,-0.00441015977412,-0.000266226619715,0.0135023575276,-1.23811314552e-05,-9.65086001088e-05,0.00451259547845,6.43847329229e-07,-0.000610898016021,-1.23811314552e-05,0.0132318967953
96297939132,67,0,honey/haz_cam,0.027435682714,-1.99760138988,-0.0667488053441,-0.00505710626021,0.00507544120774,0.704494059086,0.709673702717,0.00239536771551,9.14539697305e-08,4.32847542697e-07,-2.16437339162e-08,0.000228074597544,-9.98706163955e-05,9.14539697305e-08,0.00233904691413,2.03024995926e-07,-0.000222624090384,-7.86816030995e-07,0.00461927289143,4.32847542697e-07,2.03024995926e-07,0.0023534654174,9.76114897639e-05,-0.00451603671536,7.05249078692e-07,-2.16437339162e-08,-0.000222624090384,9.76114897639e-05,0.000406562408898,-0.000269481475698,-0.000614472781308,0.000228074597544,-7.86816030995e-07,-0.00451603671536,-0.000269481475698,0.0135524226353,-1.23213012557e-05,-9.98706163955e-05,0.00461927289143,7.05249078692e-07,-0.000614472781308,-1.23213012557e-05,0.013286457397
97297784219,68,0,honey/haz_cam,0.0270561166108,-1.99764752388,-0.0665223821998,-0.00512383738533,0.0051415967755,0.704467535019,0.709699094296,0.00246674311347,9.22959202398e-08,4.49503914979e-07,-3.68763046765e-08,0.000235696701566,-0.000102594713098,9.22959202398e-08,0.00240892311558,2.02837085794e-07,-0.000229812096222,-7.8135616377e-07,0.00475839618593,4.49503914979e-07,2.02837085794e-07,0.00242372462526,0.000100512479548,-0.00465422635898,8.13233384633e-07,-3.68763046765e-08,-0.000229812096222,0.000100512479548,0.000425387755968,-0.000279376457911,-0.000638148922008,0.000235696701566,-7.8135616377e-07,-0.00465422635898,-0.000279376457911,0.0140302097425,-1.24979023894e-05,-0.000102594713098,0.00475839618593,8.13233384633e-07,-0.000638148922008,-1.24979023894e-05,0.0137710496783
98317072006,69,0,honey/haz_cam,0.0269387029111,-1.99769484997,-0.0662050023675,-0.00519277108833,0.00520493835211,0.704429090023,0.709736227989,0.00252783298492,9.85824186728e-08,4.63989834998e-07,-2.40453577049e-08,0.000242204085225,-0.000104877479316,9.85824186728e-08,0.00246872473508,2.05507603823e-07,-0.000236303181737,-7.92819037088e-07,0.00487745413557,4.63989834998e-07,2.05507603823e-07,0.00248385639861,0.000102512603917,-0.00477237813175,8.5094819724e-07,-2.40453577049e-08,-0.000236303181737,0.000102512603917,0.000417223200202,-0.000281670130789,-0.000647871871479,0.000242204085225,-7.92819037088e-07,-0.00477237813175,-0.000281670130789,0.0141761321574,-1.23775207612e-05,-0.000104877479316,0.00487745413557,8.5094819724e-07,-0.000647871871479,-1.23775207612e-05,0.0139205576852
99338873309,70,0,honey/haz_cam,0.026803245768,-1.99772679806,-0.0659492388368,-0.00525149423629,0.00526527781039,0.704399943352,0.709764361382,0.00259130005725,1.03645383831e-07,4.79202924453e-07,-1.58073145684e-08,0.000248289201409,-0.000107880754513,1.03645383831e-07,0.00253085512668,2.09014345387e-07,-0.000242233392783,-8.24258449938e-07,0.00500105554238,4.79202924453e-07,2.09014345387e-07,0.00254632881843,0.000105262486613,-0.00489515438676,8.40067627905e-07,-1.58073145684e-08,-0.000242233392783,0.000105262486613,0.000416593189584,-0.000286741356831,-0.000658880977426,0.000248289201409,-8.24258449938e-07,-0.00489515438676,-0.000286741356831,0.014396100305,-1.27006869661e-05,-0.000107880754513,0.00500105554238,8.40067627905e-07,-0.000658880977426,-1.27006869661e-05,0.0141439065337
100336396531,71,0,honey/haz_cam,0.026671057567,-1.99775731564,-0.0656532123685,-0.00530997244641,0.00533040612936,0.704365074635,0.709797978401,0.00265720509924,1.09528784265e-07,4.94521884775e-07,-7.89231258125e-09,0.00025486733648,-0.000111054403533,1.09528784265e-07,0.00259537342936,2.12435097069e-07,-0.000248728407314,-8.48774675433e-07,0.0051293829456,4.94521884775e-07,2.12435097069e-07,0.00261120195501,0.000108209300379,-0.00502258446068,8.52215009672e-07,-7.89231258125e-09,-0.000248728407314,0.000108209300379,0.000419300515205,-0.000293081626296,-0.000672771886457,0.00025486733648,-8.48774675433e-07,-0.00502258446068,-0.000293081626296,0.0146645288914,-1.28306055558e-05,-0.000111054403533,0.0051293829456,8.52215009672e-07,-0.000672771886457,-1.28306055558e-05,0.0144157949835
101340628494,72,0,honey/haz_cam,0.0266256984323,-1.99776387215,-0.0653589740396,-0.00535157462582,0.0053931362927,0.704332828522,0.70982915163,0.00271051656455,1.17539308064e-07,5.088030548e-07,3.26109761417e-09,0.000259834720055,-0.000113943096949,1.17539308064e-07,0.0026475652121,2.15920564983e-07,-0.000253613747191,-8.61958540099e-07,0.0052330410108,5.088030548e-07,2.15920564983e-07,0.00266368128359,0.000110795117507,-0.00512552075088,8.43788825478e-07,3.26109761417e-09,-0.000253613747191,0.000110795117507,0.000402883044444,-0.000294085708447,-0.000672547204886,0.000259834720055,-8.61958540099e-07,-0.00512552075088,-0.000294085708447,0.014642608352,-1.3100767319e-05,-0.000113943096949,0.0052330410108,8.43788825478e-07,-0.000672547204886,-1.3100767319e-05,0.0143968658522
