%time,field.header.seq,field.header.stamp,field.header.frame_id,field.pose.pose.position.x,field.pose.pose.position.y,field.pose.pose.position.z,field.pose.pose.orientation.x,field.pose.pose.orientation.y,field.pose.pose.orientation.z,field.pose.pose.orientation.w,field.pose.covariance0,field.pose.covariance1,field.pose.covariance2,field.pose.covariance3,field.pose.covariance4,field.pose.covariance5,field.pose.covariance6,field.pose.covariance7,field.pose.covariance8,field.pose.covariance9,field.pose.covariance10,field.pose.covariance11,field.pose.covariance12,field.pose.covariance13,field.pose.covariance14,field.pose.covariance15,field.pose.covariance16,field.pose.covariance17,field.pose.covariance18,field.pose.covariance19,field.pose.covariance20,field.pose.covariance21,field.pose.covariance22,field.pose.covariance23,field.pose.covariance24,field.pose.covariance25,field.pose.covariance26,field.pose.covariance27,field.pose.covariance28,field.pose.covariance29,field.pose.covariance30,field.pose.covariance31,field.pose.covariance32,field.pose.covariance33,field.pose.covariance34,field.pose.covariance35
95300246942,0,0,honey/haz_cam,0.000251507997746,-1.99973106384,-0.000245983916102,-0.000709979562089,0.000719261995982,0.706434965134,0.707777202129,0.000110330918687,3.83008202931e-09,4.00713817683e-09,2.22494453417e-10,5.0535908791e-09,-7.03761227072e-09,3.83008202931e-09,0.000106542567664,-3.01288132221e-08,-1.82440185181e-09,-4.08547222719e-08,5.07382083015e-07,4.00713817683e-09,-3.01288132221e-08,0.000106542182039,1.68577984905e-10,-5.08124628595e-07,4.06390938679e-08,2.22494453417e-10,-1.82440185181e-09,1.68577984905e-10,2.69591964752e-05,-2.47669662556e-09,2.42521713822e-09,5.0535908791e-09,-4.08547222719e-08,-5.08124628595e-07,-2.47669662556e-09,2.69932606898e-05,5.50789458487e-08,-7.03761227072e-09,5.07382083015e-07,4.06390938679e-08,2.42521713822e-09,5.50789458487e-08,2.69945558102e-05
96310419182,1,0,honey/haz_cam,0.0010065541137,-1.99913287163,-0.000995396985672,-0.00121658691205,0.00121409678832,0.70595318079,0.708256483078,0.000118138392281,1.82525905501e-08,1.88554061253e-08,8.30999880019e-10,6.76391209709e-08,-7.11798122666e-08,1.82525905501e-08,0.00011151770741,-4.24701518398e-08,-6.11025399166e-08,-1.15976327209e-07,2.05809101317e-06,1.88554061253e-08,-4.24701518398e-08,0.00011152659863,4.6296943168e-08,-2.03307990887e-06,1.12756573856e-07,8.30999880019e-10,-6.11025399166e-08,4.6296943168e-08,8.68163406267e-05,-2.52502463383e-08,2.49748453029e-08,6.76391209709e-08,-1.15976327209e-07,-2.03307990887e-06,-2.52502463383e-08,8.74208417372e-05,3.07530712007e-07,-7.11798122666e-08,2.05809101317e-06,1.12756573856e-07,2.49748453029e-08,3.07530712007e-07,8.73507597134e-05
97273534990,2,0,honey/haz_cam,0.00234193494543,-1.99818694592,-0.00246725301258,-0.00158687587827,0.00156354426872,0.705589950085,0.70861685276,0.000125808044686,3.61914835878e-08,3.69882755535e-08,1.31234278999e-09,2.21621263563e-07,-2.10230822972e-07,3.61914835878e-08,0.000116872084618,-5.13221074527e-08,-1.85821605214e-07,-2.39910690425e-07,5.32616786586e-06,3.69882755535e-08,-5.13221074527e-08,0.000116885807074,1.51264757164e-07,-5.25704081156e-06,2.31122868399e-07,1.31234278999e-09,-1.85821605214e-07,1.51264757164e-07,0.000196717941435,-6.9409487935e-08,1.5401120379e-08,2.21621263563e-07,-2.39910690425e-07,-5.25704081156e-06,-6.9409487935e-08,0.000200934562599,1.08150470624e-06,-2.10230822972e-07,5.32616786586e-06,2.31122868399e-07,1.5401120379e-08,1.08150470624e-06,0.000200585767743
98277368190,3,0,honey/haz_cam,0.00540883326903,-1.99628436565,-0.00536746066064,-0.00183928699698,0.00186478113756,0.708099365234,0.706107914448,0.000134845264256,-3.24708580024e-08,5.64664759395e-08,2.35774488822e-09,5.62067043575e-07,-4.22118347387e-07,-3.24708580024e-08,0.000123850360978,-5.60683872664e-08,-4.42222983565e-07,-4.80005667214e-07,1.23259396787e-05,5.64664759395e-08,-5.60683872664e-08,0.000123869787785,2.65738606231e-07,-1.21368011605e-05,4.50188593959e-07,2.35774488822e-09,-4.42222983565e-07,2.65738606231e-07,0.000415025075199,-5.80807970607e-08,-1.87335189139e-07,5.62067043575e-07,-4.80005667214e-07,-1.21368011605e-05,-5.80807970607e-08,0.000439899711637,3.93350683225e-06,-4.22118347387e-07,1.23259396787e-05,4.50188593959e-07,-1.87335189139e-07,3.93350683225e-06,0.000438049173681
99294707791,4,0,honey/haz_cam,0.0100337360054,-1.99333393574,-0.0105609875172,-0.00191036693286,0.00222586467862,0.712537169456,0.70162820816,0.000144885576447,-2.01868445515e-07,7.37457170885e-08,1.47289536123e-09,1.20263769077e-06,-2.87389838149e-07,-2.01868445515e-07,0.000132055516588,-5.29104227098e-08,-9.38887751545e-07,-8.09252583167e-07,2.59889966401e-05,7.37457170885e-08,-5.29104227098e-08,0.000132066954393,-6.1622536407e-08,-2.57349147432e-05,7.48381239646e-07,1.47289536123e-09,-9.38887751545e-07,-6.1622536407e-08,0.000764298252761,1.78847884058e-07,-4.94403877838e-07,1.20263769077e-06,-8.09252583167e-07,-2.57349147432e-05,1.78847884058e-07,0.000879454833921,1.192480795e-05,-2.87389838149e-07,2.59889966401e-05,7.48381239646e-07,-4.94403877838e-07,1.192480795e-05,0.000875289435498
100334864605,5,0,honey/haz_cam,0.0186081472784,-1.9900841713,-0.0177672859281,-0.00195898581296,0.00244940677658,0.716687917709,0.697386980057,0.000154839508468,-3.94477552845e-07,9.11071111886e-08,2.27044427703e-08,2.29980287259e-06,1.21967005384e-07,-3.94477552845e-07,0.000140492877108,-4.09388896117e-08,-1.76582921085e-06,-9.9857834357e-07,4.78866313642e-05,9.11071111886e-08,-4.09388896117e-08,0.000140492498758,-6.65654965815e-07,-4.76743189211e-05,1.00807062609e-06,2.27044427703e-08,-1.76582921085e-06,-6.65654965815e-07,0.00114603852853,6.1088712755e-06,-3.16939554068e-06,2.29980287259e-06,-9.9857834357e-07,-4.76743189211e-05,6.1088712755e-06,0.00149528926704,2.65965791186e-05,1.21967005384e-07,4.78866313642e-05,1.00807062609e-06,-3.16939554068e-06,2.65965791186e-05,0.001492032432
101337896775,6,0,honey/haz_cam,0.0407228767872,-1.9862087965,-0.0283877011389,-0.00197527324781,0.00258564576507,0.722308516502,0.691563308239,0.000168822822161,-6.7676882054e-07,1.10251484386e-07,8.6574338809e-08,4.29895771958e-06,8.80220909494e-07,-6.7676882054e-07,0.000153232831508,-2.39613981989e-08,-3.25369114762e-06,-1.04873970486e-06,8.75066180015e-05,1.10251484386e-07,-2.39613981989e-08,0.000153214656166,-1.96588894141e-06,-8.72079181136e-05,1.14842373478e-06,8.6574338809e-08,-3.25369114762e-06,-1.96588894141e-06,0.00163127935957,3.28882633767e-05,-1.25797359942e-05,4.29895771958e-06,-1.04873970486e-06,-8.72079181136e-05,3.28882633767e-05,0.00258655683137,6.98853109498e-05,8.80220909494e-07,8.75066180015e-05,1.14842373478e-06,-1.25797359942e-05,6.98853109498e-05,0.00258420035243
102362059181,7,0,honey/haz_cam,0.0716656446457,-1.98338401318,-0.0375179797411,-0.00199740938842,0.00264247367159,0.726468384266,0.687191903591,0.000179634371307,-8.9294371719e-07,1.25172263665e-07,1.00516061252e-07,6.44491638013e-06,-6.852492902e-07,-8.9294371719e-07,0.000163288612384,-1.24962395986e-08,-5.20125740877e-06,-6.35811545635e-07,0.000128331288579,1.25172263665e-07,-1.24962395986e-08,0.000163250238984,-9.20563593354e-07,-0.000128007566673,6.12073336015e-07,1.00516061252e-07,-5.20125740877e-06,-9.20563593354e-07,0.00176316371653,5.43577261851e-05,-2.78982570308e-05,6.44491638013e-06,-6.35811545635e-07,-0.000128007566673,5.43577261851e-05,0.00335717224516,9.6897550975e-05,-6.852492902e-07,0.000128331288579,6.12073336015e-07,-2.78982570308e-05,9.6897550975e-05,0.00335183972493
103322508062,8,0,honey/haz_cam,0.112432986498,-1.97956645489,-0.0453685820103,-0.00203624158166,0.00267659313977,0.731109082699,0.682252347469,0.00019206343859,-1.13184603379e-06,1.40423736639e-07,1.15942739853e-07,8.95774701348e-06,-3.3082178561e-06,-1.13184603379e-06,0.0001751818927,-1.42695633087e-08,-7.67907386034e-06,6.54324665561e-08,0.000174305940163,1.40423736639e-07,-1.42695633087e-08,0.000175122229848,1.30225737394e-06,-0.000173991444171,-2.22158888619e-07,1.15942739853e-07,-7.67907386034e-06,1.30225737394e-06,0.00185333366971,7.08920269972e-05,-4.89689264214e-05,8.95774701348e-06,6.54324665561e-08,-0.000173991444171,7.08920269972e-05,0.0041326074861,0.00012931744277,-3.3082178561e-06,0.000174305940163,-2.22158888619e-07,-4.89689264214e-05,0.00012931744277,0.0041235294193
104342491532,9,0,honey/haz_cam,0.159712001681,-1.97420525551,-0.0513335727155,-0.0020655898843,0.00272006285377,0.736139655113,0.676821053028,0.0002062736894,-1.40458610076e-06,1.40737299148e-07,2.30133821333e-07,1.24990583572e-05,-8.51696131576e-06,-1.40458610076e-06,0.000188908990822,-2.19869171758e-08,-1.04267082861e-05,3.6448739138e-07,0.000222187954932,1.40737299148e-07,-2.19869171758e-08,0.000188821853953,5.19114701092e-06,-0.000221522452193,-5.30957720457e-07,2.30133821333e-07,-1.04267082861e-05,5.19114701092e-06,0.00189629325178,8.7519059889e-05,-7.41934054531e-05,1.24990583572e-05,3.6448739138e-07,-0.000221522452193,8.7519059889e-05,0.00480285054073,0.000145120196976,-8.51696131576e-06,0.000222187954932,-5.30957720457e-07,-7.41934054531e-05,0.000145120196976,0.00480890041217
105342886248,10,0,honey/haz_cam,0.201212927699,-1.96883916855,-0.0535639561713,-0.00206686300226,0.00276550767012,0.740264058113,0.672307372093,0.00021860380366,-1.64152663729e-06,1.416107267e-07,2.40223698711e-07,1.42836161103e-05,-1.43430424941e-05,-1.64152663729e-06,0.000200842536287,-2.59300065863e-08,-1.23662093756e-05,5.81346057515e-07,0.000259716820437,1.416107267e-07,-2.59300065863e-08,0.000200730297365,1.08781696326e-05,-0.000258910702541,-8.0360297261e-07,2.40223698711e-07,-1.23662093756e-05,1.08781696326e-05,0.00180951750372,7.70828628447e-05,-9.01734820218e-05,1.42836161103e-05,5.81346057515e-07,-0.000258910702541,7.70828628447e-05,0.00502957589924,0.000137406866997,-1.43430424941e-05,0.000259716820437,-8.0360297261e-07,-9.01734820218e-05,0.000137406866997,0.00504191126674
106434192269,11,0,honey/haz_cam,0.25374764204,-1.96107339859,-0.0547082051635,-0.00230889418162,0.00267928955145,0.746116638184,0.66580581665,0.0002362888481,-2.01775378628e-06,1.39817316835e-07,2.67191552439e-07,1.68172682606e-05,-2.18521181523e-05,-2.01775378628e-06,0.000217874097871,-2.85241608111e-08,-1.49313800648e-05,7.33917033813e-07,0.000305057619698,1.39817316835e-07,-2.85241608111e-08,0.000217715394683,1.8396827727e-05,-0.000303950422676,-1.03243337435e-06,2.67191552439e-07,-1.49313800648e-05,1.8396827727e-05,0.00184845074546,6.00670100539e-05,-0.000111990266305,1.68172682606e-05,7.33917033813e-07,-0.000303950422676,6.00670100539e-05,0.0054941130802,0.00014538114192,-2.18521181523e-05,0.000305057619698,-1.03243337435e-06,-0.000111990266305,0.00014538114192,0.00551554374397
107317764990,12,0,honey/haz_cam,0.296965181828,-1.95414149761,-0.0538549460471,-0.00238123885356,0.00267788837664,0.750834643841,0.660480558872,0.000252006109804,-2.35408288063e-06,1.33531415258e-07,2.4004279453e-07,1.78392256203e-05,-3.03622073261e-05,-2.35408288063e-06,0.000232991369558,-2.94191764283e-08,-1.61216521519e-05,5.9392402818e-07,0.000339887890732,1.33531415258e-07,-2.94191764283e-08,0.00023279004381,2.71437020274e-05,-0.000338784215273,-1.17602826322e-06,2.4004279453e-07,-1.61216521519e-05,2.71437020274e-05,0.00177046656609,2.56117182289e-05,-0.000120839482406,1.78392256203e-05,5.9392402818e-07,-0.000338784215273,2.56117182289e-05,0.00555645627901,0.000132179091452,-3.03622073261e-05,0.000339887890732,-1.17602826322e-06,-0.000120839482406,0.000132179091452,0.00557246990502
108358178487,13,0,honey/haz_cam,0.333579868078,-1.9475992918,-0.0522953122854,-0.00242355326191,0.00270883343183,0.755176365376,0.655511617661,0.000267554481979,-2.69402767117e-06,1.3266304677e-07,2.15540865156e-07,1.85358585441e-05,-3.77057986043e-05,-2.69402767117e-06,0.000247954798397,-2.80759024918e-08,-1.70309449459e-05,4.10657520433e-07,0.000370932510123,1.3266304677e-07,-2.80759024918e-08,0.000247702613706,3.48696448782e-05,-0.000369587010937,-1.05504727799e-06,2.15540865156e-07,-1.70309449459e-05,3.48696448782e-05,0.00169384083711,-3.97597432311e-06,-0.000121462457173,1.85358585441e-05,4.10657520433e-07,-0.000369587010937,-3.97597432311e-06,0.00551002146676,0.000113890746434,-3.77057986043e-05,0.000370932510123,-1.05504727799e-06,-0.000121462457173,0.000113890746434,0.00553340604529
109318833573,14,0,honey/haz_cam,0.362218528986,-1.94186508656,-0.0503543056548,-0.00244990736246,0.00276739546098,0.758868575096,0.651233315468,0.000281446817098,-3.00801752928e-06,1.34125869522e-07,3.85824307614e-07,1.91159979295e-05,-4.28246785305e-05,-3.00801752928e-06,0.000261357752606,-3.03308915761e-08,-1.76298872248e-05,4.35665839404e-07,0.000395828479668,1.34125869522e-07,-3.03308915761e-08,0.000261016975855,4.02870318794e-05,-0.000393938331399,-7.34182833639e-07,3.85824307614e-07,-1.76298872248e-05,4.02870318794e-05,0.001598427305,-2.21967147809e-05,-0.000117386021884,1.91159979295e-05,4.35665839404e-07,-0.000393938331399,-2.21967147809e-05,0.00533569091931,9.2899412266e-05,-4.28246785305e-05,0.000395828479668,-7.34182833639e-07,-0.000117386021884,9.2899412266e-05,0.00535872206092
110329249578,15,0,honey/haz_cam,0.392768234015,-1.93605065346,-0.0485706105828,-0.0024730139412,0.00284169265069,0.76309132576,0.64627969265,0.000298183615087,-3.38204517902e-06,1.39882217809e-07,2.04141116456e-07,1.96301734832e-05,-4.95958483953e-05,-3.38204517902e-06,0.00027752816095,-2.96139539557e-08,-1.83306037798e-05,1.77222105435e-07,0.00042622568435,1.39882217809e-07,-2.96139539557e-08,0.000277168262983,4.6963818022e-05,-0.000424557394581,-7.76639922151e-07,2.04141116456e-07,-1.83306037798e-05,4.6963818022e-05,0.0015806305455,-3.58191791747e-05,-0.000117102747026,1.96301734832e-05,1.77222105435e-07,-0.000424557394581,-3.58191791747e-05,0.00535245705396,8.40972352307e-05,-4.95958483953e-05,0.00042622568435,-7.76639922151e-07,-0.000117102747026,8.40972352307e-05,0.00538137974218
111311034484,16,0,honey/haz_cam,0.420817911625,-1.92977774143,-0.047187384218,-0.00255274400115,0.00286149932072,0.767525196075,0.641007304192,0.000316039193422,-3.78478011953e-06,1.48712274495e-07,1.7328139279e-07,2.02019000426e-05,-5.47866220586e-05,-3.78478011953e-06,0.000294863857562,-3.18292201484e-08,-1.90569753613e-05,1.64022978311e-07,0.000457381043816,1.48712274495e-07,-3.18292201484e-08,0.00029444732354,5.24641218362e-05,-0.00045554668759,-6.31453758615e-07,1.7328139279e-07,-1.90569753613e-05,5.24641218362e-05,0.00157762423623,-4.59963011963e-05,-0.000117302733997,2.02019000426e-05,1.64022978311e-07,-0.00045554668759,-4.59963011963e-05,0.00538014667109,7.94247898739e-05,-5.47866220586e-05,0.000457381043816,-6.31453758615e-07,-0.000117302733997,7.94247898739e-05,0.00541798723862
112321898217,17,0,honey/haz_cam,0.446173965931,-1.92325699329,-0.0449714437127,-0.00263504288159,0.00288938148879,0.771966934204,0.635650634766,0.000334559677867,-4.19665320806e-06,1.65325289458e-07,1.59880528372e-07,2.05330452445e-05,-5.90492927586e-05,-4.19665320806e-06,0.000312920601573,-3.42742687565e-08,-1.9706934836e-05,1.47500074377e-07,0.00048816204071,1.65325289458e-07,-3.42742687565e-08,0.000312458840199,5.70972042624e-05,-0.000486250093672,-5.12656583851e-07,1.59880528372e-07,-1.9706934836e-05,5.70972042624e-05,0.00157377589494,-5.36487132194e-05,-0.000115259041195,2.05330452445e-05,1.47500074377e-07,-0.000486250093672,-5.36487132194e-05,0.00539015466347,7.00099481037e-05,-5.90492927586e-05,0.00048816204071,-5.12656583851e-07,-0.000115259041195,7.00099481037e-05,0.00542818661779
113338056015,18,0,honey/haz_cam,0.463810771704,-1.91822910309,-0.0432210676372,-0.00267877290025,0.0029927873984,0.772638499737,0.63483351469,0.000357585086022,-4.36266509496e-06,1.81702631608e-07,1.09696664197e-07,2.0937057343e-05,-7.1896603913e-05,-4.36266509496e-06,0.000335230957717,-3.59991041421e-08,-2.0272384063e-05,1.53472541342e-07,0.000526016752701,1.81702631608e-07,-3.59991041421e-08,0.000334840355208,7.06233040546e-05,-0.000524175411556,-4.33812033407e-07,1.09696664197e-07,-2.0272384063e-05,7.06233040546e-05,0.00163429882377,-0.000121743665659,-0.000117567222333,2.0937057343e-05,1.53472541342e-07,-0.000524175411556,-0.000121743665659,0.00556337600574,6.90753076924e-05,-7.1896603913e-05,0.000526016752701,-4.33812033407e-07,-0.000117567222333,6.90753076924e-05,0.00560260983184
114327984978,19,0,honey/haz_cam,0.468463778496,-1.91577255726,-0.0408219918609,-0.00268909311853,0.00303114741109,0.772731244564,0.634720444679,0.000377164018573,-4.46924468633e-06,1.90573146597e-07,2.44308665742e-07,2.10797170439e-05,-7.56383160478e-05,-4.46924468633e-06,0.000354224292096,-4.19770955773e-08,-2.05239302886e-05,1.77405325985e-07,0.000555386650376,1.90573146597e-07,-4.19770955773e-08,0.000353915413143,7.38650123822e-05,-0.000553402933292,4.53956383595e-09,2.44308665742e-07,-2.05239302886e-05,7.38650123822e-05,0.00159539864399,-0.000145490499563,-0.000112102090498,2.10797170439e-05,1.77405325985e-07,-0.000553402933292,-0.000145490499563,0.00546753499657,6.0381640651e-05,-7.56383160478e-05,0.000555386650376,4.53956383595e-09,-0.000112102090498,6.0381640651e-05,0.00550463609397
115309306469,20,0,honey/haz_cam,0.466249078512,-1.91536438465,-0.0388374663889,-0.00268347864039,0.00307640689425,0.772748827934,0.634698808193,0.000395258655772,-4.51542064184e-06,2.1513025672e-07,8.2479218122e-08,2.10701291508e-05,-7.53667918616e-05,-4.51542064184e-06,0.000372231908841,-7.20405290977e-09,-2.03571162274e-05,1.02450648853e-07,0.000582809851039,2.1513025672e-07,-7.20405290977e-09,0.000371437927242,7.36206638976e-05,-0.000580496969633,-1.44714547901e-07,8.2479218122e-08,-2.03571162274e-05,7.36206638976e-05,0.00154733436648,-0.000134596804855,-0.000105355415144,2.10701291508e-05,1.02450648853e-07,-0.000580496969633,-0.000134596804855,0.00533226272091,5.35092949576e-05,-7.53667918616e-05,0.000582809851039,-1.44714547901e-07,-0.000105355415144,5.35092949576e-05,0.00537069933489
116310440817,21,0,honey/haz_cam,0.461293369532,-1.91442501545,-0.0367150194943,-0.00272816489451,0.00309771182947,0.772714614868,0.634740114212,0.000421642092988,-4.62885873276e-06,2.21817472834e-07,7.68884689251e-08,2.10134967347e-05,-7.96533640823e-05,-4.62885873276e-06,0.000397711090045,1.75091550147e-08,-2.0413323e-05,1.60645896585e-07,0.000624591775704,2.21817472834e-07,1.75091550147e-08,0.000397263240302,7.7374468674e-05,-0.000623164640274,-1.88181743965e-07,7.68884689251e-08,-2.0413323e-05,7.7374468674e-05,0.00163153000176,-0.000153261789819,-0.000103881509858,2.10134967347e-05,1.60645896585e-07,-0.000623164640274,-0.000153261789819,0.00556019833311,5.94507000642e-05,-7.96533640823e-05,0.000624591775704,-1.88181743965e-07,-0.000103881509858,5.94507000642e-05,0.00558776687831
117320651102,22,0,honey/haz_cam,0.450275659561,-1.91541290283,-0.0354259200394,-0.00274830055423,0.00311353150755,0.772655904293,0.634811520576,0.000443947850727,-4.68963389721e-06,2.26058205044e-07,2.27805003306e-07,2.14206993405e-05,-7.60369366617e-05,-4.68963389721e-06,0.000419432879426,2.14966586753e-08,-2.0753890567e-05,7.14287224923e-08,0.000659950717818,2.26058205044e-07,2.14966586753e-08,0.00041906881961,7.31219479349e-05,-0.000658617180306,1.48574414993e-07,2.27805003306e-07,-2.0753890567e-05,7.31219479349e-05,0.00160741526634,-0.000142452030559,-9.99762851279e-05,2.14206993405e-05,7.14287224923e-08,-0.000658617180306,-0.000142452030559,0.00552688026801,5.57967214263e-05,-7.60369366617e-05,0.000659950717818,1.48574414993e-07,-9.99762851279e-05,5.57967214263e-05,0.00554896751419
118311012838,23,0,honey/haz_cam,0.438668698072,-1.91716992855,-0.0341352671385,-0.00277718482539,0.00310744880699,0.772567927837,0.634918451309,0.000465073302621,-4.7432026804e-06,2.32560452673e-07,2.68065349474e-07,2.18116929318e-05,-7.20621101209e-05,-4.7432026804e-06,0.000440005300334,2.32075372253e-08,-2.10800299101e-05,4.99360091055e-08,0.000693961919751,2.32560452673e-07,2.32075372253e-08,0.000439723837189,6.82997342665e-05,-0.000692774134222,7.70374342096e-08,2.68065349474e-07,-2.10800299101e-05,6.82997342665e-05,0.00157172046602,-0.000113844900625,-9.18816731428e-05,2.18116929318e-05,4.99360091055e-08,-0.000692774134222,-0.000113844900625,0.0054588271305,5.22181617271e-05,-7.20621101209e-05,0.000693961919751,7.70374342096e-08,-9.18816731428e-05,5.22181617271e-05,0.00547202862799
119342363127,24,0,honey/haz_cam,0.422684729099,-1.92061257362,-0.0334599800408,-0.00291545875371,0.00311802397482,0.769753277302,0.638327240944,0.000486205535708,-4.56827638118e-06,2.40415232611e-07,5.97368796207e-07,2.33475548157e-05,-7.39009628887e-05,-4.56827638118e-06,0.000460482173366,-9.50608125549e-09,-2.19325957005e-05,1.00511652334e-08,0.000729371444322,2.40415232611e-07,-9.50608125549e-09,0.000460304669105,6.94379996276e-05,-0.00072778807953,3.15023584108e-07,5.97368796207e-07,-2.19325957005e-05,6.94379996276e-05,0.00155022868421,-0.000118122203276,-9.24668784137e-05,2.33475548157e-05,1.00511652334e-08,-0.00072778807953,-0.000118122203276,0.00541598675773,4.24338650191e-05,-7.39009628887e-05,0.000729371444322,3.15023584108e-07,-9.24668784137e-05,4.24338650191e-05,0.0054299463518
120301987546,25,0,honey/haz_cam,0.398969173431,-1.92591094971,-0.0321995578706,-0.00307330209762,0.00307984254323,0.765175521374,0.643806993961,0.000513975857757,-4.26732958658e-06,2.48135989978e-07,7.48288130126e-07,2.46110212174e-05,-7.94239458628e-05,-4.26732958658e-06,0.000487304583658,-3.54693829863e-09,-2.26954325626e-05,1.72481890104e-07,0.000775642110966,2.48135989978e-07,-3.54693829863e-09,0.000487277691718,7.39121969673e-05,-0.00077330309432,1.06420941393e-06,7.48288130126e-07,-2.26954325626e-05,7.39121969673e-05,0.00162512389943,-0.000149949075421,-0.00010167054279,2.46110212174e-05,1.72481890104e-07,-0.00077330309432,-0.000149949075421,0.00563182728365,4.05600621889e-05,-7.94239458628e-05,0.000775642110966,1.06420941393e-06,-0.00010167054279,4.05600621889e-05,0.00565087841824
121317769959,26,0,honey/haz_cam,0.365668803453,-1.93411183357,-0.0312977656722,-0.00322711165063,0.00306631322019,0.759765684605,0.65018171072,0.0005461430992,-3.89438855564e-06,2.51721530731e-07,8.00865734618e-07,2.60669294221e-05,-8.1394748122e-05,-3.89438855564e-06,0.000518393469974,5.51160850293e-09,-2.36135329033e-05,3.47793701394e-07,0.000830990611576,2.51721530731e-07,5.51160850293e-09,0.000518497952726,7.51146581024e-05,-0.00082828005543,1.53071732711e-06,8.00865734618e-07,-2.36135329033e-05,7.51146581024e-05,0.00170760543551,-0.000168953964021,-0.000108811182145,2.60669294221e-05,3.47793701394e-07,-0.00082828005543,-0.000168953964021,0.00593180209398,5.3996052884e-05,-8.1394748122e-05,0.000830990611576,1.53071732711e-06,-0.000108811182145,5.3996052884e-05,0.00596308195964
122307430306,27,0,honey/haz_cam,0.334901630878,-1.94204628468,-0.0303660351783,-0.00335778575391,0.00303668621927,0.755419015884,0.655226409435,0.000572247838136,-3.59473006029e-06,2.53108424886e-07,9.21745424876e-07,2.74863577943e-05,-7.73494102759e-05,-3.59473006029e-06,0.000543659785762,6.09541173091e-09,-2.4688168196e-05,7.43748671539e-07,0.000878691906109,2.53108424886e-07,6.09541173091e-09,0.000543816713616,7.0025518653e-05,-0.000875737692695,1.35547122682e-06,9.21745424876e-07,-2.4688168196e-05,7.0025518653e-05,0.00165850669146,-0.000159226328833,-0.000109979453555,2.74863577943e-05,7.43748671539e-07,-0.000875737692695,-0.000159226328833,0.00593011407182,5.23862654518e-05,-7.73494102759e-05,0.000878691906109,1.35547122682e-06,-0.000109979453555,5.23862654518e-05,0.00595476757735
123317585626,28,0,honey/haz_cam,0.298417061567,-1.95082855225,-0.0300683416426,-0.00348496809602,0.00300071621314,0.750285208225,0.661098301411,0.000603467866313,-3.21471134157e-06,2.61194202267e-07,8.60613340592e-07,2.82557648461e-05,-7.1681010013e-05,-3.21471134157e-06,0.000573896337301,5.23906562577e-09,-2.53681482718e-05,1.11358906452e-06,0.000935383373871,2.61194202267e-07,5.23906562577e-09,0.000574097852223,6.4252242737e-05,-0.000932746799663,8.20665036372e-07,8.60613340592e-07,-2.53681482718e-05,6.4252242737e-05,0.00168157333974,-0.000151805914356,-0.000112816378532,2.82557648461e-05,1.11358906452e-06,-0.000932746799663,-0.000151805914356,0.0061217113398,5.48849493498e-05,-7.1681010013e-05,0.000935383373871,8.20665036372e-07,-0.000112816378532,5.48849493498e-05,0.00613939994946
124287491245,29,0,honey/haz_cam,0.266957014799,-1.95789670944,-0.0300970673561,-0.00361401750706,0.00298121711239,0.746067404747,0.665853977203,0.000629504793324,-2.87933676191e-06,2.83850198457e-07,1.17553099699e-06,2.99186303891e-05,-6.28656416666e-05,-2.87933676191e-06,0.000599255901761,4.01265198846e-09,-2.70505224762e-05,1.51399717652e-06,0.000986755359918,2.83850198457e-07,4.01265198846e-09,0.000599403283559,5.6422646594e-05,-0.000983271980658,1.46369779941e-06,1.17553099699e-06,-2.70505224762e-05,5.6422646594e-05,0.00162217963953,-0.000128866697196,-0.00011620544683,2.99186303891e-05,1.51399717652e-06,-0.000983271980658,-0.000128866697196,0.00610715942457,5.33802776772e-05,-6.28656416666e-05,0.000986755359918,1.46369779941e-06,-0.00011620544683,5.33802776772e-05,0.00611947150901
125286984533,30,0,honey/haz_cam,0.225605234504,-1.96589374542,-0.0297384206206,-0.00370696769096,0.0029499840457,0.740231096745,0.672335803509,0.000665493484121,-2.42131977757e-06,2.99232453926e-07,1.15293210001e-06,3.10661671392e-05,-5.3015886806e-05,-2.42131977757e-06,0.000634245632682,3.78562159398e-09,-2.84752804873e-05,1.86987199413e-06,0.00105518044438,2.99232453926e-07,3.78562159398e-09,0.000634393654764,4.75331980851e-05,-0.00105191476177,1.01013552012e-06,1.15293210001e-06,-2.84752804873e-05,4.75331980851e-05,0.00169236771762,-0.000116218005132,-0.000124964586576,3.10661671392e-05,1.86987199413e-06,-0.00105191476177,-0.000116218005132,0.00644534314051,5.9521113144e-05,-5.3015886806e-05,0.00105518044438,1.01013552012e-06,-0.000124964586576,5.9521113144e-05,0.00645139813423
126288698060,31,0,honey/haz_cam,0.194539472461,-1.97114765644,-0.0309335105121,-0.00372490286827,0.00296388170682,0.735712528229,0.677277207375,0.000693008420058,-2.05652509067e-06,3.06609621248e-07,9.4625517022e-07,3.25806904584e-05,-4.46473968623e-05,-2.05652509067e-06,0.000661017955281,-6.00471716794e-09,-3.0042416256e-05,1.87538159935e-06,0.00110905617476,3.06609621248e-07,-6.00471716794e-09,0.000661191588733,4.03298327001e-05,-0.00110633124132,6.58646285956e-07,9.4625517022e-07,-3.0042416256e-05,4.03298327001e-05,0.00162256509066,-9.33413102757e-05,-0.000121158729598,3.25806904584e-05,1.87538159935e-06,-0.00110633124132,-9.33413102757e-05,0.00640777824447,5.05033895024e-05,-4.46473968623e-05,0.00110905617476,6.58646285956e-07,-0.000121158729598,5.05033895024e-05,0.00641979090869
127298631383,32,0,honey/haz_cam,0.149080276489,-1.97712016106,-0.0315928570926,-0.00354376155883,0.00308361183852,0.729164123535,0.684322655201,0.00073093327228,-1.50288781242e-06,3.2058051147e-07,1.1211365063e-06,3.44088439306e-05,-3.0310206057e-05,-1.50288781242e-06,0.000697952578776,-6.02273164674e-09,-3.2463856769e-05,2.49078789238e-06,0.00118272844702,3.2058051147e-07,-6.02273164674e-09,0.000698174466379,2.76581067737e-05,-0.00118008314166,3.87184769579e-07,1.1211365063e-06,-3.2463856769e-05,2.76581067737e-05,0.0016893367283,-7.81821509008e-05,-0.000133216191898,3.44088439306e-05,2.49078789238e-06,-0.00118008314166,-7.81821509008e-05,0.00674771284685,5.58048122912e-05,-3.0310206057e-05,0.00118272844702,3.87184769579e-07,-0.000133216191898,5.58048122912e-05,0.00675031542778
128299600457,33,0,honey/haz_cam,0.10808057338,-1.98139882088,-0.0321763530374,-0.00344345904887,0.00316140870564,0.72338706255,0.690426886082,0.000764912925661,-9.99455664896e-07,3.30011829419e-07,1.0778609294e-06,3.63998260582e-05,-1.45986450661e-05,-9.99455664896e-07,0.000731076579541,-1.11447784334e-08,-3.47212117049e-05,2.48168953476e-06,0.0012497366406,3.30011829419e-07,-1.11447784334e-08,0.000731359992642,1.34735482789e-05,-0.00124717387371,3.38620196771e-07,1.0778609294e-06,-3.47212117049e-05,1.34735482789e-05,0.00166784680914,-4.7266628826e-05,-0.000141751355841,3.63998260582e-05,2.48168953476e-06,-0.00124717387371,-4.7266628826e-05,0.00687048304826,5.9331763623e-05,-1.45986450661e-05,0.0012497366406,3.38620196771e-07,-0.000141751355841,5.9331763623e-05,0.00687151541933
129320419053,34,0,honey/haz_cam,0.065527819097,-1.98477387428,-0.0331125073135,-0.00336114224046,0.00324977049604,0.716951370239,0.697107493877,0.000803151924629,-3.92932406612e-07,3.24054894918e-07,1.16743672152e-06,3.95522911276e-05,1.7124993974e-06,-3.92932406612e-07,0.000768404570408,4.88443785418e-10,-3.7641995732e-05,2.42826945396e-06,0.00132520298939,3.24054894918e-07,4.88443785418e-10,0.000768753758166,-1.93745131583e-06,-0.0013227427844,7.86655505181e-07,1.16743672152e-06,-3.7641995732e-05,-1.93745131583e-06,0.00168820365798,-1.10412011054e-05,-0.000146716149175,3.95522911276e-05,2.42826945396e-06,-0.0013227427844,-1.10412011054e-05,0.00709168007597,5.31790392415e-05,1.7124993974e-06,0.00132520298939,7.86655505181e-07,-0.000146716149175,5.31790392415e-05,0.00709921075031
130300620243,35,0,honey/haz_cam,0.0357879772782,-1.9872456789,-0.0333015546203,-0.00332964165136,0.00330979540013,0.712042152882,0.702121019363,0.000832452147733,1.14929640915e-07,3.37737787959e-07,1.05071922007e-06,4.10329812439e-05,7.1707445386e-06,1.14929640915e-07,0.000797268527094,8.41743397206e-10,-3.97844632971e-05,2.34568892665e-06,0.0013839736348,3.37737787959e-07,8.41743397206e-10,0.000797472370323,-5.85766565564e-06,-0.00138134986628,7.30643762381e-07,1.05071922007e-06,-3.97844632971e-05,-5.85766565564e-06,0.00160198344383,-2.90949259352e-07,-0.000147607090184,4.10329812439e-05,2.34568892665e-06,-0.00138134986628,-2.90949259352e-07,0.00701345456764,4.77366193081e-05,7.1707445386e-06,0.0013839736348,7.30643762381e-07,-0.000147607090184,4.77366193081e-05,0.00702483626083
131310367626,36,0,honey/haz_cam,0.00729403365403,-1.9888625145,-0.0335879102349,-0.00328021799214,0.00343482056633,0.707274615765,0.70692294836,0.000861626758706,5.88428918036e-07,3.34893059062e-07,9.4182206567e-07,4.36072659795e-05,1.31110136863e-05,5.88428918036e-07,0.0008258256712,8.79596484538e-09,-4.19476455136e-05,2.01897614716e-06,0.00144254276529,3.34893059062e-07,8.79596484538e-09,0.000826113042422,-1.11166755232e-05,-0.00144016102422,1.00955287508e-06,9.4182206567e-07,-4.19476455136e-05,-1.11166755232e-05,0.00155295652803,6.34837806501e-06,-0.000149999614223,4.36072659795e-05,2.01897614716e-06,-0.00144016102422,6.34837806501e-06,0.00700338743627,4.22432749474e-05,1.31110136863e-05,0.00144254276529,1.00955287508e-06,-0.000149999614223,4.22432749474e-05,0.00701489066705
132381472338,37,0,honey/haz_cam,-0.0341697335243,-1.99084818363,-0.033722743392,-0.00323581229895,0.00356127182022,0.700242459774,0.713888943195,0.000906735367607,1.29213503897e-06,3.16477866136e-07,1.13049907213e-06,4.79035261378e-05,3.16279074468e-05,1.29213503897e-06,0.000870114832651,4.41260077366e-08,-4.55153967778e-05,2.12677718991e-06,0.00153175473679,3.16477866136e-07,4.41260077366e-08,0.000870429852512,-3.02251410176e-05,-0.00152868300211,1.75928482804e-06,1.13049907213e-06,-4.55153967778e-05,-3.02251410176e-05,0.00167768797837,3.78348486265e-05,-0.000166648591403,4.79035261378e-05,2.12677718991e-06,-0.00152868300211,3.78348486265e-05,0.00748457014561,4.62942043669e-05,3.16279074468e-05,0.00153175473679,1.75928482804e-06,-0.000166648591403,4.62942043669e-05,0.00749939400703
133323919613,38,0,honey/haz_cam,-0.0632610321045,-1.99179029465,-0.0333992280066,-0.00325762876309,0.00360984564759,0.69454061985,0.71943706274,0.000945577630773,1.8777045625e-06,3.09474472715e-07,1.02082924514e-06,5.07287659275e-05,3.10680588882e-05,1.8777045625e-06,0.000908248650376,4.72108006022e-08,-4.79143309349e-05,2.1855516934e-06,0.00160841841716,3.09474472715e-07,4.72108006022e-08,0.000908721063752,-2.93490757031e-05,-0.00160584517289,1.6321947669e-06,1.02082924514e-06,-4.79143309349e-05,-2.93490757031e-05,0.00167038920335,3.06200272462e-05,-0.000173255990376,5.07287659275e-05,2.1855516934e-06,-0.00160584517289,3.06200272462e-05,0.0076489392668,4.3297852244e-05,3.10680588882e-05,0.00160841841716,1.6321947669e-06,-0.000173255990376,4.3297852244e-05,0.00765717681497
134325071550,39,0,honey/haz_cam,-0.0766317695379,-1.99275290966,-0.0327804535627,-0.00333813764155,0.00365099380724,0.694586038589,0.71939265728,0.000987224862911,1.85761098237e-06,2.95487836866e-07,9.41065820825e-07,5.36421139259e-05,5.52539167984e-05,1.85761098237e-06,0.00094904639991,5.64756170718e-08,-5.01249087392e-05,2.19954858949e-06,0.00168867688626,2.95487836866e-07,5.64756170718e-08,0.000949736859184,-5.38843232789e-05,-0.00168646732345,1.70306202563e-06,9.41065820825e-07,-5.01249087392e-05,-5.38843232789e-05,0.00168317183852,0.000113053087262,-0.000179635855602,5.36421139259e-05,2.19954858949e-06,-0.00168646732345,0.000113053087262,0.00785413756967,4.62456846435e-05,5.52539167984e-05,0.00168867688626,1.70306202563e-06,-0.000179635855602,4.62456846435e-05,0.00786123331636
135327755999,40,0,honey/haz_cam,-0.0804967582226,-1.99274587631,-0.0326378718019,-0.00331242172979,0.00374664482661,0.694527626038,0.719448626041,0.00102776952554,1.79856829163e-06,4.05573700846e-07,7.69329517425e-07,5.60334701731e-05,6.04055276199e-05,1.79856829163e-06,0.000991776585579,-8.22810690693e-08,-5.24137576576e-05,2.23550955525e-06,0.00177315005567,4.05573700846e-07,-8.22810690693e-08,0.000989006715827,-5.71793570998e-05,-0.00176445418037,1.53987093654e-06,7.69329517425e-07,-5.24137576576e-05,-5.71793570998e-05,0.00169264664873,0.000130906817503,-0.000184759293916,5.60334701731e-05,2.23550955525e-06,-0.00176445418037,0.000130906817503,0.00804776977748,4.55674598925e-05,6.04055276199e-05,0.00177315005567,1.53987093654e-06,-0.000184759293916,4.55674598925e-05,0.0080680558458
136335949951,41,0,honey/haz_cam,-0.0754731073976,-1.99289464951,-0.0328246988356,-0.00328664598055,0.00380442920141,0.694483339787,0.719491243362,0.0010719319107,1.6384300352e-06,4.64700292468e-07,6.46004309601e-07,5.91728239669e-05,5.22776281286e-05,1.6384300352e-06,0.00103552476503,-5.97779248324e-08,-5.47948475287e-05,2.05095489036e-06,0.00186126388144,4.64700292468e-07,-5.97779248324e-08,0.00103231950197,-4.86482167616e-05,-0.00185254949611,1.43489864968e-06,6.46004309601e-07,-5.47948475287e-05,-4.86482167616e-05,0.00169609917793,0.000111655099317,-0.000190986509551,5.91728239669e-05,2.05095489036e-06,-0.00185254949611,0.000111655099317,0.00824313610792,4.13886918977e-05,5.22776281286e-05,0.00186126388144,1.43489864968e-06,-0.000190986509551,4.13886918977e-05,0.0082539068535
137340034519,42,0,honey/haz_cam,-0.0655658692122,-1.99236023426,-0.0332778505981,-0.00331096444279,0.0038154553622,0.694485902786,0.719488620758,0.00111677020323,1.67339874224e-06,4.53901407127e-07,4.27852484108e-07,6.26279725111e-05,3.37744131684e-05,1.67339874224e-06,0.00107829668559,7.51615800709e-08,-5.76686688873e-05,1.84881378118e-06,0.00194631703198,4.53901407127e-07,7.51615800709e-08,0.00107681786176,-2.92316181003e-05,-0.00194151210599,1.38614291245e-06,4.27852484108e-07,-5.76686688873e-05,-2.92316181003e-05,0.00168034841772,6.15767057752e-05,-0.000192254665308,6.26279725111e-05,1.84881378118e-06,-0.00194151210599,6.15767057752e-05,0.00838036648929,3.18315396726e-05,3.37744131684e-05,0.00194631703198,1.38614291245e-06,-0.000192254665308,3.18315396726e-05,0.00837306305766
138320414260,43,0,honey/haz_cam,-0.0539543665946,-1.9923876524,-0.0330999679863,-0.00336026609875,0.00382080650888,0.694439411163,0.719533205032,0.00115913292393,1.6236222109e-06,4.87460511067e-07,3.92043546071e-07,6.43868334009e-05,1.49313273141e-05,1.6236222109e-06,0.00111994147301,9.26023275838e-08,-5.99463528488e-05,1.71939689153e-06,0.00202858890407,4.87460511067e-07,9.26023275838e-08,0.00111855240539,-8.81918185769e-06,-0.00202448456548,5.8594366692e-07,3.92043546071e-07,-5.99463528488e-05,-8.81918185769e-06,0.00165758072399,4.44995339421e-06,-0.000200540496735,6.43868334009e-05,1.71939689153e-06,-0.00202448456548,4.44995339421e-06,0.00848180614412,3.15033903462e-05,1.49313273141e-05,0.00202858890407,5.8594366692e-07,-0.000200540496735,3.15033903462e-05,0.00847011338919
139301251718,44,0,honey/haz_cam,-0.0422736741602,-1.9920399189,-0.0329192504287,-0.00341331143863,0.00382692553103,0.694142818451,0.719819068909,0.00120668997988,1.6172409687e-06,5.17198316174e-07,1.70737479266e-07,6.68711290928e-05,-7.56486315368e-06,1.6172409687e-06,0.0011666091159,7.52735260789e-08,-6.24566091574e-05,2.07063294511e-06,0.00212150765583,5.17198316174e-07,7.52735260789e-08,0.0011653926922,1.49630177475e-05,-0.00211732252501,6.24596509624e-07,1.70737479266e-07,-6.24566091574e-05,1.49630177475e-05,0.00168257951736,-6.1957493017e-05,-0.000200399095775,6.68711290928e-05,2.07063294511e-06,-0.00211732252501,-6.1957493017e-05,0.00871361698955,2.51894944086e-05,-7.56486315368e-06,0.00212150765583,6.24596509624e-07,-0.000200399095775,2.51894944086e-05,0.0086950706318
140415140081,45,0,honey/haz_cam,-0.0332874916494,-1.99122440815,-0.032784063369,-0.00344469537959,0.00381149142049,0.693921089172,0.72003275156,0.00124437676277,1.61480306815e-06,5.44007036751e-07,2.25371096008e-07,6.85362392687e-05,-2.59761072812e-05,1.61480306815e-06,0.00120361289009,5.60377770853e-08,-6.41254300717e-05,1.8401184434e-06,0.00219304393977,5.44007036751e-07,5.60377770853e-08,0.00120251229964,3.43147330568e-05,-0.00218885531649,5.51657365122e-07,2.25371096008e-07,-6.41254300717e-05,3.43147330568e-05,0.00160919362679,-0.000121114077047,-0.000200905589736,6.85362392687e-05,1.8401184434e-06,-0.00218885531649,-0.000121114077047,0.00866109039634,2.20512738451e-05,-2.59761072812e-05,0.00219304393977,5.51657365122e-07,-0.000200905589736,2.20512738451e-05,0.00864699948579
141337848058,46,0,honey/haz_cam,-0.0249547995627,-1.99057400227,-0.0328615419567,-0.00341137405485,0.00384612800553,0.69373434782,0.720212638378,0.00128963252064,1.61351874794e-06,4.67381795488e-07,-2.25714614999e-07,6.95372800692e-05,-4.62434873043e-05,1.61351874794e-06,0.00124786654487,1.71626837187e-07,-6.57970231259e-05,8.21999208256e-07,0.00227643107064,4.67381795488e-07,1.71626837187e-07,0.00124691671226,5.46590927115e-05,-0.00227393233217,6.24288816198e-08,-2.25714614999e-07,-6.57970231259e-05,5.46590927115e-05,0.00163032312412,-0.000182874704478,-0.000202887211344,6.95372800692e-05,8.21999208256e-07,-0.00227393233217,-0.000182874704478,0.00885001849383,1.96053279069e-05,-4.62434873043e-05,0.00227643107064,6.24288816198e-08,-0.000202887211344,1.96053279069e-05,0.00883301068097
142337803514,47,0,honey/haz_cam,-0.0194411221892,-1.98992836475,-0.0332677699625,-0.00342681049369,0.00386269949377,0.693620681763,0.720321953297,0.00132867111824,1.61083187322e-06,4.85071552703e-07,-2.05785283924e-07,7.228130562e-05,-5.83403634664e-05,1.61083187322e-06,0.00128621864133,1.74339575665e-07,-6.80890443618e-05,6.03820808465e-07,0.00235032872297,4.85071552703e-07,1.74339575665e-07,0.00128534191754,6.75342380418e-05,-0.00234756967984,3.02322888501e-07,-2.05785283924e-07,-6.80890443618e-05,6.75342380418e-05,0.00159212108701,-0.000220330883167,-0.000205967779038,7.228130562e-05,6.03820808465e-07,-0.00234756967984,-0.000220330883167,0.00887933932245,1.76227367774e-05,-5.83403634664e-05,0.00235032872297,3.02322888501e-07,-0.000205967779038,1.76227367774e-05,0.0088663874194
143347629412,48,0,honey/haz_cam,-0.0249944906682,-1.98958826065,-0.0327815450728,-0.00362427579239,0.00375725282356,0.687351047993,0.72630661726,0.00137623515911,2.33101400227e-06,5.00272903992e-07,-1.08462501203e-07,7.49293030822e-05,-0.000118361102068,2.33101400227e-06,0.00133308698423,1.7190855317e-07,-7.11593747837e-05,9.4770399528e-07,0.0024395363871,5.00272903992e-07,1.7190855317e-07,0.00133227324113,0.000128581828903,-0.00243594683707,6.9314086204e-07,-1.08462501203e-07,-7.11593747837e-05,0.000128581828903,0.00164933421183,-0.000400370015996,-0.000213309889659,7.49293030822e-05,9.4770399528e-07,-0.00243594683707,-0.000400370015996,0.00913818459958,1.48883264046e-05,-0.000118361102068,0.0024395363871,6.9314086204e-07,-0.000213309889659,1.48883264046e-05,0.00913919694722
144347571360,49,0,honey/haz_cam,-0.038816139102,-1.98960077763,-0.0323901213706,-0.00371162150986,0.00370762287639,0.682435870171,0.730926632881,0.00141982233617,2.90229581879e-06,5.06670005507e-07,-7.95382746333e-08,7.742355956e-05,-0.000147257174831,2.90229581879e-06,0.00137620070018,2.16059589775e-07,-7.29899402359e-05,8.43586633437e-07,0.00252154143527,5.06670005507e-07,2.16059589775e-07,0.0013753734529,0.000157391114044,-0.00251718075015,1.50163566559e-06,-7.95382746333e-08,-7.29899402359e-05,0.000157391114044,0.00164689135272,-0.000494410167448,-0.000216087151784,7.742355956e-05,8.43586633437e-07,-0.00251718075015,-0.000494410167448,0.0092579703778,1.18757161545e-05,-0.000147257174831,0.00252154143527,1.50163566559e-06,-0.000216087151784,1.18757161545e-05,0.00927227735519
145302344068,50,0,honey/haz_cam,-0.0594107359648,-1.99012959003,-0.031955756247,-0.00384687189944,0.00363273313269,0.677262425423,0.735722541809,0.00146489182953,3.63135677617e-06,5.43230044059e-07,-2.21021423386e-09,7.96629974502e-05,-0.00016995803162,3.63135677617e-06,0.00142119731754,1.13004311686e-07,-7.50857798266e-05,1.12519808226e-06,0.00260738679208,5.43230044059e-07,1.13004311686e-07,0.00142004003283,0.000179298673174,-0.00260285800323,1.32437298817e-06,-2.21021423386e-09,-7.50857798266e-05,0.000179298673174,0.0016569349682,-0.000568759103771,-0.000219853551243,7.96629974502e-05,1.12519808226e-06,-0.00260285800323,-0.000568759103771,0.0094239609316,1.19563337648e-05,-0.00016995803162,0.00260738679208,1.32437298817e-06,-0.000219853551243,1.19563337648e-05,0.00944892968982
146322205586,51,0,honey/haz_cam,-0.0839196890593,-1.99014437199,-0.0322709977627,-0.00393791822717,0.00356497918256,0.672577619553,0.740007519722,0.00150502694305,4.17781211581e-06,5.3026610658e-07,-7.71763311036e-08,8.23088848847e-05,-0.000172244064743,4.17781211581e-06,0.00146093906369,1.63070893677e-07,-7.70962506067e-05,1.02296019122e-06,0.00268558156677,5.3026610658e-07,1.63070893677e-07,0.00145996501669,0.000182358606253,-0.00268181646243,1.14165277409e-06,-7.71763311036e-08,-7.70962506067e-05,0.000182358606253,0.00161598867271,-0.000586336362176,-0.000219236040721,8.23088848847e-05,1.02296019122e-06,-0.00268181646243,-0.000586336362176,0.00947309099138,1.38887717185e-05,-0.000172244064743,0.00268558156677,1.14165277409e-06,-0.000219236040721,1.38887717185e-05,0.00949815660715
147347521696,52,0,honey/haz_cam,-0.118366844952,-1.9895979166,-0.0330322757363,-0.00404674513265,0.00349334045313,0.666180372238,0.74577152729,0.00155190064106,4.59433431388e-06,7.61794694881e-07,-7.6481120459e-07,8.71743322932e-05,-0.000181590032298,4.59433431388e-06,0.00151431525592,-2.65034145741e-07,-8.19877532194e-05,1.83156907951e-06,0.00278870901093,7.61794694881e-07,-2.65034145741e-07,0.00150450412184,0.000195748871192,-0.0027717682533,-2.56401381193e-06,-7.6481120459e-07,-8.19877532194e-05,0.000195748871192,0.00169382779859,-0.000636290875264,-0.00023610147764,8.71743322932e-05,1.83156907951e-06,-0.0027717682533,-0.000636290875264,0.00983312074095,2.51189794653e-05,-0.000181590032298,0.00278870901093,-2.56401381193e-06,-0.00023610147764,2.51189794653e-05,0.00988813117146
148307441203,53,0,honey/haz_cam,-0.154078885913,-1.98880326748,-0.0333086065948,-0.00405210535973,0.00352962175384,0.660725593567,0.750608325005,0.00159801414702,5.17436774317e-06,9.2400586027e-07,-9.77320951279e-07,9.15659329621e-05,-0.000163118515047,5.17436774317e-06,0.00156014971435,-5.177936373e-07,-8.64320973051e-05,2.64639811576e-06,0.00288130063564,9.2400586027e-07,-5.177936373e-07,0.0015503388131,0.000176899236976,-0.0028645277489,-2.68027315542e-06,-9.77320951279e-07,-8.64320973051e-05,0.000176899236976,0.00166706577875,-0.000602852087468,-0.00024435974774,9.15659329621e-05,2.64639811576e-06,-0.0028645277489,-0.000602852087468,0.00997461006045,2.82574674202e-05,-0.000163118515047,0.00288130063564,-2.68027315542e-06,-0.00024435974774,2.82574674202e-05,0.010024224408
149287334083,54,0,honey/haz_cam,-0.196260422468,-1.98741519451,-0.0331083424389,-0.00407905457541,0.0035669314675,0.654361188412,0.756162762642,0.00165195774753,6.06499133937e-06,1.11290751192e-06,-1.06246352516e-06,9.49514651438e-05,-0.000144229416037,6.06499133937e-06,0.00161516864318,-7.90586739186e-07,-9.03037507669e-05,3.61546017302e-06,0.00299815041944,1.11290751192e-06,-7.90586739186e-07,0.00160467263777,0.000161914256751,-0.00298096379265,-5.21976699019e-06,-1.06246352516e-06,-9.03037507669e-05,0.000161914256751,0.00171403947752,-0.000585280242376,-0.000255833903793,9.49514651438e-05,3.61546017302e-06,-0.00298096379265,-0.000585280242376,0.0103531656787,4.02807163482e-05,-0.000144229416037,0.00299815041944,-5.21976699019e-06,-0.000255833903793,4.02807163482e-05,0.0103906905279
150287102565,55,0,honey/haz_cam,-0.233750805259,-1.98488664627,-0.0332368388772,-0.0040562315844,0.00362054537982,0.649316549301,0.760498821735,0.001696028281,6.67818494549e-06,9.66218863141e-07,-8.89360592282e-07,9.72290581558e-05,-0.000112419162178,6.67818494549e-06,0.00165723392274,-2.04396329195e-07,-9.2031317763e-05,2.31050876209e-06,0.00308962189592,9.66218863141e-07,-2.04396329195e-07,0.00164844142273,0.000130300948513,-0.00307521945797,-2.43435874836e-06,-8.89360592282e-07,-9.2031317763e-05,0.000130300948513,0.00163364119362,-0.000505118106958,-0.000254866259638,9.72290581558e-05,2.31050876209e-06,-0.00307521945797,-0.000505118106958,0.0103829493746,3.407901022e-05,-0.000112419162178,0.00308962189592,-2.43435874836e-06,-0.000254866259638,3.407901022e-05,0.0104084834456
151307402127,56,0,honey/haz_cam,-0.284898161888,-1.98080360889,-0.0334542803466,-0.00397142022848,0.00379619724117,0.642375707626,0.766370236874,0.00175510521512,7.51766583562e-06,9.96859625957e-07,-5.97400344304e-07,0.0001031410211,-7.96080348664e-05,7.51766583562e-06,0.001716378727,-6.77058409337e-08,-9.65972212725e-05,2.21520554078e-06,0.00321471015923,9.96859625957e-07,-6.77058409337e-08,0.00170786736999,9.58319506026e-05,-0.00319992215373,-1.13072917429e-06,-5.97400344304e-07,-9.65972212725e-05,9.58319506026e-05,0.00170494255144,-0.000443466793513,-0.000269912095973,0.0001031410211,2.21520554078e-06,-0.00319992215373,-0.000443466793513,0.0108324280009,3.75139752578e-05,-7.96080348664e-05,0.00321471015923,-1.13072917429e-06,-0.000269912095973,3.75139752578e-05,0.0108586698771
152297365949,57,0,honey/haz_cam,-0.328119367361,-1.97658669949,-0.0331904999912,-0.00398404058069,0.00385408801958,0.63657605648,0.771193981171,0.00180583132897,8.20557306724e-06,1.03997581391e-06,-4.22268442435e-07,0.000106851970486,-3.93991685996e-05,8.20557306724e-06,0.00176749005914,-2.3825782236e-08,-9.9597426015e-05,2.73275054496e-06,0.0033225081861,1.03997581391e-06,-2.3825782236e-08,0.00175907206722,5.2033290558e-05,-0.00330615160055,8.21674120743e-07,-4.22268442435e-07,-9.9597426015e-05,5.2033290558e-05,0.00167947122827,-0.000338112004101,-0.000277416460449,0.000106851970486,2.73275054496e-06,-0.00330615160055,-0.000338112004101,0.0110041685402,3.08265371132e-05,-3.93991685996e-05,0.0033225081861,8.21674120743e-07,-0.000277416460449,3.08265371132e-05,0.0110382605344
153319630548,58,0,honey/haz_cam,-0.368037521839,-1.97199416161,-0.0329696424305,-0.00399650027975,0.00388041348197,0.63092315197,0.775825321674,0.00185613788199,8.76222657098e-06,1.03950674202e-06,-5.52130927645e-07,0.00011041968537,-8.75944715517e-06,8.76222657098e-06,0.00181790546048,7.5853456849e-08,-0.000102103498648,2.96491316476e-06,0.00342541956343,1.03950674202e-06,7.5853456849e-08,0.00181000295561,1.87494788406e-05,-0.00341013981961,1.99296073333e-06,-5.52130927645e-07,-0.000102103498648,1.87494788406e-05,0.00165943754837,-0.000255116465269,-0.000283511035377,0.00011041968537,2.96491316476e-06,-0.00341013981961,-0.000255116465269,0.0111704720184,2.8029528039e-05,-8.75944715517e-06,0.00342541956343,1.99296073333e-06,-0.000283511035377,2.8029528039e-05,0.0112047381699
154350645251,59,0,honey/haz_cam,-0.400366991758,-1.96779799461,-0.0325525663793,-0.00400869082659,0.0038983989507,0.625930309296,0.7798589468,0.00190047896467,9.29186899157e-06,1.05703998088e-06,-6.63543744395e-07,0.000112607813207,9.44636940403e-06,9.29186899157e-06,0.00186238798779,1.54163259936e-07,-0.00010412120173,2.95753170576e-06,0.00351576972753,1.05703998088e-06,1.54163259936e-07,0.0018550659297,-1.60440777108e-06,-0.00350272632204,2.03248418984e-06,-6.63543744395e-07,-0.00010412120173,-1.60440777108e-06,0.00160938315094,-0.000201270187972,-0.000283656438114,0.000112607813207,2.95753170576e-06,-0.00350272632204,-0.000201270187972,0.0112257413566,2.57744795817e-05,9.44636940403e-06,0.00351576972753,2.03248418984e-06,-0.000283656438114,2.57744795817e-05,0.0112528968602
155351218631,60,0,honey/haz_cam,-0.440364867449,-1.9623105526,-0.0320479571819,-0.00404034368694,0.00391425332054,0.619158625603,0.785245776176,0.00196084240451,9.89894488157e-06,1.03056675016e-06,-6.44388876481e-07,0.000116147471999,3.51696107828e-05,9.89894488157e-06,0.00192333024461,2.89432762202e-07,-0.000106657382275,3.68585097021e-06,0.0036429616157,1.03056675016e-06,2.89432762202e-07,0.00191640888806,-3.29731483362e-05,-0.00363098224625,2.66298684437e-06,-6.44388876481e-07,-0.000106657382275,-3.29731483362e-05,0.00169261265546,-0.000137081864523,-0.000295714155072,0.000116147471999,3.68585097021e-06,-0.00363098224625,-0.000137081864523,0.0116915907711,3.18199709e-05,3.51696107828e-05,0.0036429616157,2.66298684437e-06,-0.000295714155072,3.18199709e-05,0.0117189772427
156321815941,61,0,honey/haz_cam,-0.463620990515,-1.95768547058,-0.0318724736571,-0.00405797641724,0.00392842339352,0.614520311356,0.788880825043,0.00200214027427,1.0326469237e-05,1.04341324914e-06,-8.77396587384e-07,0.000116849827464,2.48647083936e-05,1.0326469237e-05,0.00196485430934,3.46913708427e-07,-0.000107870364445,3.61685579264e-06,0.00372345140204,1.04341324914e-06,3.46913708427e-07,0.00195862236433,-2.37857093452e-05,-0.00371477310546,2.04464163289e-06,-8.77396587384e-07,-0.000107870364445,-2.37857093452e-05,0.00160501652863,-0.000150671839947,-0.000291394244414,0.000116849827464,3.61685579264e-06,-0.00371477310546,-0.000150671839947,0.0116308797151,2.72200231848e-05,2.48647083936e-05,0.00372345140204,2.04464163289e-06,-0.000291394244414,2.72200231848e-05,0.0116526652128
157332127424,62,0,honey/haz_cam,-0.49306088686,-1.95211112499,-0.0310264136642,-0.00406551500782,0.00399986514822,0.608939409256,0.793196260929,0.00205825082958,1.06851375676e-05,9.68029894466e-07,-8.31300667414e-07,0.000120773707749,4.00841599912e-05,1.06851375676e-05,0.00202162703499,5.14583177846e-07,-0.000111001449113,4.06866183766e-06,0.0038382851053,9.68029894466e-07,5.14583177846e-07,0.00201612734236,-4.48497485195e-05,-0.00383294303901,1.5390542103e-06,-8.31300667414e-07,-0.000111001449113,-4.48497485195e-05,0.00166173570324,-0.000112519213872,-0.000299101928249,0.000120773707749,4.06866183766e-06,-0.00383294303901,-0.000112519213872,0.0120016308501,3.16544137604e-05,4.00841599912e-05,0.0038382851053,1.5390542103e-06,-0.000299101928249,3.16544137604e-05,0.0120102530345
158322102841,63,0,honey/haz_cam,-0.5095692873,-1.94868946075,-0.0304190721363,-0.00416375184432,0.00402091350406,0.609051585197,0.793109476566,0.00212011113763,1.0661298802e-05,9.79255560196e-07,-7.84416045008e-07,0.00011979383271,9.9368429801e-05,1.0661298802e-05,0.00208311877213,5.30330112269e-07,-0.000111684566946,4.90468073622e-06,0.00396032305434,9.79255560196e-07,5.30330112269e-07,0.00207926309668,-0.000106001287349,-0.00395976193249,8.94572451671e-07,-7.84416045008e-07,-0.000111684566946,-0.000106001287349,0.00171581003815,4.43961107521e-05,-0.000304481916828,0.00011979383271,4.90468073622e-06,-0.00395976193249,4.43961107521e-05,0.0123982364312,3.72459289792e-05,9.9368429801e-05,0.00396032305434,8.94572451671e-07,-0.000304481916828,3.72459289792e-05,0.0123966783285
159353361945,64,0,honey/haz_cam,-0.513644039631,-1.94691479206,-0.0304197147489,-0.00417055096477,0.00406254222617,0.60884308815,0.793269336224,0.0021829076577,1.05960943984e-05,1.07511220904e-06,-1.26656209432e-06,0.000122246638057,0.000115525712317,1.05960943984e-05,0.0021455436945,4.93456980166e-07,-0.000114510708954,4.99016869071e-06,0.00408148160204,1.07511220904e-06,4.93456980166e-07,0.00214335974306,-0.000121306497022,-0.0040873545222,-1.90377966192e-06,-1.26656209432e-06,-0.000114510708954,-0.000121306497022,0.00173895119224,9.44471466937e-05,-0.000311961222906,0.000122246638057,4.99016869071e-06,-0.0040873545222,9.44471466937e-05,0.0127270761877,4.60020783066e-05,0.000115525712317,0.00408148160204,-1.90377966192e-06,-0.000311961222906,4.60020783066e-05,0.0127075044438
160344908377,65,0,honey/haz_cam,-0.50913310051,-1.94613194466,-0.0303388051689,-0.00421397853643,0.0040462128818,0.60869383812,0.793383657932,0.00222939369269,1.05040271592e-05,1.16286150842e-06,-1.46327317907e-06,0.000122950426885,8.80841544131e-05,1.05040271592e-05,0.00219200598076,5.23869402969e-07,-0.000117140589282,4.85713098897e-06,0.00416861567646,1.16286150842e-06,5.23869402969e-07,0.00219052331522,-9.01508392417e-05,-0.00417817058042,-3.88502076021e-06,-1.46327317907e-06,-0.000117140589282,-9.01508392417e-05,0.00164143007714,3.09074093821e-05,-0.000310128816636,0.000122950426885,4.85713098897e-06,-0.00417817058042,3.09074093821e-05,0.012660915032,4.42759555881e-05,8.80841544131e-05,0.00416861567646,-3.88502076021e-06,-0.000310128816636,4.42759555881e-05,0.0126310028136
161311805370,66,0,honey/haz_cam,-0.503492474556,-1.94569468498,-0.0298756435513,-0.00426335865632,0.00400313874707,0.608485102654,0.793543756008,0.00228766677901,9.50839876168e-06,1.13022065307e-06,-1.3189104493e-06,0.000123352074297,7.30746323825e-05,9.50839876168e-06,0.00225009280257,9.34744662118e-07,-0.000118913194456,4.49897152066e-06,0.00428150035441,1.13022065307e-06,9.34744662118e-07,0.00224858871661,-7.55977380322e-05,-0.00429086154327,-4.11118344346e-06,-1.3189104493e-06,-0.000118913194456,-7.55977380322e-05,0.00166408845689,-6.17649402557e-06,-0.00031560001662,0.000123352074297,4.49897152066e-06,-0.00429086154327,-6.17649402557e-06,0.0129232797772,4.72876381536e-05,7.30746323825e-05,0.00428150035441,-4.11118344346e-06,-0.00031560001662,4.72876381536e-05,0.0128918141127
162317659706,67,0,honey/haz_cam,-0.49465996027,-1.94572150707,-0.0296358279884,-0.00427679857239,0.00400329288095,0.608355104923,0.79364335537,0.00235346308909,9.52972095547e-06,1.19882236049e-06,-1.38754398904e-06,0.000124734870042,4.54601977253e-05,9.52972095547e-06,0.0023152641952,9.42400902204e-07,-0.000121002813103,4.65732819066e-06,0.00440603634343,1.19882236049e-06,9.42400902204e-07,0.00231544976123,-4.59800648969e-05,-0.00441929278895,-5.25003497387e-06,-1.38754398904e-06,-0.000121002813103,-4.59800648969e-05,0.00171045213938,-7.95595915406e-05,-0.000323008134728,0.000124734870042,4.65732819066e-06,-0.00441929278895,-7.95595915406e-05,0.0132819926366,5.19103741681e-05,4.54601977253e-05,0.00440603634343,-5.25003497387e-06,-0.000323008134728,5.19103741681e-05,0.0132394628599
163313596579,68,0,honey/haz_cam,-0.484435707331,-1.94615888596,-0.0285717155784,-0.00426419638097,0.00405335472897,0.608271479607,0.793707191944,0.00242028525099,9.54896677285e-06,1.21044706702e-06,-1.075944283e-06,0.000124274243717,9.20621641853e-06,9.54896677285e-06,0.00238144677132,1.02808064639e-06,-0.000122735436889,4.81470033264e-06,0.0045332419686,1.21044706702e-06,1.02808064639e-06,0.00238317088224,-6.13909332969e-06,-0.00454887188971,-5.19350396644e-06,-1.075944283e-06,-0.000122735436889,-6.13909332969e-06,0.00173087709118,-0.000177168913069,-0.000328122376231,0.000124274243717,4.81470033264e-06,-0.00454887188971,-0.000177168913069,0.0135872336105,5.20651847182e-05,9.20621641853e-06,0.0045332419686,-5.19350396644e-06,-0.000328122376231,5.20651847182e-05,0.0135402474552
164333933359,69,0,honey/haz_cam,-0.474587827921,-1.94685351849,-0.0286600142717,-0.00423313165084,0.00409888383001,0.608203113079,0.793759584427,0.00248972489499,9.5864152172e-06,1.27451949083e-06,-9.49016339291e-07,0.000123893711134,-3.00499086734e-05,9.5864152172e-06,0.00245014368556,1.06463699012e-06,-0.000123205842101,4.48716491519e-06,0.00466560618952,1.27451949083e-06,1.06463699012e-06,0.00245344289578,3.66636522813e-05,-0.00468289433047,-4.94591904499e-06,-9.49016339291e-07,-0.000123205842101,3.66636522813e-05,0.00174864078872,-0.000281825021375,-0.000331181479851,0.000123893711134,4.48716491519e-06,-0.00468289433047,-0.000281825021375,0.0138932662085,5.54794460186e-05,-3.00499086734e-05,0.00466560618952,-4.94591904499e-06,-0.000331181479851,5.54794460186e-05,0.0138457138091
165374781744,70,0,honey/haz_cam,-0.46615639329,-1.94775116444,-0.0289872642606,-0.00428079348058,0.00409188913181,0.608179152012,0.793777704239,0.00254580168985,8.08177446743e-06,1.76098262727e-06,-8.18204057396e-07,0.000128346116981,-7.43484779377e-05,8.08177446743e-06,0.00252124131657,3.07377717945e-06,-0.000127912979224,9.31362990286e-07,0.00480253202841,1.76098262727e-06,3.07377717945e-06,0.00250463816337,7.97491011326e-05,-0.0047816587612,-1.33412265768e-06,-8.18204057396e-07,-0.000127912979224,7.97491011326e-05,0.00176505756099,-0.000388464628486,-0.000340158032486,0.000128346116981,9.31362990286e-07,-0.0047816587612,-0.000388464628486,0.0141122788191,4.33037530456e-05,-7.43484779377e-05,0.00480253202841,-1.33412265768e-06,-0.000340158032486,4.33037530456e-05,0.0141442772001
166315892549,71,0,honey/haz_cam,-0.4595721066,-1.94884502888,-0.0290967132896,-0.00428540725261,0.00412789313123,0.60811072588,0.793829917908,0.0026138452813,8.11663994682e-06,1.83625479622e-06,-6.62786590055e-07,0.000133449138957,-0.00010161595128,8.11663994682e-06,0.00258901226334,3.17913168146e-06,-0.000133164823637,7.40689131362e-07,0.00493648415431,1.83625479622e-06,3.17913168146e-06,0.0025733159855,0.000110390610644,-0.00491601694375,-6.57352586586e-07,-6.62786590055e-07,-0.000133164823637,0.000110390610644,0.00174841284752,-0.000464469165308,-0.000349256937625,0.000133449138957,7.40689131362e-07,-0.00491601694375,-0.000464469165308,0.0143236014992,3.77406504413e-05,-0.00010161595128,0.00493648415431,-6.57352586586e-07,-0.000349256937625,3.77406504413e-05,0.0143623920158
167319793928,72,0,honey/haz_cam,-0.447838574648,-1.95130693913,-0.0291759483516,-0.00430237315595,0.00422191852704,0.612013220787,0.790824532509,0.00267824856564,7.87677799963e-06,1.92608331417e-06,-5.37837138381e-07,0.000138569143019,-7.23808188923e-05,7.87677799963e-06,0.00265292380936,3.24627353621e-06,-0.000138097486342,4.16205551801e-07,0.00506342668086,1.92608331417e-06,3.24627353621e-06,0.00263818865642,8.33766098367e-05,-0.00504337577149,4.0059200046e-07,-5.37837138381e-07,-0.000138097486342,8.33766098367e-05,0.00170846027322,-0.000392045010813,-0.00035648359335,0.000138569143019,4.16205551801e-07,-0.00504337577149,-0.000392045010813,0.0144842984155,3.41646918969e-05,-7.23808188923e-05,0.00506342668086,4.0059200046e-07,-0.00035648359335,3.41646918969e-05,0.01452078484
168319251045,73,0,honey/haz_cam,-0.437483817339,-1.95393824577,-0.0290297046304,-0.00422071665525,0.00438001705334,0.616324305534,0.787468910217,0.002728699008,7.60023749535e-06,2.046597956e-06,-1.04265848222e-06,0.000140790463774,-3.21880870615e-05,7.60023749535e-06,0.00270350091159,3.31939531861e-06,-0.000141905460623,-7.49840864955e-07,0.00516536738724,2.046597956e-06,3.31939531861e-06,0.00268850498833,4.88307487103e-05,-0.00514343008399,2.3205927846e-07,-1.04265848222e-06,-0.000141905460623,4.88307487103e-05,0.0016107999254,-0.000294890371151,-0.000356911681592,0.000140790463774,-7.49840864955e-07,-0.00514343008399,-0.000294890371151,0.0144324740395,2.89555464406e-05,-3.21880870615e-05,0.00516536738724,2.3205927846e-07,-0.000356911681592,2.89555464406e-05,0.014477185905
