%time,field.header.seq,field.header.stamp,field.header.frame_id,field.twist.twist.linear.x,field.twist.twist.linear.y,field.twist.twist.linear.z,field.twist.twist.angular.x,field.twist.twist.angular.y,field.twist.twist.angular.z,field.twist.covariance0,field.twist.covariance1,field.twist.covariance2,field.twist.covariance3,field.twist.covariance4,field.twist.covariance5,field.twist.covariance6,field.twist.covariance7,field.twist.covariance8,field.twist.covariance9,field.twist.covariance10,field.twist.covariance11,field.twist.covariance12,field.twist.covariance13,field.twist.covariance14,field.twist.covariance15,field.twist.covariance16,field.twist.covariance17,field.twist.covariance18,field.twist.covariance19,field.twist.covariance20,field.twist.covariance21,field.twist.covariance22,field.twist.covariance23,field.twist.covariance24,field.twist.covariance25,field.twist.covariance26,field.twist.covariance27,field.twist.covariance28,field.twist.covariance29,field.twist.covariance30,field.twist.covariance31,field.twist.covariance32,field.twist.covariance33,field.twist.covariance34,field.twist.covariance35
95300246942,0,0,honey/haz_cam,0.000315655895974,0.000314234202961,-0.000274288933724,nan,nan,nan,4.22129014623e-05,3.46604589474e-09,-7.6764202106e-08,0.0,0.0,0.0,3.46604589474e-09,4.21745207859e-05,3.38083316898e-09,0.0,0.0,0.0,-7.6764202106e-08,3.38083316898e-09,4.22147095378e-05,0.0,0.0,0.0,0.0,0.0,0.0,5.83986729907e-06,-5.04863564856e-05,7289341952.0,0.0,0.0,0.0,0.0,0.0,0.0,0.0,0.0,0.0,0.0,0.0,0.0
96310419182,1,0,honey/haz_cam,0.000749985512812,0.000623688159976,-0.000804198964033,nan,nan,nan,7.49875689507e-05,1.75052736751e-08,-2.11205602341e-07,0.0,0.0,0.0,1.75052736751e-08,7.45684665162e-05,1.9600674861e-08,0.0,0.0,0.0,-2.11205602341e-07,1.9600674861e-08,7.49320388422e-05,0.0,0.0,0.0,0.0,0.0,0.0,2.88968294626e-06,-0.000153811866767,0.00126116361935,0.0,0.0,0.0,0.0,0.0,0.0,0.0,0.0,0.0,0.0,0.0,0.0
97273534990,2,0,honey/haz_cam,0.00132190494332,0.00100156711414,-0.00159835105296,nan,nan,nan,0.000129860127345,2.8744841174e-08,-5.35239280453e-07,0.0,0.0,0.0,2.8744841174e-08,0.000127563020214,8.52706971699e-09,0.0,0.0,0.0,-5.35239280453e-07,8.52706971699e-09,0.000129664564156,0.0,0.0,0.0,0.0,0.0,0.0,-1.63574077305e-05,-0.000257220293861,0.00198514130898,0.0,0.0,0.0,0.0,0.0,0.0,0.0,0.0,0.0,0.0,0.0,0.0
98277368190,3,0,honey/haz_cam,0.00172936590388,0.00250224769115,-0.00316097331233,-4.81228562421e-05,-0.000111446533992,-0.00792442262173,0.000223956856644,7.85733149655e-08,-1.61268849297e-06,0.0,0.0,0.0,7.85733149655e-08,0.000213059523958,-8.42328589101e-08,0.0,0.0,0.0,-1.61268849297e-06,-8.42328589101e-08,0.000223114082473,0.0,0.0,0.0,0.0,0.0,0.0,-3.9020946133e-05,-0.000353279116098,0.00272150337696,0.0,0.0,0.0,0.0,0.0,0.0,0.0,0.0,0.0,0.0,0.0,0.0
99294707791,4,0,honey/haz_cam,-0.000640275422484,0.00368429743685,-0.00546904606745,-0.000367283792002,-0.000109404565592,-0.013550421223,0.000356982374797,6.62057573209e-07,-3.91270714317e-06,0.0,0.0,0.0,6.62057573209e-07,0.000315648067044,-8.20102457055e-08,0.0,0.0,0.0,-3.91270714317e-06,-8.20102457055e-08,0.000355645373929,0.0,0.0,0.0,0.0,0.0,0.0,-8.86942143552e-05,-0.000436907925177,0.00346657307819,0.0,0.0,0.0,0.0,0.0,0.0,0.0,0.0,0.0,0.0,0.0,0.0
100334864605,5,0,honey/haz_cam,0.000117167379358,0.00475183967501,-0.00831394549459,-0.000201807546546,-5.65847367398e-05,-0.0127946818247,0.000498681154568,1.37249253385e-06,-7.06167520548e-06,0.0,0.0,0.0,1.37249253385e-06,0.000396300543798,-6.61837532334e-07,0.0,0.0,0.0,-7.06167520548e-06,-6.61837532334e-07,0.000498210894875,0.0,0.0,0.0,0.0,0.0,0.0,-0.00014925544383,-0.000515069346875,0.00417235586792,0.0,0.0,0.0,0.0,0.0,0.0,0.0,0.0,0.0,0.0,0.0,0.0
101337896775,6,0,honey/haz_cam,0.00736050354317,0.00584276486188,-0.0115955388173,-0.000111675224616,-5.91259704379e-05,-0.0169363152236,0.000680384342559,3.30803459292e-06,-1.49788502313e-05,0.0,0.0,0.0,3.30803459292e-06,0.000461624091258,-2.42016790253e-06,0.0,0.0,0.0,-1.49788502313e-05,-2.42016790253e-06,0.000680495111737,0.0,0.0,0.0,0.0,0.0,0.0,-0.000205376534723,-0.000585958187003,0.00489768758416,0.0,0.0,0.0,0.0,0.0,0.0,0.0,0.0,0.0,0.0,0.0,0.0
102362059181,7,0,honey/haz_cam,0.018898524344,0.00670546991751,-0.0139904441312,-5.83506380281e-06,-6.13321099081e-05,-0.0125404084101,0.000764852855355,1.00575734905e-05,-1.72227046278e-05,0.0,0.0,0.0,1.00575734905e-05,0.000454568857094,-5.34265154783e-06,0.0,0.0,0.0,-1.72227046278e-05,-5.34265154783e-06,0.000764697557315,0.0,0.0,0.0,0.0,0.0,0.0,-0.000270950607955,-0.00064717780333,0.0056622303091,0.0,0.0,0.0,0.0,0.0,0.0,0.0,0.0,0.0,0.0,0.0,0.0
103322508062,8,0,honey/haz_cam,0.0314543135464,0.00792744383216,-0.0151595836505,4.9344933359e-05,-9.6981668321e-05,-0.0136893028393,0.00082426564768,2.04157586268e-05,-1.98036286747e-05,0.0,0.0,0.0,2.04157586268e-05,0.000450403807918,-9.01215935301e-06,0.0,0.0,0.0,-1.98036286747e-05,-9.01215935301e-06,0.000824299524538,0.0,0.0,0.0,0.0,0.0,0.0,-0.000331463583279,-0.000709295622073,0.00642050988972,0.0,0.0,0.0,0.0,0.0,0.0,0.0,0.0,0.0,0.0,0.0,0.0
104342491532,9,0,honey/haz_cam,0.0452456437051,0.00940323062241,-0.015030965209,2.15081872739e-05,-8.75140103744e-05,-0.014724011533,0.000852575583849,2.97772821796e-05,-1.81407212949e-05,0.0,0.0,0.0,2.97772821796e-05,0.000449900195235,-1.17378795039e-05,0.0,0.0,0.0,-1.81407212949e-05,-1.17378795039e-05,0.000856386322994,0.0,0.0,0.0,0.0,0.0,0.0,-0.000427090213634,-0.000799147645012,0.00712460791692,0.0,0.0,0.0,0.0,0.0,0.0,0.0,0.0,0.0,0.0,0.0,0.0
105342886248,10,0,honey/haz_cam,0.0535715334117,0.0108724432066,-0.013837355189,-1.97666959139e-05,-3.19880346069e-05,-0.012095078826,0.00083855149569,3.86711035389e-05,-1.46693164425e-05,0.0,0.0,0.0,3.86711035389e-05,0.000440711970441,-1.31030337798e-05,0.0,0.0,0.0,-1.46693164425e-05,-1.31030337798e-05,0.00084454822354,0.0,0.0,0.0,0.0,0.0,0.0,-0.000526292831637,-0.000887701695319,0.00784678384662,0.0,0.0,0.0,0.0,0.0,0.0,0.0,0.0,0.0,0.0,0.0,0.0
106434192269,11,0,honey/haz_cam,0.0762101262808,0.0115203959867,-0.0115480385721,0.000523836293723,-0.00015175579756,-0.0174190066755,0.000852150900755,5.22468108102e-05,-1.31083315864e-05,0.0,0.0,0.0,5.22468108102e-05,0.000462997471914,-1.50426303662e-05,0.0,0.0,0.0,-1.31083315864e-05,-1.50426303662e-05,0.000862040964421,0.0,0.0,0.0,0.0,0.0,0.0,-0.00060949975159,-0.00094377505593,0.00860014557838,0.0,0.0,0.0,0.0,0.0,0.0,0.0,0.0,0.0,0.0,0.0,0.0
107317764990,12,0,honey/haz_cam,0.0882026106119,0.0123269129544,-0.00918238423765,0.000158617709531,-2.38264110521e-05,-0.0143595347181,0.000841473694891,6.30770809948e-05,-1.06695033537e-05,0.0,0.0,0.0,6.30770809948e-05,0.000466792233055,-1.57334852702e-05,0.0,0.0,0.0,-1.06695033537e-05,-1.57334852702e-05,0.000853122852277,0.0,0.0,0.0,0.0,0.0,0.0,-0.000684900674969,-0.000997762312181,0.0093677835539,0.0,0.0,0.0,0.0,0.0,0.0,0.0,0.0,0.0,0.0,0.0,0.0
108358178487,13,0,honey/haz_cam,0.0942659378052,0.0130521478131,-0.00688158068806,6.92090907251e-05,-2.99699586321e-05,-0.0134952962399,0.000834944890812,7.06523569534e-05,-8.26667019282e-06,0.0,0.0,0.0,7.06523569534e-05,0.000473450112622,-1.53907822096e-05,0.0,0.0,0.0,-8.26667019282e-06,-1.53907822096e-05,0.000850227777846,0.0,0.0,0.0,0.0,0.0,0.0,-0.000771016464569,-0.00103765493259,0.0101555176079,0.0,0.0,0.0,0.0,0.0,0.0,0.0,0.0,0.0,0.0,0.0,0.0
109318833573,14,0,honey/haz_cam,0.0967487990856,0.0136536350474,-0.00496249599382,-2.70668806479e-06,-6.6671796958e-05,-0.0116270640865,0.000827419746201,7.56427180022e-05,-6.83805001245e-06,0.0,0.0,0.0,7.56427180022e-05,0.000474543194287,-1.61138214025e-05,0.0,0.0,0.0,-6.83805001245e-06,-1.61138214025e-05,0.000843877613079,0.0,0.0,0.0,0.0,0.0,0.0,-0.000855854828842,-0.00107495463453,0.0109387058765,0.0,0.0,0.0,0.0,0.0,0.0,0.0,0.0,0.0,0.0,0.0,0.0
110329249578,15,0,honey/haz_cam,0.0957462862134,0.0137516381219,-0.00289937574416,-1.29035925056e-05,-8.0667246948e-05,-0.0134887015447,0.000844049674924,8.1857193436e-05,-5.29882572664e-06,0.0,0.0,0.0,8.1857193436e-05,0.000487939978484,-1.45086223711e-05,0.0,0.0,0.0,-5.29882572664e-06,-1.45086223711e-05,0.000864010595251,0.0,0.0,0.0,0.0,0.0,0.0,-0.000954957911745,-0.00111640291288,0.0116508416831,0.0,0.0,0.0,0.0,0.0,0.0,0.0,0.0,0.0,0.0,0.0,0.0
111311034484,16,0,honey/haz_cam,0.0930350124836,0.0140110598877,-0.00146695703734,0.000143543671584,-0.000138384930324,-0.0142788300291,0.00086112349527,8.97208301467e-05,-5.44292606719e-06,0.0,0.0,0.0,8.97208301467e-05,0.000497791275848,-1.50762161866e-05,0.0,0.0,0.0,-5.44292606719e-06,-1.50762161866e-05,0.000884941895492,0.0,0.0,0.0,0.0,0.0,0.0,-0.00102801213507,-0.00113865965977,0.0124721080065,0.0,0.0,0.0,0.0,0.0,0.0,0.0,0.0,0.0,0.0,0.0,0.0
112321898217,17,0,honey/haz_cam,0.0888748839498,0.0143528040498,0.000414194510086,0.000165730802109,-0.000152041742695,-0.0143912937492,0.000871374155395,9.77417803369e-05,-4.35388801634e-06,0.0,0.0,0.0,9.77417803369e-05,0.000501791131683,-1.45512904055e-05,0.0,0.0,0.0,-4.35388801634e-06,-1.45512904055e-05,0.000898513069842,0.0,0.0,0.0,0.0,0.0,0.0,-0.00108296482358,-0.00115879811347,0.0133034000173,0.0,0.0,0.0,0.0,0.0,0.0,0.0,0.0,0.0,0.0,0.0,0.0
113338056015,18,0,honey/haz_cam,0.0759303569794,0.0133620724082,0.00184835225809,-6.41268197796e-05,-0.00020470104937,-0.00265536038205,0.000890615512617,0.000108186999569,-5.06286960444e-06,0.0,0.0,0.0,0.000108186999569,0.000512999249622,-1.45381973198e-05,0.0,0.0,0.0,-5.06286960444e-06,-1.45381973198e-05,0.000921298342291,0.0,0.0,0.0,0.0,0.0,0.0,-0.00114322919399,-0.00117577426136,0.0140999350697,0.0,0.0,0.0,0.0,0.0,0.0,0.0,0.0,0.0,0.0,0.0,0.0
114327984978,19,0,honey/haz_cam,0.0594589784741,0.0127704562619,0.00299775227904,-1.42970111483e-05,-7.47883095755e-05,-0.000650294183288,0.000882497755811,0.000110036242404,-5.34421997145e-06,0.0,0.0,0.0,0.000110036242404,0.00050190789625,-1.34954370878e-05,0.0,0.0,0.0,-5.34421997145e-06,-1.34954370878e-05,0.000912574818358,0.0,0.0,0.0,0.0,0.0,0.0,-0.00118005194236,-0.00118162250146,0.0149346925318,0.0,0.0,0.0,0.0,0.0,0.0,0.0,0.0,0.0,0.0,0.0,0.0
115309306469,20,0,honey/haz_cam,0.0432119555771,0.0117699224502,0.0037694836501,nan,nan,nan,0.000874109566212,0.000107575069705,-4.94191681355e-06,0.0,0.0,0.0,0.000107575069705,0.000492403341923,-1.30143062052e-05,0.0,0.0,0.0,-4.94191681355e-06,-1.30143062052e-05,0.000902173691429,0.0,0.0,0.0,0.0,0.0,0.0,-0.00122348091099,-0.00117555586621,0.0157599113882,0.0,0.0,0.0,0.0,0.0,0.0,0.0,0.0,0.0,0.0,0.0,0.0
116310440817,21,0,honey/haz_cam,0.0232153199613,0.00984078459442,0.00425079558045,nan,nan,nan,0.000899716163985,0.00010892831051,-8.44663827593e-06,0.0,0.0,0.0,0.00010892831051,0.000507794204168,-1.18318184832e-05,0.0,0.0,0.0,-8.44663827593e-06,-1.18318184832e-05,0.000926168228034,0.0,0.0,0.0,0.0,0.0,0.0,-0.0012298473157,-0.00118355150335,0.0165992751718,0.0,0.0,0.0,0.0,0.0,0.0,0.0,0.0,0.0,0.0,0.0,0.0
117320651102,22,0,honey/haz_cam,0.00830239243805,0.00760062457994,0.00427994690835,nan,nan,nan,0.00089411472436,0.000106274797872,-9.88970987237e-06,0.0,0.0,0.0,0.000106274797872,0.000498143665027,-1.15501443361e-05,0.0,0.0,0.0,-9.88970987237e-06,-1.15501443361e-05,0.000918269215617,0.0,0.0,0.0,0.0,0.0,0.0,-0.0012366680894,-0.00116682960652,0.0174639839679,0.0,0.0,0.0,0.0,0.0,0.0,0.0,0.0,0.0,0.0,0.0,0.0
118311012838,23,0,honey/haz_cam,-0.0037963478826,0.00532383238897,0.00437337951735,nan,nan,nan,0.000887339585461,9.98796967906e-05,-1.0071737961e-05,0.0,0.0,0.0,9.98796967906e-05,0.000491003331263,-7.84156145528e-06,0.0,0.0,0.0,-1.0071737961e-05,-7.84156145528e-06,0.000907848298084,0.0,0.0,0.0,0.0,0.0,0.0,-0.00123665784486,-0.00116494763643,0.0182554405183,0.0,0.0,0.0,0.0,0.0,0.0,0.0,0.0,0.0,0.0,0.0,0.0
119342363127,24,0,honey/haz_cam,-0.012824841775,0.00223218952306,0.00399253796786,0.000103531616332,-0.000207751101698,0.00885887909681,0.000882275984623,9.58169621299e-05,-6.88539239491e-06,0.0,0.0,0.0,9.58169621299e-05,0.000488311750814,-8.50051128509e-06,0.0,0.0,0.0,-6.88539239491e-06,-8.50051128509e-06,0.000900853832718,0.0,0.0,0.0,0.0,0.0,0.0,-0.00119235704187,-0.00114906672388,0.0191064812243,0.0,0.0,0.0,0.0,0.0,0.0,0.0,0.0,0.0,0.0,0.0,0.0
120301987546,25,0,honey/haz_cam,-0.0224992707372,-0.00137582002208,0.00374791328795,0.000194483931409,-0.000178894464625,0.0143095962703,0.000901080900803,9.52728951233e-05,-6.48351579002e-06,0.0,0.0,0.0,9.52728951233e-05,0.000500425288919,-1.20679405882e-05,0.0,0.0,0.0,-6.48351579002e-06,-1.20679405882e-05,0.000917877827305,0.0,0.0,0.0,0.0,0.0,0.0,-0.00115573965013,-0.00114383501932,0.0199623405933,0.0,0.0,0.0,0.0,0.0,0.0,0.0,0.0,0.0,0.0,0.0,0.0
121317769959,26,0,honey/haz_cam,-0.0325002409518,-0.00558582227677,0.00321290991269,0.000152830645675,-0.000201305709197,0.0167579595,0.000917015480809,8.87382338988e-05,-1.22463543448e-05,0.0,0.0,0.0,8.87382338988e-05,0.000503676244989,-1.25330734591e-05,0.0,0.0,0.0,-1.22463543448e-05,-1.25330734591e-05,0.00093457888579,0.0,0.0,0.0,0.0,0.0,0.0,-0.00112178153358,-0.00114743388258,0.0208294279873,0.0,0.0,0.0,0.0,0.0,0.0,0.0,0.0,0.0,0.0,0.0,0.0
122307430306,27,0,honey/haz_cam,-0.0396908298135,-0.00841374322772,0.00298028811812,0.000143593366374,-0.000140283431392,0.0133863072842,0.000904264103156,8.38319319882e-05,-1.26466638903e-05,0.0,0.0,0.0,8.38319319882e-05,0.000489879748784,-1.27386601889e-05,0.0,0.0,0.0,-1.26466638903e-05,-1.27386601889e-05,0.000917755416594,0.0,0.0,0.0,0.0,0.0,0.0,-0.00108751328662,-0.00117539055645,0.0215902961791,0.0,0.0,0.0,0.0,0.0,0.0,0.0,0.0,0.0,0.0,0.0,0.0
123317585626,28,0,honey/haz_cam,-0.0468675531447,-0.0104402927682,0.00252691959031,0.000149624072947,-0.000128745741677,0.0156662128866,0.000911576207727,7.63997086324e-05,-1.21194407257e-05,0.0,0.0,0.0,7.63997086324e-05,0.000491954793688,-1.22974424812e-05,0.0,0.0,0.0,-1.21194407257e-05,-1.22974424812e-05,0.000922022445593,0.0,0.0,0.0,0.0,0.0,0.0,-0.00100584048778,-0.00117082986981,0.0224198810756,0.0,0.0,0.0,0.0,0.0,0.0,0.0,0.0,0.0,0.0,0.0,0.0
124287491245,29,0,honey/haz_cam,-0.0517937205732,-0.0113328360021,0.00211862684228,8.48426498123e-05,-0.000139988973388,0.0127629265189,0.000903864041902,6.87723804731e-05,-1.29588252094e-05,0.0,0.0,0.0,6.87723804731e-05,0.000482601259137,-1.31570186568e-05,0.0,0.0,0.0,-1.29588252094e-05,-1.31570186568e-05,0.000910796516109,0.0,0.0,0.0,0.0,0.0,0.0,-0.00089795421809,-0.00121036288328,0.0232329461724,0.0,0.0,0.0,0.0,0.0,0.0,0.0,0.0,0.0,0.0,0.0,0.0
125286984533,30,0,honey/haz_cam,-0.0555588714778,-0.0113874766976,0.00205164588988,7.38005328458e-05,-9.06322748051e-05,0.0174711961299,0.000925154658034,5.881180914e-05,-1.28800475068e-05,0.0,0.0,0.0,5.881180914e-05,0.000493907777127,-1.34453212013e-05,0.0,0.0,0.0,-1.28800475068e-05,-1.34453212013e-05,0.000929924310185,0.0,0.0,0.0,0.0,0.0,0.0,-0.000757515896112,-0.00123965437524,0.0240636728704,0.0,0.0,0.0,0.0,0.0,0.0,0.0,0.0,0.0,0.0,0.0,0.0
126288698060,31,0,honey/haz_cam,-0.0597847700119,-0.0107298316434,0.00115512916818,-6.55245166854e-05,-4.2982166633e-05,0.0133904572576,0.000908118439838,4.93782936246e-05,-9.87274324871e-06,0.0,0.0,0.0,4.93782936246e-05,0.000481762865093,-1.10189175757e-05,0.0,0.0,0.0,-9.87274324871e-06,-1.10189175757e-05,0.000915925425943,0.0,0.0,0.0,0.0,0.0,0.0,-0.000667301006615,-0.00131331500597,0.0248739756644,0.0,0.0,0.0,0.0,0.0,0.0,0.0,0.0,0.0,0.0,0.0,0.0
127298631383,32,0,honey/haz_cam,-0.0760869458318,-0.00863143987954,0.000677413248923,-0.000519800640177,8.721951599e-05,0.0192291829735,0.000929516390897,3.90608365706e-05,-1.05380486275e-05,0.0,0.0,0.0,3.90608365706e-05,0.000494151550811,-1.23213012557e-05,0.0,0.0,0.0,-1.05380486275e-05,-1.23213012557e-05,0.00093477149494,0.0,0.0,0.0,0.0,0.0,0.0,-0.000660697929561,-0.00138266035356,0.0256436094642,0.0,0.0,0.0,0.0,0.0,0.0,0.0,0.0,0.0,0.0,0.0,0.0
128299600457,33,0,honey/haz_cam,-0.0850384309888,-0.00720761716366,0.00034798894194,-0.000335319084115,3.04728218907e-05,0.0167975928634,0.000928893045057,2.83074787149e-05,-1.18294246931e-05,0.0,0.0,0.0,2.83074787149e-05,0.000489483354613,-1.34622914629e-05,0.0,0.0,0.0,-1.18294246931e-05,-1.34622914629e-05,0.000933699891903,0.0,0.0,0.0,0.0,0.0,0.0,-0.00060961372219,-0.0014588618651,0.0264485403895,0.0,0.0,0.0,0.0,0.0,0.0,0.0,0.0,0.0,0.0,0.0,0.0
129320419053,34,0,honey/haz_cam,-0.0904329270124,-0.00552171329036,-0.000338878628099,-0.000321836880175,1.34786239414e-06,0.0185764692724,0.00093175121583,1.49537818288e-05,-9.83007339528e-06,0.0,0.0,0.0,1.49537818288e-05,0.000493527972139,-1.22494393509e-05,0.0,0.0,0.0,-9.83007339528e-06,-1.22494393509e-05,0.000940245634411,0.0,0.0,0.0,0.0,0.0,0.0,-0.00053190253675,-0.00155556108803,0.0271919034421,0.0,0.0,0.0,0.0,0.0,0.0,0.0,0.0,0.0,0.0,0.0,0.0
130300620243,35,0,honey/haz_cam,-0.0929179117084,-0.00441821431741,-0.000422104028985,-0.000266832154011,-3.58194884029e-05,0.0141077442095,0.000914564938284,7.01990029484e-06,-8.9506720542e-06,0.0,0.0,0.0,7.01990029484e-06,0.000480786984554,-1.15013936011e-05,0.0,0.0,0.0,-8.9506720542e-06,-1.15013936011e-05,0.000924445572309,0.0,0.0,0.0,0.0,0.0,0.0,-0.000533945159987,-0.00164155254606,0.0280269794166,0.0,0.0,0.0,0.0,0.0,0.0,0.0,0.0,0.0,0.0,0.0,0.0
131310367626,36,0,honey/haz_cam,-0.0945314615965,-0.00326583371498,-0.000579508137889,-0.000276847858913,-8.94898548722e-05,0.0136042488739,0.000910920614842,9.02286842575e-07,-8.76686772244e-06,0.0,0.0,0.0,9.02286842575e-07,0.000479523878312,-1.13969163067e-05,0.0,0.0,0.0,-8.76686772244e-06,-1.13969163067e-05,0.000921675469726,0.0,0.0,0.0,0.0,0.0,0.0,-0.00052909902297,-0.0017500994727,0.0287564769387,0.0,0.0,0.0,0.0,0.0,0.0,0.0,0.0,0.0,0.0,0.0,0.0
132381472338,37,0,honey/haz_cam,-0.0930921137333,-0.00164331181441,-0.000609912967775,-0.000282153458102,-8.54288446135e-05,0.0200375802815,0.000941878184676,-1.20969516502e-05,-9.82963501883e-06,0.0,0.0,0.0,-1.20969516502e-05,0.000502721697558,-1.2581070223e-05,0.0,0.0,0.0,-9.82963501883e-06,-1.2581070223e-05,0.000953589507844,0.0,0.0,0.0,0.0,0.0,0.0,-0.000542302150279,-0.0018440708518,0.0295193865895,0.0,0.0,0.0,0.0,0.0,0.0,0.0,0.0,0.0,0.0,0.0,0.0
133323919613,38,0,honey/haz_cam,-0.0879248902202,-0.000423555844463,-0.000165011224453,-8.58030180098e-05,-5.5155796872e-05,0.0161550734192,0.000937815348152,-1.98164962057e-05,-9.572716408e-06,0.0,0.0,0.0,-1.98164962057e-05,0.00049516512081,-1.24955395222e-05,0.0,0.0,0.0,-9.572716408e-06,-1.24955395222e-05,0.000946932355873,0.0,0.0,0.0,0.0,0.0,0.0,-0.000582693144679,-0.00193562579807,0.0302877351642,0.0,0.0,0.0,0.0,0.0,0.0,0.0,0.0,0.0,0.0,0.0,0.0
134325071550,39,0,honey/haz_cam,-0.066832177341,-1.84802247531e-05,0.000375397270545,0.000110192137072,-0.000128106039483,0.000210074707866,0.000937624485232,-2.56859239016e-05,-9.8339669421e-06,0.0,0.0,0.0,-2.56859239016e-05,0.000492297520395,-1.27263992908e-05,0.0,0.0,0.0,-9.8339669421e-06,-1.27263992908e-05,0.000943828432355,0.0,0.0,0.0,0.0,0.0,0.0,-0.000605175970122,-0.00202952534892,0.0310586541891,0.0,0.0,0.0,0.0,0.0,0.0,0.0,0.0,0.0,0.0,0.0,0.0
135327755999,40,0,honey/haz_cam,-0.0462825186551,-0.000142289078212,0.000607986410614,-0.000124438214698,-0.00010008202662,0.000440202711616,0.000936816155445,-2.71387671091e-05,-9.13036365091e-06,0.0,0.0,0.0,-2.71387671091e-05,0.00048906786833,-1.26921622723e-05,0.0,0.0,0.0,-9.13036365091e-06,-1.26921622723e-05,0.000940427707974,0.0,0.0,0.0,0.0,0.0,0.0,-0.000645784195513,-0.00211447104812,0.0318369567394,0.0,0.0,0.0,0.0,0.0,0.0,0.0,0.0,0.0,0.0,0.0,0.0
136335949951,41,0,honey/haz_cam,-0.0261519867927,-0.0005438325461,0.000604753324296,nan,nan,nan,0.000937600503676,-2.39966157096e-05,-8.01214901003e-06,0.0,0.0,0.0,-2.39966157096e-05,0.000488227553433,-1.32555578602e-05,0.0,0.0,0.0,-8.01214901003e-06,-1.32555578602e-05,0.000936449854635,0.0,0.0,0.0,0.0,0.0,0.0,-0.000723240198568,-0.00218948861584,0.0326169803739,0.0,0.0,0.0,0.0,0.0,0.0,0.0,0.0,0.0,0.0,0.0,0.0
137340034519,42,0,honey/haz_cam,-0.00913872104138,-0.000630582740996,0.000368256442016,nan,nan,nan,0.000935444142669,-2.00135655177e-05,-5.75364765609e-06,0.0,0.0,0.0,-2.00135655177e-05,0.000487017328851,-1.17569697977e-05,0.0,0.0,0.0,-5.75364765609e-06,-1.17569697977e-05,0.000931260874495,0.0,0.0,0.0,0.0,0.0,0.0,-0.000817625783384,-0.00225329282694,0.0333192609251,0.0,0.0,0.0,0.0,0.0,0.0,0.0,0.0,0.0,0.0,0.0,0.0
138320414260,43,0,honey/haz_cam,0.00450999196619,-0.000549881719053,0.000504694413394,nan,nan,nan,0.000936058349907,-1.3704146113e-05,-6.24150470685e-06,0.0,0.0,0.0,-1.3704146113e-05,0.000485843338538,-1.39723615575e-05,0.0,0.0,0.0,-6.24150470685e-06,-1.39723615575e-05,0.00093071453739,0.0,0.0,0.0,0.0,0.0,0.0,-0.000865016132593,-0.00232715834863,0.0341429561377,0.0,0.0,0.0,0.0,0.0,0.0,0.0,0.0,0.0,0.0,0.0,0.0
139301251718,44,0,honey/haz_cam,0.0157535914332,-0.000343421299476,0.000667888205498,5.82443681196e-05,-0.000103422673419,0.000817928579636,0.000944150087889,-1.16441187856e-05,-4.77662615594e-06,0.0,0.0,0.0,-1.16441187856e-05,0.000491701939609,-1.11657809612e-05,0.0,0.0,0.0,-4.77662615594e-06,-1.11657809612e-05,0.000937871460337,0.0,0.0,0.0,0.0,0.0,0.0,-0.00100584607571,-0.00237659900449,0.0348066054285,0.0,0.0,0.0,0.0,0.0,0.0,0.0,0.0,0.0,0.0,0.0,0.0
140415140081,45,0,honey/haz_cam,0.0218953080475,0.000119465665193,0.000715853821021,6.18716658209e-05,-3.70188317902e-05,0.000584971217904,0.000931222457439,-8.48448235047e-06,-5.37021105629e-06,0.0,0.0,0.0,-8.48448235047e-06,0.000479418376926,-1.16030869322e-05,0.0,0.0,0.0,-5.37021105629e-06,-1.16030869322e-05,0.000926226144657,0.0,0.0,0.0,0.0,0.0,0.0,-0.00104403914884,-0.00245835236274,0.0356019511819,0.0,0.0,0.0,0.0,0.0,0.0,0.0,0.0,0.0,0.0,0.0,0.0
141337848058,46,0,honey/haz_cam,0.0265404153615,0.000292507262202,0.000668948225211,1.47158280015e-05,-5.10697427671e-05,0.000448007136583,0.000941429112572,-5.38459835298e-06,-5.38043468623e-06,0.0,0.0,0.0,-5.38459835298e-06,0.000486271921545,-1.08549447759e-05,0.0,0.0,0.0,-5.38043468623e-06,-1.08549447759e-05,0.000936829310376,0.0,0.0,0.0,0.0,0.0,0.0,-0.00116757955402,-0.00248608225957,0.0364380255342,0.0,0.0,0.0,0.0,0.0,0.0,0.0,0.0,0.0,0.0,0.0,0.0
142337803514,47,0,honey/haz_cam,0.0287063177675,0.000403016398195,0.000348298781319,nan,nan,nan,0.000935587449931,-3.99476130042e-06,-5.9798944676e-06,0.0,0.0,0.0,-3.99476130042e-06,0.000480103539303,-1.12336401799e-05,0.0,0.0,0.0,-5.9798944676e-06,-1.12336401799e-05,0.000931525893975,0.0,0.0,0.0,0.0,0.0,0.0,-0.00125539302826,-0.00252711586654,0.0372482761741,0.0,0.0,0.0,0.0,0.0,0.0,0.0,0.0,0.0,0.0,0.0,0.0
143347629412,48,0,honey/haz_cam,0.0291027985513,0.000270827295026,0.000577972328756,0.000378978438675,-0.000108770269435,0.0172233022749,0.000948077009525,-2.36206824411e-06,-6.70629424349e-06,0.0,0.0,0.0,-2.36206824411e-06,0.000487790995976,-1.08556423584e-05,0.0,0.0,0.0,-6.70629424349e-06,-1.08556423584e-05,0.000944299274124,0.0,0.0,0.0,0.0,0.0,0.0,-0.0013787234202,-0.00254933163524,0.038027215749,0.0,0.0,0.0,0.0,0.0,0.0,0.0,0.0,0.0,0.0,0.0,0.0
144347571360,49,0,honey/haz_cam,0.0247662216425,-0.000238325432292,0.000749277009163,0.000149004816194,-5.09766505274e-05,0.0134012876078,0.000943544204347,-3.50461300513e-06,-7.34467721486e-06,0.0,0.0,0.0,-3.50461300513e-06,0.000482334435219,-1.06602010419e-05,0.0,0.0,0.0,-7.34467721486e-06,-1.06602010419e-05,0.00093998410739,0.0,0.0,0.0,0.0,0.0,0.0,-0.00146492337808,-0.00257877027616,0.0388650260866,0.0,0.0,0.0,0.0,0.0,0.0,0.0,0.0,0.0,0.0,0.0,0.0
145302344068,50,0,honey/haz_cam,0.0202773120254,-0.000881657353602,0.000909343594685,0.000213623105083,-8.30071221571e-05,0.0140960346907,0.000941942736972,-5.74248861085e-06,-7.93623894424e-06,0.0,0.0,0.0,-5.74248861085e-06,0.000480305636302,-1.04129312604e-05,0.0,0.0,0.0,-7.93623894424e-06,-1.04129312604e-05,0.000939067627769,0.0,0.0,0.0,0.0,0.0,0.0,-0.00155766075477,-0.00259081553668,0.0396937653422,0.0,0.0,0.0,0.0,0.0,0.0,0.0,0.0,0.0,0.0,0.0,0.0
146322205586,51,0,honey/haz_cam,0.0126713439822,-0.000924467050936,0.000643500301521,0.000163137898198,-5.79221850785e-05,0.012604335323,0.000931923277676,-1.01555433503e-05,-9.15043437999e-06,0.0,0.0,0.0,-1.01555433503e-05,0.000471934559755,-9.37514141697e-06,0.0,0.0,0.0,-9.15043437999e-06,-9.37514141697e-06,0.000928080931772,0.0,0.0,0.0,0.0,0.0,0.0,-0.00166838569567,-0.00259429961443,0.0405164733529,0.0,0.0,0.0,0.0,0.0,0.0,0.0,0.0,0.0,0.0,0.0,0.0
147347521696,52,0,honey/haz_cam,0.000633720774204,-0.000220852190978,3.2676383853e-05,0.000117727140605,-8.9093533461e-05,0.0169086549431,0.000945450447034,-1.51772419485e-05,-1.03519878394e-05,0.0,0.0,0.0,-1.51772419485e-05,0.000483143579913,-1.10945702545e-05,0.0,0.0,0.0,-1.03519878394e-05,-1.10945702545e-05,0.000944091414567,0.0,0.0,0.0,0.0,0.0,0.0,-0.00171011360362,-0.00258322339505,0.0413582846522,0.0,0.0,0.0,0.0,0.0,0.0,0.0,0.0,0.0,0.0,0.0,0.0
148317498792,53,0,honey/haz_cam,-0.0120223201811,0.00014921661932,-0.000163438628078,4.09616441175e-05,-8.80574370967e-05,0.0144413579255,0.00093583879061,-2.42892638198e-05,-1.09911106847e-05,0.0,0.0,0.0,-2.42892638198e-05,0.000476713525131,-1.05769731817e-05,0.0,0.0,0.0,-1.09911106847e-05,-1.05769731817e-05,0.000933863339014,0.0,0.0,0.0,0.0,0.0,0.0,-0.00171872705687,-0.0026317127049,0.0422689914703,0.0,0.0,0.0,0.0,0.0,0.0,0.0,0.0,0.0,0.0,0.0,0.0
149287334083,54,0,honey/haz_cam,-0.0248142499477,0.000665366183966,-3.97248659283e-05,3.02662519971e-05,-0.000114604801638,0.0170418825001,0.000944376399275,-3.60399244528e-05,-1.21881212181e-05,0.0,0.0,0.0,-3.60399244528e-05,0.000485488475533,-1.00518282125e-05,0.0,0.0,0.0,-1.21881212181e-05,-1.00518282125e-05,0.000940695987083,0.0,0.0,0.0,0.0,0.0,0.0,-0.00174824497662,-0.00264119170606,0.0431595183909,0.0,0.0,0.0,0.0,0.0,0.0,0.0,0.0,0.0,0.0,0.0,0.0
150287102565,55,0,honey/haz_cam,-0.0431142672896,0.00166028051171,-3.50460977643e-05,-0.000229850498727,-0.000100811535958,0.0131140770391,0.000924756168388,-4.67627323815e-05,-1.14849099191e-05,0.0,0.0,0.0,-4.67627323815e-05,0.000476466782857,-9.24445794226e-06,0.0,0.0,0.0,-1.14849099191e-05,-9.24445794226e-06,0.000923737767152,0.0,0.0,0.0,0.0,0.0,0.0,-0.00179054192267,-0.00261662621051,0.0440326817334,0.0,0.0,0.0,0.0,0.0,0.0,0.0,0.0,0.0,0.0,0.0,0.0
151307402127,56,0,honey/haz_cam,-0.0658631026745,0.0031234328635,-0.000139852883876,-0.000456504611066,-0.000199821966817,0.0182056818157,0.000940076308325,-6.12341391388e-05,-1.188652368e-05,0.0,0.0,0.0,-6.12341391388e-05,0.000497300876305,-9.71964709606e-06,0.0,0.0,0.0,-1.188652368e-05,-9.71964709606e-06,0.000946118670981,0.0,0.0,0.0,0.0,0.0,0.0,-0.00179230328649,-0.00259853340685,0.0449084714055,0.0,0.0,0.0,0.0,0.0,0.0,0.0,0.0,0.0,0.0,0.0,0.0
152307422993,57,0,honey/haz_cam,-0.0777759552002,0.00452000554651,4.10933425883e-05,-0.000107998093881,-9.76339215413e-05,0.0152227347717,0.000930088106543,-7.25972131477e-05,-1.07160913103e-05,0.0,0.0,0.0,-7.25972131477e-05,0.000500280293636,-1.07435098471e-05,0.0,0.0,0.0,-1.07160913103e-05,-1.07435098471e-05,0.000943584775086,0.0,0.0,0.0,0.0,0.0,0.0,-0.00171519629657,-0.00263948040083,0.0458017252386,0.0,0.0,0.0,0.0,0.0,0.0,0.0,0.0,0.0,0.0,0.0,0.0
153319630548,58,0,honey/haz_cam,-0.0847000405192,0.00593374297023,0.000219577443204,-2.34707404161e-05,-5.3658754041e-05,0.0148155968636,0.000925321131945,-8.16702813609e-05,-1.08623607957e-05,0.0,0.0,0.0,-8.16702813609e-05,0.000505308096763,-1.13385794975e-05,0.0,0.0,0.0,-1.08623607957e-05,-1.13385794975e-05,0.000944767904002,0.0,0.0,0.0,0.0,0.0,0.0,-0.00167511869222,-0.00265553221107,0.0466748811305,0.0,0.0,0.0,0.0,0.0,0.0,0.0,0.0,0.0,0.0,0.0,0.0
154350645251,59,0,honey/haz_cam,-0.0876434743404,0.00688491482288,0.000403908110457,1.34283015996e-06,-4.12907393184e-05,0.0129759516567,0.000915043288842,-8.73301396496e-05,-9.9555354609e-06,0.0,0.0,0.0,-8.73301396496e-05,0.000504302734043,-1.10747387225e-05,0.0,0.0,0.0,-9.9555354609e-06,-1.10747387225e-05,0.000937144272029,0.0,0.0,0.0,0.0,0.0,0.0,-0.00163376983255,-0.00268293917179,0.0475984551013,0.0,0.0,0.0,0.0,0.0,0.0,0.0,0.0,0.0,0.0,0.0,0.0
155351218631,60,0,honey/haz_cam,-0.0874051451683,0.00790825579315,0.000611073686741,1.84830548733e-06,-3.61467209586e-05,0.0176366847008,0.000933201867156,-9.86054874375e-05,-1.12927928058e-05,0.0,0.0,0.0,-9.86054874375e-05,0.000526012037881,-1.13572441478e-05,0.0,0.0,0.0,-1.12927928058e-05,-1.13572441478e-05,0.000961719546467,0.0,0.0,0.0,0.0,0.0,0.0,-0.00160381104797,-0.00270864367485,0.0483852699399,0.0,0.0,0.0,0.0,0.0,0.0,0.0,0.0,0.0,0.0,0.0,0.0
156321815941,61,0,honey/haz_cam,-0.0851911380887,0.0088057583198,0.000659703451674,2.04970911e-05,-1.33187522806e-05,0.0119283944368,0.000908388698008,-0.000101535428257,-1.00774950624e-05,0.0,0.0,0.0,-0.000101535428257,0.000509343342856,-1.06579573185e-05,0.0,0.0,0.0,-1.00774950624e-05,-1.06579573185e-05,0.000937895791139,0.0,0.0,0.0,0.0,0.0,0.0,-0.00150289945304,-0.00276065757498,0.0492815375328,0.0,0.0,0.0,0.0,0.0,0.0,0.0,0.0,0.0,0.0,0.0,0.0
157332127424,62,0,honey/haz_cam,-0.0792039334774,0.00957707967609,0.00092528067762,-1.31555607368e-05,-5.9209556639e-05,0.0144000044093,0.000921845727134,-0.000109797103505,-9.65706385614e-06,0.0,0.0,0.0,-0.000109797103505,0.000524824019521,-1.02928152046e-05,0.0,0.0,0.0,-9.65706385614e-06,-1.02928152046e-05,0.000953208829742,0.0,0.0,0.0,0.0,0.0,0.0,-0.00143925566226,-0.00281608710065,0.0501772165298,0.0,0.0,0.0,0.0,0.0,0.0,0.0,0.0,0.0,0.0,0.0,0.0
158322102841,63,0,honey/haz_cam,-0.0625755339861,0.00936711579561,0.00123109237757,nan,nan,nan,0.000925180560444,-0.000116906150652,-8.99148199096e-06,0.0,0.0,0.0,-0.000116906150652,0.000528753444087,-1.07252053567e-05,0.0,0.0,0.0,-8.99148199096e-06,-1.07252053567e-05,0.000958265503868,0.0,0.0,0.0,0.0,0.0,0.0,-0.001359840855,-0.00287694041617,0.050958506763,0.0,0.0,0.0,0.0,0.0,0.0,0.0,0.0,0.0,0.0,0.0,0.0
159353361945,64,0,honey/haz_cam,-0.043821003288,0.00827787816525,0.00116110045929,-1.08414678834e-05,-9.47974040173e-05,0.000551909208298,0.000921680650208,-0.000119759628433,-9.57026441029e-06,0.0,0.0,0.0,-0.000119759628433,0.000523751659784,-1.053701817e-05,0.0,0.0,0.0,-9.57026441029e-06,-1.053701817e-05,0.000953081122134,0.0,0.0,0.0,0.0,0.0,0.0,-0.00133315660059,-0.0029477532953,0.0517714507878,0.0,0.0,0.0,0.0,0.0,0.0,0.0,0.0,0.0,0.0,0.0,0.0
160344908377,65,0,honey/haz_cam,-0.0297920256853,0.00734099419788,0.00119434797671,nan,nan,nan,0.000898117548786,-0.000116251467261,-8.77155707713e-06,0.0,0.0,0.0,-0.000116251467261,0.000502503535245,-9.88846477412e-06,0.0,0.0,0.0,-8.77155707713e-06,-9.88846477412e-06,0.000925885804463,0.0,0.0,0.0,0.0,0.0,0.0,-0.00124862138182,-0.00303211598657,0.0525913909078,0.0,0.0,0.0,0.0,0.0,0.0,0.0,0.0,0.0,0.0,0.0,0.0
161311805370,66,0,honey/haz_cam,-0.0150028113276,0.005849564448,0.00144964654464,-1.2086415154e-05,-2.99627026834e-05,0.000395551382098,0.000910071306862,-0.000115370996355,-9.9121407402e-06,0.0,0.0,0.0,-0.000115370996355,0.000509764708113,-1.00713314168e-05,0.0,0.0,0.0,-9.9121407402e-06,-1.00713314168e-05,0.000935437099542,0.0,0.0,0.0,0.0,0.0,0.0,-0.00120194163173,-0.00312150921673,0.0533360689878,0.0,0.0,0.0,0.0,0.0,0.0,0.0,0.0,0.0,0.0,0.0,0.0
162317659706,67,0,honey/haz_cam,-0.000985398422927,0.0040940688923,0.00147325382568,nan,nan,nan,0.000921898463275,-0.000114398302685,-1.0920765817e-05,0.0,0.0,0.0,-0.000114398302685,0.000515715917572,-1.021438311e-05,0.0,0.0,0.0,-1.0920765817e-05,-1.021438311e-05,0.000945855572354,0.0,0.0,0.0,0.0,0.0,0.0,-0.00114471558481,-0.00320821534842,0.0541260540485,0.0,0.0,0.0,0.0,0.0,0.0,0.0,0.0,0.0,0.0,0.0,0.0
163313596579,68,0,honey/haz_cam,0.00968134123832,0.00246070371941,0.00194635335356,nan,nan,nan,0.000924790976569,-0.000112492547487,-1.11942363219e-05,0.0,0.0,0.0,-0.000112492547487,0.000513817241881,-1.02112835521e-05,0.0,0.0,0.0,-1.11942363219e-05,-1.02112835521e-05,0.000947547785472,0.0,0.0,0.0,0.0,0.0,0.0,-0.00108092371374,-0.00330018019304,0.0548991188407,0.0,0.0,0.0,0.0,0.0,0.0,0.0,0.0,0.0,0.0,0.0,0.0
164333933359,69,0,honey/haz_cam,0.01739484258,0.000844449619763,0.00166163954418,nan,nan,nan,0.000928042340092,-0.000110565575596,-1.31734614115e-05,0.0,0.0,0.0,-0.000110565575596,0.000513369624969,-9.99999974738e-06,0.0,0.0,0.0,-1.31734614115e-05,-9.99999974738e-06,0.000949972192757,0.0,0.0,0.0,0.0,0.0,0.0,-0.00106668379158,-0.0033977557905,0.0556538999081,0.0,0.0,0.0,0.0,0.0,0.0,0.0,0.0,0.0,0.0,0.0,0.0
165374781744,70,0,honey/haz_cam,0.022233273834,-0.000883506087121,0.00124324823264,nan,nan,nan,0.000926637556404,-0.00010453039431,-1.1230693417e-05,0.0,0.0,0.0,-0.00010453039431,0.000512052793056,-1.03188158391e-05,0.0,0.0,0.0,-1.1230693417e-05,-1.03188158391e-05,0.000948355882429,0.0,0.0,0.0,0.0,0.0,0.0,-0.00104776886292,-0.00350641645491,0.0565590336919,0.0,0.0,0.0,0.0,0.0,0.0,0.0,0.0,0.0,0.0,0.0,0.0
166315892549,71,0,honey/haz_cam,0.0243692863733,-0.00210401555523,0.00100376061164,nan,nan,nan,0.000923420710023,-0.000101273988548,-1.03523561847e-05,0.0,0.0,0.0,-0.000101273988548,0.000509215809871,-1.04064993138e-05,0.0,0.0,0.0,-1.03523561847e-05,-1.04064993138e-05,0.000944907835219,0.0,0.0,0.0,0.0,0.0,0.0,-0.00103023042902,-0.00360207306221,0.0572919845581,0.0,0.0,0.0,0.0,0.0,0.0,0.0,0.0,0.0,0.0,0.0,0.0
167319793928,72,0,honey/haz_cam,0.0260247774422,-0.0034095228184,0.000817764259409,-3.62044120266e-05,-0.000181698662345,-0.0098576657474,0.000920802878682,-9.90757253021e-05,-9.45726242207e-06,0.0,0.0,0.0,-9.90757253021e-05,0.000506831449457,-1.03205211417e-05,0.0,0.0,0.0,-9.45726242207e-06,-1.03205211417e-05,0.000941953796428,0.0,0.0,0.0,0.0,0.0,0.0,-0.00103768939152,-0.00370657350868,0.058062389493,0.0,0.0,0.0,0.0,0.0,0.0,0.0,0.0,0.0,0.0,0.0,0.0
168319251045,73,0,honey/haz_cam,0.0231975764036,-0.00465055461973,0.000832929101307,-0.000242585403612,-0.000163930366398,-0.0110096633434,0.000904475804418,-9.68635213212e-05,-7.59967042541e-06,0.0,0.0,0.0,-9.68635213212e-05,0.000495433283504,-9.88077044894e-06,0.0,0.0,0.0,-7.59967042541e-06,-9.88077044894e-06,0.000926706416067,0.0,0.0,0.0,0.0,0.0,0.0,-0.00110324448906,-0.00376535160467,0.0587782040238,0.0,0.0,0.0,0.0,0.0,0.0,0.0,0.0,0.0,0.0,0.0,0.0
169328905395,74,0,honey/haz_cam,0.0232456326485,-0.00582368625328,0.000431351683801,-0.000187753612408,-0.00014068793098,-0.0123220216483,0.000913860392757,-9.38745724852e-05,-7.87582666817e-06,0.0,0.0,0.0,-9.38745724852e-05,0.000499184883665,-1.01496661955e-05,0.0,0.0,0.0,-7.87582666817e-06,-1.01496661955e-05,0.00093491433654,0.0,0.0,0.0,0.0,0.0,0.0,-0.00109711196274,-0.00386983109638,0.0595489777625,0.0,0.0,0.0,0.0,0.0,0.0,0.0,0.0,0.0,0.0,0.0,0.0
170320413174,75,0,honey/haz_cam,0.0258632451296,-0.00700305122882,-0.000155872083269,-0.000101280587842,-0.000102262885775,-0.0166468024254,0.000950061832555,-8.89537477633e-05,-1.4122232642e-05,0.0,0.0,0.0,-8.89537477633e-05,0.000513199018314,-9.80377262749e-06,0.0,0.0,0.0,-1.4122232642e-05,-9.80377262749e-06,0.000965026265476,0.0,0.0,0.0,0.0,0.0,0.0,-0.00108836730942,-0.00399796385318,0.0604313537478,0.0,0.0,0.0,0.0,0.0,0.0,0.0,0.0,0.0,0.0,0.0,0.0
171301019494,76,0,honey/haz_cam,0.0304849538952,-0.00711599877104,-0.000479395326693,2.09255031223e-05,-0.000114471644338,-0.0170420762151,0.000950357702095,-8.14218437881e-05,-1.23258669191e-05,0.0,0.0,0.0,-8.14218437881e-05,0.000508656958118,-1.14791464512e-05,0.0,0.0,0.0,-1.23258669191e-05,-1.14791464512e-05,0.000967430358287,0.0,0.0,0.0,0.0,0.0,0.0,-0.00124765979126,-0.00401145871729,0.0610981434584,0.0,0.0,0.0,0.0,0.0,0.0,0.0,0.0,0.0,0.0,0.0,0.0
172321574755,77,0,honey/haz_cam,0.0349098928273,-0.00709635205567,-0.000647110922728,1.26054001157e-05,-8.56756159919e-05,-0.0130226565525,0.000927338027395,-7.44468197809e-05,-1.00805928014e-05,0.0,0.0,0.0,-7.44468197809e-05,0.000489594123792,-1.10267037599e-05,0.0,0.0,0.0,-1.00805928014e-05,-1.10267037599e-05,0.000944360508583,0.0,0.0,0.0,0.0,0.0,0.0,-0.00129635864869,-0.00406343350187,0.0618319548666,0.0,0.0,0.0,0.0,0.0,0.0,0.0,0.0,0.0,0.0,0.0,0.0
173321604162,78,0,honey/haz_cam,0.0398118682206,-0.00650229724124,-0.000737227848731,-2.37829635807e-06,-0.000104489037767,-0.0163613855839,0.000934717594646,-6.78245196468e-05,-8.96266010386e-06,0.0,0.0,0.0,-6.78245196468e-05,0.000496082648169,-1.11462968562e-05,0.0,0.0,0.0,-8.96266010386e-06,-1.11462968562e-05,0.000951963360421,0.0,0.0,0.0,0.0,0.0,0.0,-0.00140241347253,-0.00409528845921,0.0625225529075,0.0,0.0,0.0,0.0,0.0,0.0,0.0,0.0,0.0,0.0,0.0,0.0
174312705657,79,0,honey/haz_cam,0.0464145205915,-0.00596759654582,-0.000712738721631,2.60634806182e-05,-4.37600465375e-05,-0.0132759772241,0.000923000334296,-5.86865680816e-05,-7.69148300606e-06,0.0,0.0,0.0,-5.86865680816e-05,0.000488020101329,-9.91070646705e-06,0.0,0.0,0.0,-7.69148300606e-06,-9.91070646705e-06,0.000941669859458,0.0,0.0,0.0,0.0,0.0,0.0,-0.00149781536311,-0.00410546921194,0.0634823739529,0.0,0.0,0.0,0.0,0.0,0.0,0.0,0.0,0.0,0.0,0.0,0.0
175315793500,80,0,honey/haz_cam,0.0594364739954,-0.0046272855252,-0.000785266514868,0.000352786504664,1.39196536111e-05,-0.0129418866709,0.000915948825423,-4.94586747664e-05,-6.82972176946e-06,0.0,0.0,0.0,-4.94586747664e-05,0.000487382960273,-9.92957666313e-06,0.0,0.0,0.0,-6.82972176946e-06,-9.92957666313e-06,0.000938003999181,0.0,0.0,0.0,0.0,0.0,0.0,-0.00161427818239,-0.00408619362861,0.0643680393696,0.0,0.0,0.0,0.0,0.0,0.0,0.0,0.0,0.0,0.0,0.0,0.0
176305978450,81,0,honey/haz_cam,0.0682495161891,-0.00278738397174,-0.000957107229624,8.7990090833e-05,-5.0535210903e-05,-0.0153337847441,0.000927976972889,-3.9830323658e-05,-6.66083087708e-06,0.0,0.0,0.0,-3.9830323658e-05,0.000500013469718,-1.03258262243e-05,0.0,0.0,0.0,-6.66083087708e-06,-1.03258262243e-05,0.000953947252128,0.0,0.0,0.0,0.0,0.0,0.0,-0.00172878243029,-0.00410672277212,0.0651502460241,0.0,0.0,0.0,0.0,0.0,0.0,0.0,0.0,0.0,0.0,0.0,0.0
177345603927,82,0,honey/haz_cam,0.0745629295707,-0.00144907017238,-0.00104661623482,0.000126134240418,-6.00538551225e-05,-0.0175193082541,0.000938143231906,-2.9120266845e-05,-6.24232006885e-06,0.0,0.0,0.0,-2.9120266845e-05,0.000507029821165,-1.01222694866e-05,0.0,0.0,0.0,-6.24232006885e-06,-1.01222694866e-05,0.000965328421444,0.0,0.0,0.0,0.0,0.0,0.0,-0.00181235000491,-0.00411309208721,0.0659290254116,0.0,0.0,0.0,0.0,0.0,0.0,0.0,0.0,0.0,0.0,0.0,0.0
178336129622,83,0,honey/haz_cam,0.082532055676,-0.00113025750034,-0.00101206940599,0.000310985691613,-0.00010242593271,-0.0166713465005,0.0009343039128,-1.87345176528e-05,-6.21023400527e-06,0.0,0.0,0.0,-1.87345176528e-05,0.000506894837599,-1.00802726593e-05,0.0,0.0,0.0,-6.21023400527e-06,-1.00802726593e-05,0.000964976905379,0.0,0.0,0.0,0.0,0.0,0.0,-0.00191626790911,-0.00414702109993,0.0667828917503,0.0,0.0,0.0,0.0,0.0,0.0,0.0,0.0,0.0,0.0,0.0,0.0
179378375605,84,0,honey/haz_cam,0.0881191939116,-0.000923378916923,-0.000788649078459,0.000198415116756,-0.00012216369214,-0.0175605304539,0.000938584562391,-6.25310622127e-06,-6.76652553011e-06,0.0,0.0,0.0,-6.25310622127e-06,0.000516208121553,-1.03259553725e-05,0.0,0.0,0.0,-6.76652553011e-06,-1.03259553725e-05,0.00097428704612,0.0,0.0,0.0,0.0,0.0,0.0,-0.00202240701765,-0.00417087320238,0.0676723644137,0.0,0.0,0.0,0.0,0.0,0.0,0.0,0.0,0.0,0.0,0.0,0.0
180317996206,85,0,honey/haz_cam,0.0858929306269,-0.000434662651969,-0.000532859063242,-3.3336928027e-05,-6.20640566922e-05,-0.01468173787,0.000929697067477,1.03636364202e-06,-6.55927624393e-06,0.0,0.0,0.0,1.03636364202e-06,0.000509175413754,-1.03078718894e-05,0.0,0.0,0.0,-6.55927624393e-06,-1.03078718894e-05,0.000962496444117,0.0,0.0,0.0,0.0,0.0,0.0,-0.00214571226388,-0.00414479337633,0.0684725940228,0.0,0.0,0.0,0.0,0.0,0.0,0.0,0.0,0.0,0.0,0.0,0.0
181319215397,86,0,honey/haz_cam,0.0764437839389,0.000706080056261,-0.000736568763386,-0.000104751408799,-0.000128083716845,-0.0172806344926,0.000937245960813,8.68480310601e-06,-7.34574496164e-06,0.0,0.0,0.0,8.68480310601e-06,0.000512671191245,-1.05452736534e-05,0.0,0.0,0.0,-7.34574496164e-06,-1.05452736534e-05,0.000965700892266,0.0,0.0,0.0,0.0,0.0,0.0,-0.00222958344966,-0.00417740829289,0.0694421827793,0.0,0.0,0.0,0.0,0.0,0.0,0.0,0.0,0.0,0.0,0.0,0.0
182319588640,87,0,honey/haz_cam,0.0665251016617,0.000768476282246,-0.000526150397491,-5.69744152017e-05,-0.000147201528307,0.000496843829751,0.000915362965316,1.01964542409e-05,-6.78719516145e-06,0.0,0.0,0.0,1.01964542409e-05,0.000491245125886,-1.02979147414e-05,0.0,0.0,0.0,-6.78719516145e-06,-1.02979147414e-05,0.000936984142754,0.0,0.0,0.0,0.0,0.0,0.0,-0.00233769183978,-0.0041451510042,0.0703152418137,0.0,0.0,0.0,0.0,0.0,0.0,0.0,0.0,0.0,0.0,0.0,0.0
183323695678,88,0,honey/haz_cam,0.0481938198209,0.00133247859776,-0.000783345312811,nan,nan,nan,0.000941536389291,1.46004622366e-05,-8.04863066151e-06,0.0,0.0,0.0,1.46004622366e-05,0.000504876603372,-1.03358524939e-05,0.0,0.0,0.0,-8.04863066151e-06,-1.03358524939e-05,0.000954909890424,0.0,0.0,0.0,0.0,0.0,0.0,-0.00233137188479,-0.00418481789529,0.0711994692683,0.0,0.0,0.0,0.0,0.0,0.0,0.0,0.0,0.0,0.0,0.0,0.0
184303858510,89,0,honey/haz_cam,0.0304297730327,0.00149594887625,-0.000365256157238,nan,nan,nan,0.000942125101574,1.35368991323e-05,-7.34573313821e-06,0.0,0.0,0.0,1.35368991323e-05,0.000494852720294,-9.82868459687e-06,0.0,0.0,0.0,-7.34573313821e-06,-9.82868459687e-06,0.000946630898397,0.0,0.0,0.0,0.0,0.0,0.0,-0.00237970799208,-0.00415768008679,0.0721707046032,0.0,0.0,0.0,0.0,0.0,0.0,0.0,0.0,0.0,0.0,0.0,0.0
185325482182,90,0,honey/haz_cam,0.0148853287101,0.00153593940195,-0.000275909114862,nan,nan,nan,0.000940757512581,1.0280297829e-05,-6.39430754745e-06,0.0,0.0,0.0,1.0280297829e-05,0.000486928358441,-8.83425764187e-06,0.0,0.0,0.0,-6.39430754745e-06,-8.83425764187e-06,0.000939101795666,0.0,0.0,0.0,0.0,0.0,0.0,-0.00240534450859,-0.00413338840008,0.073111385107,0.0,0.0,0.0,0.0,0.0,0.0,0.0,0.0,0.0,0.0,0.0,0.0
186345128686,91,0,honey/haz_cam,0.000427719700383,0.00136642239522,-0.000688728818204,nan,nan,nan,0.000943930004723,6.66870346322e-06,-6.08324853602e-06,0.0,0.0,0.0,6.66870346322e-06,0.000485504220705,-9.32927650865e-06,0.0,0.0,0.0,-6.08324853602e-06,-9.32927650865e-06,0.000940325611737,0.0,0.0,0.0,0.0,0.0,0.0,-0.00245907530189,-0.00413674209267,0.0741221010685,0.0,0.0,0.0,0.0,0.0,0.0,0.0,0.0,0.0,0.0,0.0,0.0
187304354059,92,0,honey/haz_cam,-0.00914871320128,0.0011027068831,-0.00084972922923,nan,nan,nan,0.000926425564103,2.85662554234e-06,-5.88256443734e-06,0.0,0.0,0.0,2.85662554234e-06,0.000472457526485,-9.89220734482e-06,0.0,0.0,0.0,-5.88256443734e-06,-9.89220734482e-06,0.000923134852201,0.0,0.0,0.0,0.0,0.0,0.0,-0.00251633953303,-0.00412460137159,0.0750629454851,0.0,0.0,0.0,0.0,0.0,0.0,0.0,0.0,0.0,0.0,0.0,0.0
188343593079,93,0,honey/haz_cam,-0.0180830731988,0.000807810924016,-0.00101857737172,-3.13328346238e-05,-0.00011772318976,0.000378118827939,0.000946886022575,-8.05725107966e-07,-7.38748622098e-06,0.0,0.0,0.0,-8.05725107966e-07,0.000487516314024,-1.1061605619e-05,0.0,0.0,0.0,-7.38748622098e-06,-1.1061605619e-05,0.000942663056776,0.0,0.0,0.0,0.0,0.0,0.0,-0.00251628784463,-0.00410153530538,0.0759492442012,0.0,0.0,0.0,0.0,0.0,0.0,0.0,0.0,0.0,0.0,0.0,0.0
189364826358,94,0,honey/haz_cam,-0.0228508338332,0.000526269082911,-0.000769661564846,nan,nan,nan,0.000923541549128,-3.78280992663e-06,-6.62202955937e-06,0.0,0.0,0.0,-3.78280992663e-06,0.000472002691822,-1.00868310255e-05,0.0,0.0,0.0,-6.62202955937e-06,-1.00868310255e-05,0.000921329599805,0.0,0.0,0.0,0.0,0.0,0.0,-0.00239732023329,-0.00416114274412,0.0769912227988,0.0,0.0,0.0,0.0,0.0,0.0,0.0,0.0,0.0,0.0,0.0,0.0
190314487650,95,0,honey/haz_cam,-0.0256411004812,0.000611766532529,-0.000424514961196,-9.58709824772e-06,-4.76523127872e-05,-0.00193687272258,0.000922652543522,-7.0954547482e-06,-6.73634576742e-06,0.0,0.0,0.0,-7.0954547482e-06,0.000473174703075,-9.75219700194e-06,0.0,0.0,0.0,-6.73634576742e-06,-9.75219700194e-06,0.000922090257518,0.0,0.0,0.0,0.0,0.0,0.0,-0.00243828631938,-0.00414802227169,0.0778657197952,0.0,0.0,0.0,0.0,0.0,0.0,0.0,0.0,0.0,0.0,0.0,0.0
191314987104,96,0,honey/haz_cam,-0.0289318021387,0.000288503681077,-0.000521463225596,-0.000300855346723,-8.71518350323e-05,-0.0131367221475,0.000931421644054,-9.96812013909e-06,-7.66393804952e-06,0.0,0.0,0.0,-9.96812013909e-06,0.000481569237309,-9.58591044764e-06,0.0,0.0,0.0,-7.66393804952e-06,-9.58591044764e-06,0.000934551237151,0.0,0.0,0.0,0.0,0.0,0.0,-0.00239199120551,-0.00420633330941,0.0788176953793,0.0,0.0,0.0,0.0,0.0,0.0,0.0,0.0,0.0,0.0,0.0,0.0
192305246461,97,0,honey/haz_cam,-0.0252713542432,0.000146219172166,-0.000386584812077,-0.000265515001956,-5.36277220817e-05,-0.0142192495987,0.000944664818235,-1.14041113193e-05,-9.11444658414e-06,0.0,0.0,0.0,-1.14041113193e-05,0.000489604019094,-9.84634698398e-06,0.0,0.0,0.0,-9.11444658414e-06,-9.84634698398e-06,0.000948994536884,0.0,0.0,0.0,0.0,0.0,0.0,-0.00236584804952,-0.0042218035087,0.0797611176968,0.0,0.0,0.0,0.0,0.0,0.0,0.0,0.0,0.0,0.0,0.0,0.0
193321622042,98,0,honey/haz_cam,-0.0160305909812,0.000312676507747,-0.000450884719612,-0.000243525690166,-1.73670068762e-05,-0.0158698186278,0.000950272078626,-9.1930378403e-06,-9.53475500864e-06,0.0,0.0,0.0,-9.1930378403e-06,0.000490682024974,-9.96810831566e-06,0.0,0.0,0.0,-9.53475500864e-06,-9.96810831566e-06,0.000953635084443,0.0,0.0,0.0,0.0,0.0,0.0,-0.00225868448615,-0.00425342656672,0.080710478127,0.0,0.0,0.0,0.0,0.0,0.0,0.0,0.0,0.0,0.0,0.0,0.0
194321809834,99,0,honey/haz_cam,-0.00807350501418,0.00138347153552,-0.000359894300345,-0.000277949555311,4.86964891024e-05,-0.0127498814836,0.000932051276322,-3.06140236717e-06,-8.36761500977e-06,0.0,0.0,0.0,-3.06140236717e-06,0.000475232431199,-9.62955800787e-06,0.0,0.0,0.0,-8.36761500977e-06,-9.62955800787e-06,0.000932558963541,0.0,0.0,0.0,0.0,0.0,0.0,-0.00217880681157,-0.0042676194571,0.0816073641181,0.0,0.0,0.0,0.0,0.0,0.0,0.0,0.0,0.0,0.0,0.0,0.0
195341915845,100,0,honey/haz_cam,-2.40948102146e-05,0.00268761161715,-0.000453697080957,-0.000306426605675,7.65490985941e-05,-0.0149889122695,0.000932707916945,4.20846799898e-06,-7.31635827833e-06,0.0,0.0,0.0,4.20846799898e-06,0.000478145258967,-9.45184365264e-06,0.0,0.0,0.0,-7.31635827833e-06,-9.45184365264e-06,0.000933034461923,0.0,0.0,0.0,0.0,0.0,0.0,-0.0020599886775,-0.0043389974162,0.0825464129448,0.0,0.0,0.0,0.0,0.0,0.0,0.0,0.0,0.0,0.0,0.0,0.0
196345895092,101,0,honey/haz_cam,0.00892875157297,0.00399528583512,-0.000464811251732,-0.00019922669162,1.56425176101e-05,-0.0152513626963,0.000930277339648,1.31331071316e-05,-7.25649351807e-06,0.0,0.0,0.0,1.31331071316e-05,0.000478769041365,-9.44102976064e-06,0.0,0.0,0.0,-7.25649351807e-06,-9.44102976064e-06,0.000930843641981,0.0,0.0,0.0,0.0,0.0,0.0,-0.00198970921338,-0.0044072070159,0.083421677351,0.0,0.0,0.0,0.0,0.0,0.0,0.0,0.0,0.0,0.0,0.0,0.0
197331742075,102,0,honey/haz_cam,0.0179450754076,0.00519002322108,-0.000855913443957,-1.01952991827e-05,-8.71703014127e-05,-0.0164683107287,0.000928405905142,2.20358160732e-05,-5.99755139774e-06,0.0,0.0,0.0,2.20358160732e-05,0.00048226324725,-9.8181899375e-06,0.0,0.0,0.0,-5.99755139774e-06,-9.8181899375e-06,0.000931643415242,0.0,0.0,0.0,0.0,0.0,0.0,-0.00190648436546,-0.00448278244585,0.0844498723745,0.0,0.0,0.0,0.0,0.0,0.0,0.0,0.0,0.0,0.0,0.0,0.0
198332303947,103,0,honey/haz_cam,0.0415930449963,0.00498572085053,-0.00129030353855,0.000726139405742,-0.000282251596218,-0.0176418721676,0.000927393441088,3.44356958522e-05,-5.72220824324e-06,0.0,0.0,0.0,3.44356958522e-05,0.000489470898174,-1.00489769466e-05,0.0,0.0,0.0,-5.72220824324e-06,-1.00489769466e-05,0.000936993805226,0.0,0.0,0.0,0.0,0.0,0.0,-0.00192617066205,-0.0045470027253,0.0853440612555,0.0,0.0,0.0,0.0,0.0,0.0,0.0,0.0,0.0,0.0,0.0,0.0
199322081772,104,0,honey/haz_cam,0.059497512877,0.00543801533058,-0.000998265226372,0.000481618160848,-0.000262074056081,-0.0162423476577,0.000920986465644,4.71151506645e-05,-4.36122081737e-06,0.0,0.0,0.0,4.71151506645e-05,0.000497727538459,-1.00741963251e-05,0.0,0.0,0.0,-4.36122081737e-06,-1.00741963251e-05,0.000941597972997,0.0,0.0,0.0,0.0,0.0,0.0,-0.00177039206028,-0.00461000110954,0.0861764103174,0.0,0.0,0.0,0.0,0.0,0.0,0.0,0.0,0.0,0.0,0.0,0.0
200311817849,105,0,honey/haz_cam,0.0788848847151,0.0068782242015,-0.000800005625933,0.000429530482506,-0.000279222964309,-0.0189786888659,0.00093091535382,6.09874623478e-05,-4.49397430202e-06,0.0,0.0,0.0,6.09874623478e-05,0.000525157316588,-1.05255248855e-05,0.0,0.0,0.0,-4.49397430202e-06,-1.05255248855e-05,0.000969878339674,0.0,0.0,0.0,0.0,0.0,0.0,-0.00174639187753,-0.00472080381587,0.0872005671263,0.0,0.0,0.0,0.0,0.0,0.0,0.0,0.0,0.0,0.0,0.0,0.0
201313011918,106,0,honey/haz_cam,0.0887487605214,0.00825187843293,-0.000154281413415,8.91676027095e-05,-0.000161597286933,-0.0138041824102,0.000915907381568,7.01567551005e-05,-3.76319644602e-06,0.0,0.0,0.0,7.01567551005e-05,0.000530244375113,-1.01904188341e-05,0.0,0.0,0.0,-3.76319644602e-06,-1.01904188341e-05,0.00096820195904,0.0,0.0,0.0,0.0,0.0,0.0,-0.00163713097572,-0.00479330588132,0.0879502147436,0.0,0.0,0.0,0.0,0.0,0.0,0.0,0.0,0.0,0.0,0.0,0.0
202314362497,107,0,honey/haz_cam,0.0937343686819,0.00907380785793,0.000337039469741,1.83812953765e-05,-0.000144185280078,-0.0132744777948,0.000910784408916,7.89689147496e-05,-3.99899909098e-06,0.0,0.0,0.0,7.89689147496e-05,0.000539513886906,-1.02506210169e-05,0.0,0.0,0.0,-3.99899909098e-06,-1.02506210169e-05,0.000972691515926,0.0,0.0,0.0,0.0,0.0,0.0,-0.00160997360945,-0.00488490518183,0.088805347681,0.0,0.0,0.0,0.0,0.0,0.0,0.0,0.0,0.0,0.0,0.0,0.0
203297789637,108,0,honey/haz_cam,0.0936128795147,0.0103544583544,0.000452213396784,-1.45628819155e-05,-0.000132212182507,-0.0157901812345,0.000922274077311,8.83187749423e-05,-5.14589009981e-06,0.0,0.0,0.0,8.83187749423e-05,0.000559171719942,-1.02499352579e-05,0.0,0.0,0.0,-5.14589009981e-06,-1.02499352579e-05,0.00099404132925,0.0,0.0,0.0,0.0,0.0,0.0,-0.00146557297558,-0.00501799490303,0.0897030830383,0.0,0.0,0.0,0.0,0.0,0.0,0.0,0.0,0.0,0.0,0.0,0.0
204309744046,109,0,honey/haz_cam,0.0893282815814,0.0116252051666,0.000823568960186,2.92811841973e-06,-6.7053726525e-05,-0.0142068574205,0.000914756092243,9.5242736279e-05,-4.70317627332e-06,0.0,0.0,0.0,9.5242736279e-05,0.000555670063477,-9.50080357143e-06,0.0,0.0,0.0,-4.70317627332e-06,-9.50080357143e-06,0.000985984224826,0.0,0.0,0.0,0.0,0.0,0.0,-0.00141223985702,-0.00506909750402,0.0903444737196,0.0,0.0,0.0,0.0,0.0,0.0,0.0,0.0,0.0,0.0,0.0,0.0
205320399549,110,0,honey/haz_cam,0.074969753623,0.0115404445678,0.000898157304619,-3.84179802495e-05,-9.59736498771e-05,-0.0126532269642,0.000920681457501,0.000104812825157,-2.91449691758e-06,0.0,0.0,0.0,0.000104812825157,0.000556825485546,-9.46280033531e-06,0.0,0.0,0.0,-2.91449691758e-06,-9.46280033531e-06,0.000985240214504,0.0,0.0,0.0,0.0,0.0,0.0,-0.00143543910235,-0.00518639618531,0.091285251081,0.0,0.0,0.0,0.0,0.0,0.0,0.0,0.0,0.0,0.0,0.0,0.0
206300862577,111,0,honey/haz_cam,0.0560598410666,0.0125462543219,0.000917272642255,2.08518104046e-05,-0.000107696439954,-0.000455185770988,0.000916155113373,0.000108365093183,-3.50540381078e-06,0.0,0.0,0.0,0.000108365093183,0.000544282200281,-9.83479822025e-06,0.0,0.0,0.0,-3.50540381078e-06,-9.83479822025e-06,0.000967533094808,0.0,0.0,0.0,0.0,0.0,0.0,-0.00144265498966,-0.00530409859493,0.092214345932,0.0,0.0,0.0,0.0,0.0,0.0,0.0,0.0,0.0,0.0,0.0,0.0
207350912440,112,0,honey/haz_cam,0.0354521684349,0.0114316819236,0.000621454091743,nan,nan,nan,0.000908774265554,0.000107922562165,-4.29740703112e-06,0.0,0.0,0.0,0.000107922562165,0.000529182958417,-9.5421264632e-06,0.0,0.0,0.0,-4.29740703112e-06,-9.5421264632e-06,0.000947595282923,0.0,0.0,0.0,0.0,0.0,0.0,-0.0013707135804,-0.00536616612226,0.0929293483496,0.0,0.0,0.0,0.0,0.0,0.0,0.0,0.0,0.0,0.0,0.0,0.0
208347873709,113,0,honey/haz_cam,0.0170474667102,0.00986156612635,0.000481496943394,nan,nan,nan,0.000904464686755,0.000104772094346,-4.91865193908e-06,0.0,0.0,0.0,0.000104772094346,0.000516647181939,-9.69072152657e-06,0.0,0.0,0.0,-4.91865193908e-06,-9.69072152657e-06,0.000931147718802,0.0,0.0,0.0,0.0,0.0,0.0,-0.00137879746035,-0.00545993354172,0.0938085392118,0.0,0.0,0.0,0.0,0.0,0.0,0.0,0.0,0.0,0.0,0.0,0.0
209298569410,114,0,honey/haz_cam,0.00427633430809,0.00797761883587,0.000780577189289,nan,nan,nan,0.000891132978722,9.98302130029e-05,-5.15041392646e-06,0.0,0.0,0.0,9.98302130029e-05,0.000501668197103,-9.49342484091e-06,0.0,0.0,0.0,-5.15041392646e-06,-9.49342484091e-06,0.000912242627237,0.0,0.0,0.0,0.0,0.0,0.0,-0.00134481850546,-0.00555919390172,0.0946192592382,0.0,0.0,0.0,0.0,0.0,0.0,0.0,0.0,0.0,0.0,0.0,0.0
210320111318,115,0,honey/haz_cam,-0.00707088783383,0.00590131618083,0.000852107361425,nan,nan,nan,0.000903945416212,9.64258433669e-05,-6.21545905233e-06,0.0,0.0,0.0,9.64258433669e-05,0.00050768442452,-9.40816880757e-06,0.0,0.0,0.0,-6.21545905233e-06,-9.40816880757e-06,0.000923119310755,0.0,0.0,0.0,0.0,0.0,0.0,-0.00133797340095,-0.00563291367143,0.0953563675284,0.0,0.0,0.0,0.0,0.0,0.0,0.0,0.0,0.0,0.0,0.0,0.0
211320612209,116,0,honey/haz_cam,-0.0151081541553,0.00404379237443,0.000658166012727,nan,nan,nan,0.000903279113118,9.32374532567e-05,-5.47358786207e-06,0.0,0.0,0.0,9.32374532567e-05,0.000503587361891,-8.88987688086e-06,0.0,0.0,0.0,-5.47358786207e-06,-8.88987688086e-06,0.000922037987038,0.0,0.0,0.0,0.0,0.0,0.0,-0.00138066057116,-0.00570749025792,0.0961981415749,0.0,0.0,0.0,0.0,0.0,0.0,0.0,0.0,0.0,0.0,0.0,0.0
212341351597,117,0,honey/haz_cam,-0.0222517307848,0.00156879716087,0.000363946397556,nan,nan,nan,0.000925141503103,9.1850219178e-05,-5.6460662563e-06,0.0,0.0,0.0,9.1850219178e-05,0.00051621516468,-9.22324488783e-06,0.0,0.0,0.0,-5.6460662563e-06,-9.22324488783e-06,0.000942980521359,0.0,0.0,0.0,0.0,0.0,0.0,-0.00144806038588,-0.0057698301971,0.0970279127359,0.0,0.0,0.0,0.0,0.0,0.0,0.0,0.0,0.0,0.0,0.0,0.0
213331978298,118,0,honey/haz_cam,-0.0266601555049,-0.00254784012213,0.0008596413536,9.42365077208e-05,-0.000276848266367,0.0138971805573,0.000924450112507,8.93719843589e-05,-5.81393487664e-06,0.0,0.0,0.0,8.93719843589e-05,0.000510475598276,-8.97201698535e-06,0.0,0.0,0.0,-5.81393487664e-06,-8.97201698535e-06,0.000943574821576,0.0,0.0,0.0,0.0,0.0,0.0,-0.00144899450243,-0.00579048180953,0.0977299213409,0.0,0.0,0.0,0.0,0.0,0.0,0.0,0.0,0.0,0.0,0.0,0.0
214304857944,119,0,honey/haz_cam,-0.028711842373,-0.00552460644394,0.00142322317697,0.000154348759679,-0.000114102629595,0.0136617049575,0.000919733196497,8.53822057252e-05,-6.09821427133e-06,0.0,0.0,0.0,8.53822057252e-05,0.00050296477275,-8.47920910019e-06,0.0,0.0,0.0,-6.09821427133e-06,-8.47920910019e-06,0.00093776563881,0.0,0.0,0.0,0.0,0.0,0.0,-0.00153971184045,-0.00585492514074,0.0986328125,0.0,0.0,0.0,0.0,0.0,0.0,0.0,0.0,0.0,0.0,0.0,0.0
215305443184,120,0,honey/haz_cam,-0.0321139134467,-0.00814569555223,0.00166102102958,4.52093154308e-05,-8.02782087703e-05,0.0159447602928,0.000923787651118,7.92828432168e-05,-5.5097943914e-06,0.0,0.0,0.0,7.92828432168e-05,0.00050278683193,-6.92847152095e-06,0.0,0.0,0.0,-5.5097943914e-06,-6.92847152095e-06,0.000939495745115,0.0,0.0,0.0,0.0,0.0,0.0,-0.0016713514924,-0.00585248786956,0.0994648337364,0.0,0.0,0.0,0.0,0.0,0.0,0.0,0.0,0.0,0.0,0.0,0.0
216306310559,121,0,honey/haz_cam,-0.036614716053,-0.00996222533286,0.00176734453999,1.80341448868e-05,-7.01471653883e-05,0.0157004576176,0.000925188593101,7.19254821888e-05,-6.43201929051e-06,0.0,0.0,0.0,7.19254821888e-05,0.000501697999425,-6.61069407215e-06,0.0,0.0,0.0,-6.43201929051e-06,-6.61069407215e-06,0.000938790792134,0.0,0.0,0.0,0.0,0.0,0.0,-0.00172767415643,-0.00588891282678,0.100332915783,0.0,0.0,0.0,0.0,0.0,0.0,0.0,0.0,0.0,0.0,0.0,0.0
217317153905,122,0,honey/haz_cam,-0.0414871945977,-0.0111073283479,0.00187493453268,1.42863711972e-06,-7.04301710357e-05,0.0139806652442,0.000919689249713,6.35179821984e-05,-6.65948391543e-06,0.0,0.0,0.0,6.35179821984e-05,0.00049675029004,-6.07572974332e-06,0.0,0.0,0.0,-6.65948391543e-06,-6.07572974332e-06,0.000933708681259,0.0,0.0,0.0,0.0,0.0,0.0,-0.00181461498141,-0.00585253443569,0.101106926799,0.0,0.0,0.0,0.0,0.0,0.0,0.0,0.0,0.0,0.0,0.0,0.0
218323751048,123,0,honey/haz_cam,-0.0465278290212,-0.0114868665114,0.00179442449007,1.48444350998e-05,-6.41836522846e-05,0.0174569375813,0.000935355725233,5.38797685294e-05,-7.5213438322e-06,0.0,0.0,0.0,5.38797685294e-05,0.000507749209646,-6.80888206261e-06,0.0,0.0,0.0,-7.5213438322e-06,-6.80888206261e-06,0.000953368202318,0.0,0.0,0.0,0.0,0.0,0.0,-0.00183234736323,-0.00583148747683,0.101920440793,0.0,0.0,0.0,0.0,0.0,0.0,0.0,0.0,0.0,0.0,0.0,0.0
219305040154,124,0,honey/haz_cam,-0.0512071959674,-0.010948786512,0.00133465055842,-3.76160346605e-06,-5.74109508307e-05,0.0147951981053,0.000930595502723,4.44333163614e-05,-6.85551003698e-06,0.0,0.0,0.0,4.44333163614e-05,0.00050242152065,-5.67562301512e-06,0.0,0.0,0.0,-6.85551003698e-06,-5.67562301512e-06,0.000950459507294,0.0,0.0,0.0,0.0,0.0,0.0,-0.00200079195201,-0.00580174662173,0.102894835174,0.0,0.0,0.0,0.0,0.0,0.0,0.0,0.0,0.0,0.0,0.0,0.0
220310104555,125,0,honey/haz_cam,-0.0557440817356,-0.0095274252817,0.0007337621646,-4.75514889331e-06,-7.36466972739e-05,0.0178422816098,0.000943464925513,3.41663981089e-05,-8.18565604277e-06,0.0,0.0,0.0,3.41663981089e-05,0.000511827704031,-5.90174431636e-06,0.0,0.0,0.0,-8.18565604277e-06,-5.90174431636e-06,0.000966363062616,0.0,0.0,0.0,0.0,0.0,0.0,-0.002057723701,-0.00577586144209,0.103785388172,0.0,0.0,0.0,0.0,0.0,0.0,0.0,0.0,0.0,0.0,0.0,0.0
221309753780,126,0,honey/haz_cam,-0.0729441866279,-0.0065281088464,0.000370935216779,-0.000446732534328,5.25375835423e-05,0.0179913043976,0.000938935671002,2.00496051548e-05,-7.33526758268e-06,0.0,0.0,0.0,2.00496051548e-05,0.000526991323568,-7.16271551937e-06,0.0,0.0,0.0,-7.33526758268e-06,-7.16271551937e-06,0.000980932149105,0.0,0.0,0.0,0.0,0.0,0.0,-0.00196512322873,-0.00585968233645,0.104860395193,0.0,0.0,0.0,0.0,0.0,0.0,0.0,0.0,0.0,0.0,0.0,0.0
222370421588,127,0,honey/haz_cam,-0.0797895565629,-0.00474655209109,-6.05380555498e-05,-0.000111567467684,6.21019626124e-06,0.0131228202954,0.000919508456718,1.16874443847e-05,-7.10099084245e-06,0.0,0.0,0.0,1.16874443847e-05,0.000523043388966,-7.1554582064e-06,0.0,0.0,0.0,-7.10099084245e-06,-7.1554582064e-06,0.000971211702563,0.0,0.0,0.0,0.0,0.0,0.0,-0.00213078968227,-0.00577319413424,0.10573156178,0.0,0.0,0.0,0.0,0.0,0.0,0.0,0.0,0.0,0.0,0.0,0.0
223301077506,128,0,honey/haz_cam,-0.0839313492179,-0.00325908884406,-0.000251198798651,-4.16470720666e-06,-4.25364705734e-05,0.0125502832234,0.000914688454941,4.98717463415e-06,-6.9717043516e-06,0.0,0.0,0.0,4.98717463415e-06,0.000527643423993,-6.99348629496e-06,0.0,0.0,0.0,-6.9717043516e-06,-6.99348629496e-06,0.000972882611677,0.0,0.0,0.0,0.0,0.0,0.0,-0.00219706306234,-0.00573618896306,0.106682673097,0.0,0.0,0.0,0.0,0.0,0.0,0.0,0.0,0.0,0.0,0.0,0.0
224322958651,129,0,honey/haz_cam,-0.0860985442996,-0.00153421727009,-0.000318522768794,-2.47351235885e-05,-7.44120916352e-05,0.0175908450037,0.000942618236877,-6.02913723924e-06,-8.04765659268e-06,0.0,0.0,0.0,-6.02913723924e-06,0.000556581362616,-7.16231716069e-06,0.0,0.0,0.0,-8.04765659268e-06,-7.16231716069e-06,0.00100869731978,0.0,0.0,0.0,0.0,0.0,0.0,-0.00221128296107,-0.00570570863783,0.107654795051,0.0,0.0,0.0,0.0,0.0,0.0,0.0,0.0,0.0,0.0,0.0,0.0
225331761648,130,0,honey/haz_cam,-0.0846225768328,-0.000611424911767,-0.00023040920496,4.27549312008e-05,-6.93513502483e-05,0.0147358151153,0.000939352554269,-1.33688554342e-05,-8.46678631206e-06,0.0,0.0,0.0,-1.33688554342e-05,0.000549553020392,-7.00417558619e-06,0.0,0.0,0.0,-8.46678631206e-06,-7.00417558619e-06,0.00100308365654,0.0,0.0,0.0,0.0,0.0,0.0,-0.002229323145,-0.0056772492826,0.108645632863,0.0,0.0,0.0,0.0,0.0,0.0,0.0,0.0,0.0,0.0,0.0,0.0
226342751925,131,0,honey/haz_cam,-0.0800446644425,3.2429525163e-05,-4.91179052915e-05,0.000109417305794,-8.69412324391e-05,0.0150266159326,0.000938838347793,-2.00687118195e-05,-8.57689519762e-06,0.0,0.0,0.0,-2.00687118195e-05,0.000543750531506,-6.81240862832e-06,0.0,0.0,0.0,-8.57689519762e-06,-6.81240862832e-06,0.00099657359533,0.0,0.0,0.0,0.0,0.0,0.0,-0.00219932943583,-0.00566493719816,0.109670966864,0.0,0.0,0.0,0.0,0.0,0.0,0.0,0.0,0.0,0.0,0.0,0.0
227353387556,132,0,honey/haz_cam,-0.0735998675227,0.000394158763811,0.000296293874271,0.000186503690202,-0.000109367261757,0.0165797397494,0.000944619532675,-2.65857343038e-05,-9.99934036372e-06,0.0,0.0,0.0,-2.65857343038e-05,0.000541794521268,-6.6544330366e-06,0.0,0.0,0.0,-9.99934036372e-06,-6.6544330366e-06,0.000992963905446,0.0,0.0,0.0,0.0,0.0,0.0,-0.0021975627169,-0.00564912520349,0.110684208572,0.0,0.0,0.0,0.0,0.0,0.0,0.0,0.0,0.0,0.0,0.0,0.0
