%time,field.header.seq,field.header.stamp,field.header.frame_id,field.twist.linear.x,field.twist.linear.y,field.twist.linear.z,field.twist.angular.x,field.twist.angular.y,field.twist.angular.z
93754111009,5845,93752000000,world,-2.25323433323e-05,8.1372759237e-09,-6.79398376751e-09,-6.9634969024e-06,-3.10601186358e-05,2.61248666578e-05
93764225342,5846,93768000000,world,-2.8426079573e-05,1.03714917606e-08,-8.63880708554e-09,-6.93357872804e-06,-3.12560577955e-05,2.61505368511e-05
93774344692,5847,93784000000,world,-3.71494413878e-05,1.28866973267e-08,-1.08666869268e-08,-6.90337062525e-06,-3.20504864231e-05,2.5630553332e-05
93794586742,5848,93800000000,world,-4.95135436755e-05,1.65009846751e-08,-1.39947031509e-08,-6.87317189018e-06,-3.27622748981e-05,2.5186090213e-05
93814781613,5849,93816000000,world,4.02559158661e-05,-8.92800977413e-09,8.92634948651e-09,-6.8428082965e-06,-3.30309657638e-05,2.51459791694e-05
93824866066,5850,93832000000,world,2.29329291392e-05,-5.10001434706e-09,5.07662048039e-09,-6.81250601994e-06,-3.27975200494e-05,2.55641927152e-05
93845068899,5851,93848000000,world,4.84144971971e-06,-1.15743343469e-09,1.12839566773e-09,-6.78203247755e-06,-3.21859994736e-05,2.63276947903e-05
93855184761,5852,93864000000,world,-1.3295875583e-05,2.8776002981e-09,-2.89310070543e-09,-6.75155975602e-06,-3.15729259685e-05,2.70931343379e-05
93876215363,5853,93880000000,world,-3.11271262408e-05,6.73189034022e-09,-6.77334552079e-09,-6.7211123721e-06,-3.07623141348e-05,2.80393078439e-05
93896357007,5854,93896000000,world,-4.34625219587e-05,7.91647861689e-09,-8.52387707184e-09,-6.69063245127e-06,-3.02163521269e-05,2.87451951354e-05
93906435000,5855,93912000000,world,-5.33660385939e-05,-7.88265224114e-09,6.53522659055e-10,-6.65997570109e-06,-2.93490322299e-05,2.97449761349e-05
93926588945,5856,93928000000,world,4.21874651734e-05,-1.82666364599e-08,1.49827760796e-08,-6.62960036652e-06,-2.79935561171e-05,3.11905599152e-05
93936730383,5857,93944000000,world,3.17840124363e-05,-1.41546351762e-08,1.15420952847e-08,-6.59907186803e-06,-2.61431637723e-05,3.30880055583e-05
93967075226,5858,93960000000,world,1.9862136987e-05,-8.85528815224e-09,7.21636579873e-09,-6.56820611427e-06,-2.5225396418e-05,3.41351772731e-05
93977151035,5859,93976000000,world,6.48214362265e-06,-3.34176742426e-09,2.62390695153e-09,-6.53715884818e-06,-2.57054773254e-05,3.39077516338e-05
93987256356,5860,93992000000,world,-7.92196970302e-06,2.57727251762e-09,-2.3059299461e-09,-6.50594773524e-06,-2.7429333854e-05,3.25463023197e-05
94007433433,5861,94008000000,world,-1.86914279256e-05,6.59509853701e-09,-5.76846646841e-09,-6.47470956847e-06,-2.93459732108e-05,3.10099288876e-05
94017501263,5862,94024000000,world,-2.45058049948e-05,9.22795007442e-09,-7.92997882016e-09,-6.44353755971e-06,-3.07533693314e-05,2.99390850858e-05
94037703950,5863,94040000000,world,-2.62280247744e-05,1.00791908785e-08,-8.61495736173e-09,-6.41224045206e-06,-3.14580745322e-05,2.95101215261e-05
94047832512,5864,94056000000,world,-2.94913498914e-05,1.10118415585e-08,-9.48520791228e-09,-6.3812797222e-06,-3.12838551001e-05,2.98831974693e-05
94068016626,5865,94072000000,world,-3.69288445353e-05,1.27591068418e-08,-1.12228578282e-08,-6.35020224719e-06,-3.03661128842e-05,3.09345408112e-05
94078120358,5866,94088000000,world,-4.87757393563e-05,1.54088547062e-08,-1.38255219672e-08,-6.31898309073e-06,-2.88970579214e-05,3.2488811208e-05
94098330341,5867,94104000000,world,4.12697597881e-05,-1.07286963558e-08,1.09167433843e-08,-6.28758820311e-06,-2.71310968034e-05,3.43140791649e-05
94118551339,5868,94120000000,world,2.43336792983e-05,-6.23211741889e-09,6.33001162071e-09,-6.25598535473e-06,-2.53043909413e-05,3.61951013629e-05
94128631804,5869,94136000000,world,1.14287774679e-05,-2.56735422408e-09,2.76141990066e-09,-6.22450845702e-06,-2.41502902898e-05,3.74636014028e-05
94148782155,5870,94152000000,world,4.30641874143e-06,7.54941344404e-10,-2.46569001355e-11,-6.19294214974e-06,-2.36396799298e-05,3.8146317676e-05
94158880463,5871,94168000000,world,-2.32067994559e-06,3.04495377713e-09,-2.12591748355e-09,-6.16114823941e-06,-2.31996243633e-05,3.87652708479e-05
94179155698,5872,94184000000,world,-1.08376459484e-05,1.18174485588e-08,-8.43544647555e-09,-6.12902591825e-06,-2.35355575631e-05,3.86767901222e-05
94199268681,5873,94200000000,world,-2.21296326793e-05,2.21710094693e-08,-1.6006545101e-08,-6.09697801995e-06,-2.48702001053e-05,3.76776415899e-05
94209325342,5874,94216000000,world,-3.58578092827e-05,3.69563093786e-08,-2.65810229836e-08,-6.06459195763e-06,-2.70258208688e-05,3.59299674112e-05
94229624685,5875,94232000000,world,-5.00960458905e-05,6.90508358167e-08,-4.90090496863e-07,-6.01234695227e-06,-2.92046412066e-05,3.41360608863e-05
94239681587,5876,94248000000,world,4.11053411847e-05,1.40922623737e-08,-3.82728879349e-06,-5.92327918522e-06,-3.10413615858e-05,3.26073035629e-05
94259938843,5877,94264000000,world,2.82972642712e-05,5.20469282104e-09,-2.60745887922e-06,-5.80221167855e-06,-3.23826298007e-05,3.14895389217e-05
94270016998,5878,94280000000,world,1.63838777239e-05,3.94737497048e-09,-1.48890707635e-06,-4.97033083644e-06,-3.23308854608e-05,3.07245015952e-05
94290373414,5879,94296000000,world,8.43044402723e-06,4.69136178084e-09,-6.8147190718e-07,-3.68678720052e-06,-3.11434440523e-05,3.0412676673e-05
94310586804,5880,94312000000,world,4.73072273688e-06,6.31198470284e-09,-3.00799387306e-07,-2.59765954024e-06,-2.97901216052e-05,3.05042449462e-05
94320654828,5881,94328000000,world,4.18902324556e-06,9.13042925729e-09,-2.34491106778e-07,-2.07526588134e-06,-2.89379817312e-05,3.08718841682e-05
94340907181,5882,94344000000,world,3.08316965208e-06,1.10767325482e-08,-1.5270295941e-07,-1.55142816888e-06,-2.89766195306e-05,3.04259912572e-05
94351043073,5883,94360000000,world,-2.0250919537e-07,8.23461858906e-09,5.78145811018e-08,-3.25867497608e-07,-2.81324431365e-05,2.98788001717e-05
94371201341,5884,94376000000,world,4.64854833214e-05,-1.81491410914e-07,-4.51821638e-06,1.83691675015e-06,-2.56004721122e-05,2.96604466743e-05
94391382999,5885,94392000000,world,3.90198245279e-05,-1.12187438355e-07,-3.64324511105e-06,4.7717791302e-06,-2.14619403302e-05,2.99100791187e-05
94401447063,5886,94408000000,world,3.0519519378e-05,-7.86485607414e-08,-2.8261200324e-06,8.17837247167e-06,-1.62146384093e-05,3.05620384947e-05
94421625926,5887,94424000000,world,2.16916610964e-05,-5.59526529795e-08,-2.00874850773e-06,1.1772942813e-05,-1.04285760156e-05,3.14628089244e-05
94431685447,5888,94440000000,world,1.28417179348e-05,-3.74617865937e-08,-1.19677290673e-06,1.53762344918e-05,-4.6284895323e-06,3.2365763312e-05
94451990639,5889,94456000000,world,4.26987017488e-06,-2.01638163659e-08,-3.48308746706e-07,1.84056342569e-05,3.96904538302e-07,3.33045232959e-05
94472367772,5890,94472000000,world,-3.9781361072e-06,2.35675750731e-09,5.68992260274e-07,2.0374302837e-05,3.88952524342e-06,3.42165267364e-05
94482452931,5891,94488000000,world,-1.19642703318e-05,7.59988228229e-09,1.79914659129e-06,2.12962043241e-05,5.85344046711e-06,3.50875734227e-05
94502670256,5892,94504000000,world,-1.98221932457e-05,1.2881338006e-08,3.0618973164e-06,2.14625335961e-05,6.70664974388e-06,3.59227680774e-05
94512760433,5893,94520000000,world,-2.76552253756e-05,1.8047511037e-08,4.29621483916e-06,2.12427894793e-05,6.98680731797e-06,3.67350422022e-05
94532904165,5894,94536000000,world,-3.31859326409e-05,2.10662540885e-08,5.10092822519e-06,2.06215132501e-05,6.50164302623e-06,3.73687685228e-05
94542974101,5895,94552000000,world,-3.82261636132e-05,2.22753285946e-08,5.8769776923e-06,2.10736232042e-05,7.49960242116e-06,3.79690302357e-05
94563093717,5896,94568000000,world,-4.31204667588e-05,2.04398317022e-08,7.20663803132e-06,2.19403801586e-05,9.10055694208e-06,3.85840165842e-05
94583210448,5897,94584000000,world,-4.77805247558e-05,9.96028818349e-09,1.05911354838e-05,2.23345766197e-05,1.06968432544e-05,3.98060605775e-05
94593294277,5898,94600000000,world,-4.7267568329e-05,-7.33666938403e-08,2.32300077981e-05,2.23682332209e-05,1.16820353362e-05,4.09372984054e-05
94613506444,5899,94616000000,world,4.87789714019e-05,-8.29405642258e-08,-7.53301744784e-07,2.24022655013e-05,1.16953720239e-05,4.11826938406e-05
94623624921,5900,94632000000,world,4.48279841388e-05,-7.64186655084e-08,-4.59292708522e-07,2.2436442311e-05,1.08227226163e-05,4.06205156405e-05
94643884644,5901,94648000000,world,4.03935820619e-05,-6.74619586522e-08,-3.31915221528e-07,2.24708047904e-05,8.81834828271e-06,3.90265952711e-05
94654019567,5902,94664000000,world,3.54372481237e-05,-5.7875409295e-08,-2.55224653874e-07,2.25054900114e-05,6.1838567303e-06,3.68584472096e-05
94674364296,5903,94680000000,world,3.00932163242e-05,-4.84432966793e-08,-2.02642952424e-07,2.25402167402e-05,3.30642485697e-06,3.44692299844e-05
94694486667,5904,94696000000,world,2.45361344044e-05,-3.94016705898e-08,-1.63527024905e-07,2.25751599868e-05,4.4896937855e-07,3.20987697674e-05
94704540872,5905,94712000000,world,1.86695036179e-05,-3.04242691518e-08,-1.31068897941e-07,2.26099006214e-05,-1.17511996579e-06,3.08537988234e-05
94724745324,5906,94728000000,world,1.2491698154e-05,-2.14038751428e-08,-1.01631070804e-07,2.26444202087e-05,-1.46286149924e-06,3.08282489989e-05
94734824882,5907,94744000000,world,6.08386890066e-06,-1.2214138176e-08,-7.18446066503e-08,2.26789915578e-05,-7.50825746168e-07,3.17151418945e-05
94755008642,5908,94760000000,world,-4.03456828001e-07,-2.30261063883e-09,-3.36054817745e-08,2.27134349686e-05,7.24302540509e-07,3.32986141921e-05
94775207424,5909,94776000000,world,4.57079001387e-05,-9.1024220761e-09,4.81016498731e-07,2.27480314979e-05,2.58241484628e-06,3.52319749424e-05
94785277730,5910,94792000000,world,3.92482921389e-05,-1.60896789356e-08,3.11952597133e-07,2.27825979108e-05,4.61318771988e-06,3.73233887111e-05
94805541814,5911,94808000000,world,3.30304168732e-05,-1.59163521003e-08,2.3584764054e-07,2.2817547272e-05,5.66019033121e-06,3.85180873321e-05
94815640064,5912,94824000000,world,2.87724189966e-05,-1.48963012893e-08,2.0001669021e-07,2.28524172992e-05,5.88322821907e-06,3.89620087852e-05
94835818472,5913,94840000000,world,2.48897051872e-05,-1.29899522096e-08,1.7256696808e-07,2.28875143214e-05,6.05362673473e-06,3.93585230398e-05
94845884928,5914,94856000000,world,2.06342403261e-05,-1.02101226239e-08,1.4598500607e-07,2.2922542132e-05,6.62989985441e-06,4.01257699182e-05
94866265921,5915,94872000000,world,1.72687051444e-05,-7.35201582822e-09,1.26311265751e-07,2.29577917031e-05,7.18322498571e-06,4.08727457365e-05
94886490832,5916,94888000000,world,1.53754117733e-05,-4.72374912701e-09,1.14928088222e-07,2.29930633607e-05,7.60584027576e-06,4.15012216047e-05
94896573512,5917,94904000000,world,1.33168802214e-05,-5.67256399962e-08,1.02821158367e-07,2.34903266664e-05,7.30549295758e-06,4.04532244317e-05
94916793125,5918,94920000000,world,1.16386903231e-05,-1.17256022529e-07,9.2639770847e-08,2.40446054363e-05,6.58316354401e-06,3.88955535978e-05
94926927236,5919,94936000000,world,9.23013942244e-06,-2.58279023581e-07,7.88436895635e-08,2.51939404481e-05,5.25725530735e-06,3.54778088723e-05
94947121983,5920,94952000000,world,5.52598644068e-06,-4.82705591139e-07,5.84297702659e-08,2.70421882239e-05,3.28807567813e-06,2.99346893807e-05
94967356686,5921,94968000000,world,6.68733264156e-07,-6.76488081655e-07,2.9111218033e-08,2.94442352595e-05,8.50666973451e-07,2.27452142318e-05
94977482681,5922,94984000000,world,4.07400004119e-05,2.4711441469e-05,-5.70614613712e-07,3.21711607111e-05,-4.58240690519e-07,1.586933936e-05
94997634735,5923,95000000000,world,3.83498679789e-05,1.76843441767e-05,-3.36616447474e-07,3.50165567334e-05,-5.37385762038e-07,9.8542076101e-06
95017867116,5924,95024000000,world,-1.70476157808e-05,-6.58367785398e-06,1.01895380082e-07,3.92918138195e-05,1.42643275908e-06,2.71535174715e-06
95027948951,5925,95032000000,world,2.96314807579e-05,1.18334119668e-05,-1.93830292748e-07,4.07193937169e-05,2.16500158151e-06,4.07078987294e-07
95038074388,5926,95048000000,world,2.54558809401e-05,1.00619409883e-05,-1.61558180678e-07,4.35788708246e-05,3.90525895186e-06,-3.97866514278e-06
95058412819,5927,95064000000,world,2.26292518619e-05,8.95216525874e-06,-1.44014904897e-07,4.55447829882e-05,5.29155426954e-06,-6.71810456047e-06
95078677335,5928,95080000000,world,2.13412879625e-05,8.46351854268e-06,-1.37066735232e-07,4.64168825882e-05,6.13622705033e-06,-7.54123812908e-06
95088749552,5929,95096000000,world,2.12263695293e-05,8.42491228143e-06,-1.37000350439e-07,4.64529264378e-05,6.50707486307e-06,-6.95407089727e-06
95108860219,5930,95112000000,world,2.0413922594e-05,8.15067492167e-06,-1.33169895122e-07,4.64891393372e-05,5.90718333765e-06,-7.25217805498e-06
95118957107,5931,95128000000,world,1.94849939242e-05,7.84591331521e-06,-1.28945334064e-07,4.65254592765e-05,5.00472377385e-06,-7.82605395522e-06
95139108472,5932,95144000000,world,1.7284938224e-05,7.11960473663e-06,-1.18528536304e-07,4.70170966138e-05,3.49674782694e-06,-9.95481553249e-06
95159305433,5933,95160000000,world,1.35408461218e-05,5.88869395625e-06,-1.01576999513e-07,4.83840805544e-05,1.39943363124e-06,-1.45492217927e-05
95169414593,5934,95176000000,world,8.56837438316e-06,4.25749251848e-06,-7.99883275486e-08,5.05407483608e-05,-1.11141542519e-06,-2.12601912677e-05
95189530415,5935,95192000000,world,2.94104539697e-06,2.32833379785e-06,-5.38800084053e-08,5.32203508107e-05,-3.82918977163e-06,-2.93116713301e-05
95199588406,5936,95208000000,world,-2.45076124523e-06,-4.82802660287e-09,-1.46882281228e-08,5.61404382191e-05,-6.59128643075e-06,-3.79331342173e-05
95219725713,5937,95224000000,world,-8.54383092824e-06,-4.96756214571e-07,-3.72700534382e-08,5.90913058003e-05,-8.1957352263e-06,-4.55667110429e-05
95239912323,5938,95240000000,world,-1.41444718306e-05,-1.1031234768e-06,-5.47018947353e-08,6.20441213976e-05,-7.80136430303e-06,-5.138191171e-05
95249969279,5939,95256000000,world,-1.92151808386e-05,-1.68725377303e-06,-7.04539914044e-08,6.49988624253e-05,-5.89878599302e-06,-5.58260908969e-05
95270082890,5940,95272000000,world,-2.39079731423e-05,-2.19804693346e-06,-8.585202069e-08,6.78614969966e-05,-3.11384173112e-06,-5.92626741642e-05
95280135776,5941,95288000000,world,-2.84085284879e-05,-2.61250524569e-06,-1.0200114762e-07,7.06003231789e-05,-8.06214359518e-09,-6.21337956999e-05
95300246942,5942,95304000000,world,-3.30875092041e-05,-2.92570731363e-06,-1.21241233824e-07,7.3241478907e-05,2.05142230065e-06,-6.57436209661e-05
95310303298,5943,95320000000,world,-3.81891647166e-05,-3.08755302128e-06,-1.47500525315e-07,7.58263122394e-05,2.20527196474e-06,-7.0966786996e-05
95330620863,5944,95336000000,world,-4.20796472632e-05,-3.03249478501e-06,-1.7360952525e-07,7.75624958398e-05,1.00313393785e-06,-7.55565223259e-05
95350805340,5945,95352000000,world,-4.60109468727e-05,-2.698792988e-06,-2.12946242624e-07,7.91253166166e-05,-4.8998507673e-08,-7.96275094568e-05
95360898458,5946,95368000000,world,-5.07766786626e-05,-1.01971893059e-07,-3.23554036363e-07,8.00483129139e-05,-2.00215239698e-07,-8.14674496827e-05
95381066652,5947,95384000000,world,3.94076949469e-05,2.85727141707e-05,-3.86169302785e-07,8.01040146574e-05,5.6451713459e-07,-8.05616354375e-05
95391181979,5948,95400000000,world,3.85083539016e-05,2.13696602263e-05,-2.1553177493e-07,7.99358997233e-05,1.51199814685e-06,-7.89959105181e-05
95411351259,5949,95416000000,world,3.49873617781e-05,1.78865048351e-05,-1.52624999235e-07,7.93726113419e-05,2.54378731166e-06,-7.64826510085e-05
95431562072,5950,95432000000,world,3.04852002663e-05,1.50393805124e-05,-1.15433071033e-07,7.84134054346e-05,4.05590026404e-06,-7.2659212256e-05
95441687750,5951,95448000000,world,2.53016045182e-05,1.23354169394e-05,-9.00738604761e-08,7.7307305312e-05,4.60786002566e-06,-6.93876145746e-05
95461939590,5952,95464000000,world,1.99523548873e-05,9.74399240355e-06,-7.20381117951e-08,7.61947564055e-05,5.15990544221e-06,-6.61017150934e-05
95472220514,5953,95480000000,world,1.46383584378e-05,7.19782566733e-06,-5.80217740917e-08,7.51482768953e-05,6.21713381345e-06,-6.25006095849e-05
95492424222,5954,95496000000,world,9.56965469356e-06,4.72844956261e-06,-4.61849855801e-08,7.41853699431e-05,7.90852500292e-06,-5.85052561164e-05
95502503418,5955,95512000000,world,4.74471933544e-06,2.32081293066e-06,-3.45050998635e-08,7.32301732035e-05,1.01116084269e-05,-5.40602203055e-05
95522728347,5956,95528000000,world,3.12282179422e-07,1.21624400573e-08,-1.96584949579e-08,7.22755161089e-05,1.14699644205e-05,-5.03865495461e-05
95542962665,5957,95544000000,world,3.90185145749e-05,2.8309455497e-05,5.40735519913e-07,7.13214342099e-05,1.15540465834e-05,-4.78759769121e-05
95563161824,5958,95560000000,world,3.6484905564e-05,2.50431761682e-05,8.33839575201e-07,7.08183533199e-05,1.28322818759e-05,-4.75768360992e-05
95583396246,5959,95584000000,world,-1.1118644082e-05,-7.11534936891e-06,-6.03626122332e-07,7.03728270085e-05,1.88143026114e-05,-5.06403630023e-05
95583396246,5960,95592000000,world,3.19620852954e-05,2.06924367813e-05,1.4597557789e-06,7.0241178163e-05,2.15424382271e-05,-5.29857857667e-05
95603553960,5961,95608000000,world,3.01661387766e-05,1.93778555989e-05,1.8963381156e-06,6.9211457649e-05,2.7434343714e-05,-5.81675246382e-05
95623757144,5962,95624000000,world,2.90266199855e-05,1.86304994249e-05,2.16160773557e-06,6.78320205693e-05,3.21415457337e-05,-6.18052884145e-05
95633882581,5963,95640000000,world,2.86034629033e-05,1.83839065838e-05,2.29846143786e-06,6.68191336045e-05,3.46267219573e-05,-6.33369342084e-05
95654127628,5964,95656000000,world,2.77681009329e-05,1.7855284311e-05,2.4005280983e-06,6.59618724571e-05,3.55078659061e-05,-6.38938084038e-05
95664235189,5965,95672000000,world,2.70009913221e-05,1.73396926794e-05,2.42609055185e-06,6.54892104276e-05,3.5307085521e-05,-6.36150459129e-05
95684501222,5966,95688000000,world,2.64082013827e-05,1.69245541836e-05,2.40629726143e-06,6.54098123454e-05,3.40680698838e-05,-6.24640569867e-05
95694633193,5967,95704000000,world,2.50823331055e-05,1.59923407097e-05,2.32412575978e-06,6.53202910698e-05,3.35846184755e-05,-6.01866427121e-05
95714839474,5968,95720000000,world,2.22897555725e-05,1.41900823836e-05,2.10538613428e-06,6.57388641356e-05,3.43991305377e-05,-5.85534017433e-05
95735097902,5969,95736000000,world,1.81612424598e-05,1.15619315136e-05,1.64819831468e-06,6.68112772522e-05,3.64292481557e-05,-5.83008030454e-05
95745201570,5970,95752000000,world,1.31750816783e-05,8.32549460834e-06,9.42652037542e-07,6.8426387118e-05,3.92864776839e-05,-5.94131860231e-05
95765413059,5971,95768000000,world,7.82179629425e-06,4.77120828565e-06,9.28210858689e-08,7.0372700736e-05,4.25355221339e-05,-6.14953332772e-05
95775534904,5972,95784000000,world,2.19237285853e-06,1.10924062921e-06,-7.14472446659e-07,7.24475098758e-05,4.44500157696e-05,-6.5341754489e-05
95795703244,5973,95800000000,world,-1.83131478661e-06,-1.33324802972e-06,-7.51806377102e-07,7.39396623751e-05,4.51237086474e-05,-6.88466107017e-05
95826076587,5974,95816000000,world,-5.4042674498e-06,-3.89993742336e-06,-2.0779118903e-06,7.52576248252e-05,4.57882183731e-05,-7.18079240388e-05
95826076587,5975,95832000000,world,-8.94980993823e-06,-6.45367062369e-06,-3.36427989995e-06,7.65757175872e-05,4.67657810495e-05,-7.44843843584e-05
95846290622,5976,95848000000,world,-1.29069985378e-05,-9.22347610054e-06,-4.73984993025e-06,7.81761882913e-05,4.74408481776e-05,-7.79656103719e-05
95856363922,5977,95864000000,world,-1.74979502833e-05,-1.2408404896e-05,-6.33057814514e-06,7.99829954051e-05,4.70464569634e-05,-8.27528804478e-05
95876555783,5978,95880000000,world,-2.2590979248e-05,-1.60047105046e-05,-8.15987299223e-06,8.18893692141e-05,4.56271435615e-05,-8.87082679093e-05
95886671446,5979,95896000000,world,-2.65536144205e-05,-1.89249065263e-05,-9.68233046592e-06,8.32494969463e-05,4.40926926911e-05,-9.34125951989e-05
95906868206,5980,95912000000,world,-3.01013177971e-05,-2.17541078332e-05,-1.13626411813e-05,8.33828804864e-05,4.39061470989e-05,-9.80503004023e-05
95927025439,5981,95928000000,world,-3.32237958378e-05,-2.46192773322e-05,-1.37387910304e-05,8.24918025605e-05,4.61462649422e-05,-0.000102177600576
95937099232,5982,95944000000,world,-3.54205801792e-05,-2.79021315361e-05,-1.83717534066e-05,8.14773794428e-05,4.95061546205e-05,-0.000106570245118
95957283468,5983,95960000000,world,-1.88579750712e-05,-2.52223379365e-05,-4.24938543802e-05,8.11654474338e-05,5.32086151155e-05,-0.000110471574527
95967357455,5984,95976000000,world,3.83505383595e-05,2.57676870402e-05,5.84597325793e-06,8.14986585035e-05,5.60785766425e-05,-0.000112556228696
95987551708,5985,95992000000,world,3.41553011315e-05,2.24021275228e-05,3.84863549237e-06,8.19066255523e-05,5.73543235346e-05,-0.000112525884008
96007756879,5986,96008000000,world,3.00560919537e-05,1.95115819479e-05,2.96630657511e-06,8.15724564034e-05,5.75366940891e-05,-0.00011129011593
96017846952,5987,96024000000,world,2.62170803255e-05,1.69431221956e-05,2.43678008972e-06,8.06351519549e-05,5.67690250782e-05,-0.000109591941303
96038095624,5988,96040000000,world,2.25650301579e-05,1.45654303116e-05,2.0560060173e-06,7.93805806192e-05,5.52793110161e-05,-0.000107853250058
96048256625,5989,96056000000,world,1.8995891341e-05,1.226680448e-05,1.74827078317e-06,7.80413306702e-05,5.33858609477e-05,-0.000106296204312
96068469170,5990,96072000000,world,1.54385909406e-05,9.98423026412e-06,1.47936480894e-06,7.67020069098e-05,5.1376846836e-05,-0.000104844373201
96078595550,5991,96088000000,world,1.18779207686e-05,7.70486432821e-06,1.23172640967e-06,7.53625714385e-05,4.93676668689e-05,-0.000103392421295
96098806931,5992,96104000000,world,8.31709065795e-06,5.41977741363e-06,1.04063552175e-06,7.34528911366e-05,4.64713601702e-05,-0.000102063861278
96118979411,5993,96120000000,world,4.73642898747e-06,3.10889452468e-06,9.42158788136e-07,7.05052198116e-05,4.20731560276e-05,-0.000100877717631
96129085049,5994,96136000000,world,1.16536223815e-06,7.91754351891e-07,8.59472619396e-07,6.66286778545e-05,3.63985060409e-05,-9.9755706763e-05
96159362959,5995,96152000000,world,4.06303123006e-05,2.44291723457e-05,-6.12676199003e-06,5.99555712873e-05,2.83866950155e-05,-9.66554353647e-05
96159362959,5996,96168000000,world,-6.22286177067e-06,-3.79185021144e-06,1.03617259655e-06,5.80366229088e-05,2.62421170597e-05,-9.59545091022e-05
96179552475,5997,96184000000,world,-1.08714041062e-05,-6.73055198021e-06,1.84446908632e-06,5.52298800863e-05,2.30052920592e-05,-9.58931476554e-05
96199666110,5998,96200000000,world,-1.57230334866e-05,-9.85863476079e-06,2.6239814441e-06,5.41629698135e-05,2.16507137417e-05,-9.71233298949e-05
96209724708,5999,96216000000,world,-2.06652286163e-05,-1.30378539386e-05,3.37754924918e-06,5.50550727578e-05,2.25676975822e-05,-9.92521521489e-05
96229833422,6000,96232000000,world,-2.53917178958e-05,-1.59974310434e-05,4.18377085569e-06,5.67761493646e-05,2.43697154847e-05,-0.000101240757645
96239926523,6001,96248000000,world,-3.00415606351e-05,-1.87691425884e-05,5.2082615696e-06,5.84748362702e-05,2.60055890388e-05,-0.000103157681405
96260083738,6002,96264000000,world,-3.47388399999e-05,-2.12840395873e-05,6.70797521506e-06,6.01736555043e-05,2.76331175005e-05,-0.000105082466271
96270139956,6003,96280000000,world,-3.95108831972e-05,-2.31010107472e-05,9.43627040054e-06,6.18725928779e-05,2.9260757536e-05,-0.000107007385556
96290306039,6004,96296000000,world,-4.39072014311e-05,-2.08838571837e-05,1.83577597878e-05,6.36179778605e-05,3.1026114992e-05,-0.000108908999062
96310419182,6005,96312000000,world,3.65879524015e-05,2.98554535599e-05,4.91754588765e-06,6.5515547975e-05,3.30554369386e-05,-0.000110905112712
96320475278,6006,96328000000,world,3.26543431641e-05,2.58093373121e-05,2.9707322329e-06,6.75535189156e-05,3.53124280579e-05,-0.000113002855318
96340834630,6007,96344000000,world,2.82346829617e-05,2.21019323707e-05,2.18627722448e-06,6.96865263623e-05,3.7714052815e-05,-0.000115178030589
96350928918,6008,96360000000,world,2.37815836491e-05,1.8599341745e-05,1.72199970174e-06,7.18654714725e-05,3.93423903095e-05,-0.000118159744518
96371078791,6009,96376000000,world,1.94974801227e-05,1.5258563231e-05,1.39725940315e-06,7.40535124071e-05,3.95749746126e-05,-0.000122434638104
96391433697,6010,96392000000,world,1.54129334376e-05,1.20060291029e-05,1.14186013238e-06,7.62425424669e-05,3.85707685483e-05,-0.000127839872682
96401492696,6011,96408000000,world,1.13447264505e-05,8.72574531019e-06,9.15350518391e-07,7.84316890951e-05,3.75870059854e-05,-0.000133226711341
96421893281,6012,96424000000,world,7.10745859638e-06,5.36382013408e-06,6.38642135982e-07,7.99547469871e-05,3.85738172866e-05,-0.000137672863999
96431985746,6013,96440000000,world,2.65537786262e-06,1.93870346403e-06,2.83551152732e-07,7.95983187611e-05,4.16281379509e-05,-0.000141042014505
96452189841,6014,96456000000,world,-2.0684067743e-06,-1.74734827426e-06,-1.17461241362e-07,7.59896170242e-05,4.5545799566e-05,-0.000141441419038
96462257252,6015,96472000000,world,-6.78609922957e-06,-5.70988399953e-06,-3.63422425634e-07,7.03453585185e-05,4.95653114436e-05,-0.000140788190938
96482331122,6016,96488000000,world,-1.15341148725e-05,-9.68040206417e-06,-5.77642196085e-07,6.36856688097e-05,5.32751844773e-05,-0.000139970451703
96502490694,6017,96504000000,world,-1.6360082769e-05,-1.37663676492e-05,-7.82505853846e-07,5.61249106474e-05,5.6603684171e-05,-0.000137927075167
96512565423,6018,96520000000,world,-2.13653043825e-05,-1.80078189252e-05,-1.01300334466e-06,4.7552220329e-05,5.9885957015e-05,-0.000133726970656
96532813752,6019,96536000000,world,-2.67713496196e-05,-2.24159486134e-05,-1.3093185597e-06,3.81106805092e-05,6.18920506493e-05,-0.000128775519849
96542940642,6020,96552000000,world,-3.25788380566e-05,-2.6560507025e-05,-1.76830046425e-06,2.82323472978e-05,6.32519588648e-05,-0.000122998395618
96563099803,6021,96568000000,world,-3.93928403665e-05,-2.96612026584e-05,-2.85209398546e-06,1.8403772284e-05,6.32749730652e-05,-0.000117814613927
96583311420,6022,96584000000,world,-3.15189227598e-06,-3.25068333447e-06,1.00912248256e-08,9.4507024331e-06,6.20009761065e-05,-0.000112977918832
96593402448,6023,96600000000,world,-8.98974370574e-06,-8.77269093692e-06,-1.57268734711e-07,1.84380895687e-06,5.96147290769e-05,-0.00010768596486
96613545176,6024,96616000000,world,-1.51155828504e-05,-1.44109303137e-05,-4.156721692e-07,-4.63857452405e-06,5.65496496876e-05,-0.000101702174067
96623639334,6025,96632000000,world,-2.12789196713e-05,-2.02295588939e-05,-6.12961544808e-07,-1.03843492947e-05,5.32077003226e-05,-9.51876991054e-05
96643789656,6026,96648000000,world,-2.71519468333e-05,-2.63749815945e-05,-5.08577804017e-07,-1.56861661392e-05,4.97944709829e-05,-8.86320217436e-05
96663973376,6027,96664000000,world,-3.18996133135e-05,-3.34703197615e-05,9.35775372699e-07,-1.9760784575e-05,4.78833699582e-05,-8.23158947068e-05
96674044235,6028,96680000000,world,-2.25658049156e-05,-4.54644306477e-05,1.67374910203e-05,-2.24535526023e-05,4.78105550407e-05,-7.61870014069e-05
96694399876,6029,96696000000,world,3.26090866734e-05,2.81194795146e-05,4.51646961617e-06,-2.4150279685e-05,4.9261884314e-05,-6.99920508878e-05
96714539249,6030,96712000000,world,-1.70650252951e-05,-1.41089799397e-05,-3.04069843771e-06,-2.59197659387e-05,5.16851262733e-05,-6.27933022208e-05
96724621244,6031,96728000000,world,1.97383377843e-05,1.62790524922e-05,3.31867856001e-06,-2.60689344126e-05,5.25754875677e-05,-6.15738382703e-05
96734697446,6032,96744000000,world,1.31411778116e-05,1.07812578905e-05,2.13387831468e-06,-2.64484747952e-05,5.32939174599e-05,-6.03827134209e-05
96754881935,6033,96760000000,world,8.59165527514e-06,6.8973199172e-06,1.2767664213e-06,-2.67097296959e-05,5.35834444599e-05,-6.05895212106e-05
96775080134,6034,96776000000,world,4.66935497897e-06,3.54266046176e-06,5.26130042512e-07,-2.74822309968e-05,5.29352268711e-05,-6.06612830295e-05
96785162168,6035,96792000000,world,3.63626853802e-07,-3.86265232506e-08,-1.97921501215e-07,-2.80166703347e-05,5.26466807041e-05,-6.0927450248e-05
96805314780,6036,96808000000,world,2.98548325912e-05,3.30249389846e-05,1.09384381878e-05,-2.80435272765e-05,5.30983160558e-05,-6.13452369402e-05
96815439848,6037,96824000000,world,2.54133121447e-05,2.65274616259e-05,8.12004312435e-06,-2.76053003047e-05,5.43731560006e-05,-6.18735430272e-05
96835632489,6038,96840000000,world,1.93931338096e-05,1.99625565401e-05,5.98927208753e-06,-2.68456031861e-05,5.6265875376e-05,-6.24595761564e-05
96855882428,6039,96856000000,world,1.27907762614e-05,1.32343505552e-05,3.99916657387e-06,-2.59298416978e-05,5.84960575079e-05,-6.30614308999e-05
96866008787,6040,96872000000,world,6.02513778271e-06,6.48374186539e-06,2.05976978876e-06,-2.49854525296e-05,6.08245174654e-05,-6.36537293248e-05
96886192342,6041,96888000000,world,-7.10663610035e-07,-2.74223154821e-07,1.02760619288e-07,-2.40410237716e-05,6.31530755958e-05,-6.42460544247e-05
96896243195,6042,96904000000,world,3.24748271787e-05,2.61423549555e-05,5.22131255956e-06,-2.31394285416e-05,6.42062051525e-05,-6.59066685937e-05
96916394899,6043,96920000000,world,2.45084670683e-05,1.99005458651e-05,4.22820874262e-06,-2.24383729188e-05,6.4247421287e-05,-6.80465300221e-05
96926517368,6044,96936000000,world,1.63268674119e-05,1.32561712941e-05,2.81893384879e-06,-2.11665414247e-05,6.41497058471e-05,-7.15656807165e-05
96946740997,6045,96952000000,world,7.64188264314e-06,6.15309442599e-06,1.26934242583e-06,-1.96783565579e-05,6.43232458818e-05,-7.53103934303e-05
96967014481,6046,96968000000,world,-1.44455283129e-06,-1.56702917683e-06,-4.05359560868e-07,-1.79001531623e-05,6.38250870173e-05,-7.7660770158e-05
96977089274,6047,96984000000,world,-1.00536113021e-05,-1.04994554224e-05,-2.73959542722e-06,-1.62717082736e-05,6.30211743818e-05,-7.8350171543e-05
96997332412,6048,97000000000,world,-1.65036850908e-05,-1.72063137244e-05,-4.53931873495e-06,-1.53241373839e-05,6.23639362721e-05,-7.78847526538e-05
97007447798,6049,97016000000,world,-2.27167574542e-05,-2.37384251168e-05,-6.21781927953e-06,-1.50459427951e-05,6.20499153605e-05,-7.69230595419e-05
97027666822,6050,97032000000,world,-2.94334180613e-05,-3.15902591946e-05,-7.66435768886e-06,-1.44997325263e-05,6.23728525486e-05,-7.7947643028e-05
97047901217,6051,97048000000,world,-3.1340470458e-05,-4.68335111686e-05,-2.40584544538e-06,-1.44569052632e-05,6.42771065969e-05,-7.78188734146e-05
97058027730,6052,97064000000,world,2.19544591492e-05,2.4674931946e-05,4.88455220111e-06,-1.51638767496e-05,6.63957893787e-05,-7.65971674361e-05
97078192070,6053,97080000000,world,1.04631364421e-05,1.19060189453e-05,2.2858516994e-06,-1.65354199679e-05,6.79672726518e-05,-7.46268119578e-05
97088252488,6054,97096000000,world,-2.1170829304e-06,-1.13452169362e-06,-7.48140727116e-07,-1.83399813929e-05,6.87600039857e-05,-7.23001450759e-05
97108450442,6055,97112000000,world,-1.66938814439e-05,-1.07745311326e-05,-5.46018217348e-06,-2.04067475673e-05,6.89793739754e-05,-6.99168063198e-05
97118505052,6056,97128000000,world,-3.17286478812e-05,-1.99320439943e-05,-1.05079924308e-05,-2.24735381493e-05,6.9144103528e-05,-6.75835318729e-05
97138654746,6057,97144000000,world,-4.97838140739e-05,-1.47923528527e-05,-2.03235311717e-05,-2.45757397066e-05,6.87005247915e-05,-6.53420405471e-05
97158815592,6058,97160000000,world,2.53090816471e-05,1.7138910704e-05,8.11372623366e-06,-2.64843318255e-05,6.80073769103e-05,-6.32585501714e-05
97172882362,6059,97176000000,world,1.13134664914e-05,7.30962625367e-06,3.70852622606e-06,-2.82580759838e-05,6.7355185114e-05,-6.13046736989e-05
97182941840,6060,97192000000,world,-2.25182562634e-06,-3.05210935844e-06,-3.88499775756e-07,-2.93085865872e-05,6.6854186831e-05,-6.08395469561e-05
97203051610,6061,97208000000,world,-1.35373989331e-05,-1.65330300676e-05,-2.72927133894e-06,-2.92452748402e-05,6.73968173386e-05,-6.19743731684e-05
97223254758,6062,97224000000,world,-2.15534843115e-05,-2.64914922054e-05,-4.31301697811e-06,-2.83861202989e-05,6.86939430881e-05,-6.37405223703e-05
97233312580,6063,97240000000,world,-2.77854803024e-05,-3.60304081055e-05,-4.54137949393e-06,-2.79692542097e-05,7.02113228687e-05,-6.4520403531e-05
97253425646,6064,97256000000,world,-1.1561397096e-05,-4.32034163577e-05,3.02029459378e-05,-2.83829201425e-05,7.19565306114e-05,-6.3825557217e-05
97263479485,6065,97272000000,world,2.4984876187e-05,3.45152432108e-05,4.78085560836e-06,-2.91826432418e-05,7.30998130303e-05,-6.26078790331e-05
97283590595,6066,97288000000,world,2.25137462923e-05,3.03061535039e-05,5.75856767706e-06,-2.98698600943e-05,7.36911755284e-05,-6.14667170284e-05
97303953990,6067,97304000000,world,1.93178337844e-05,2.55820042196e-05,5.53563591716e-06,-3.07745217697e-05,7.41848146246e-05,-6.00707023166e-05
97314007809,6068,97320000000,world,1.38485432086e-05,1.82514322009e-05,4.05964281603e-06,-3.21341758111e-05,7.47928933252e-05,-5.81670480952e-05
97334164080,6069,97336000000,world,8.64082321464e-06,1.16625574598e-05,2.26900854681e-06,-3.33960004861e-05,7.52749919846e-05,-5.64257699508e-05
97344305809,6070,97352000000,world,2.43764058921e-06,3.98857078384e-06,6.91477362296e-08,-3.46954041396e-05,7.59116383057e-05,-5.46614558881e-05
97364433029,6071,97368000000,world,-4.9554547889e-06,-5.70485045752e-06,-2.07698253263e-06,-3.62426784873e-05,7.6756768815e-05,-5.26024420561e-05
97374613192,6072,97384000000,world,-1.47151516285e-05,-1.67298004117e-05,-6.34374428893e-06,-3.80474395613e-05,7.77859880541e-05,-5.02176791494e-05
97394736136,6073,97400000000,world,-2.54244739608e-05,-2.90627287062e-05,-1.08166679061e-05,-4.00415920765e-05,7.89352640564e-05,-4.7586102963e-05
97414925216,6074,97416000000,world,-3.5130870595e-05,-4.44135990614e-05,-1.07477336099e-05,-4.21383819842e-05,8.01370601857e-05,-4.48171648649e-05
97424999026,6075,97432000000,world,1.87738844191e-05,2.18884213531e-05,7.60091675171e-06,-4.42657638345e-05,8.1342101568e-05,-4.2005748105e-05
97445243540,6076,97448000000,world,7.43159099359e-06,8.78116924418e-06,2.80602802974e-06,-4.4733612802e-05,8.10616713454e-05,-4.06959869882e-05
97455371064,6077,97464000000,world,-3.80495045554e-06,-4.31433505062e-06,-2.17467579452e-06,-4.41104228801e-05,8.06430938633e-05,-4.16221503359e-05
97475531690,6078,97480000000,world,-1.48339418666e-05,-1.6974684942e-05,-8.30988779893e-06,-4.24227207575e-05,8.00867255178e-05,-4.46480803484e-05
97495703708,6079,97496000000,world,-2.58243774231e-05,-2.93405643191e-05,-1.4642406269e-05,-4.04345021444e-05,8.00334275707e-05,-4.90644943365e-05
97505738697,6080,97512000000,world,-3.68984824535e-05,-3.57789277227e-05,-2.87207782932e-05,-3.91947450153e-05,8.05645428259e-05,-5.2689747645e-05
97525912771,6081,97528000000,world,1.84849293614e-05,1.94279275173e-05,1.19889181569e-05,-3.93133388267e-05,8.15553269527e-05,-5.40037053741e-05
97535990909,6082,97544000000,world,1.10593729916e-05,1.15741854742e-05,7.29379724213e-06,-4.00489697364e-05,8.2504196474e-05,-5.37813805065e-05
97556180181,6083,97560000000,world,7.3958794714e-06,7.71317021339e-06,5.11036545284e-06,-4.0815203123e-05,8.31862577403e-05,-5.28702508125e-05
97566294624,6084,97576000000,world,4.14239666987e-06,4.27225417145e-06,3.08301810472e-06,-4.08006271627e-05,8.41102895791e-05,-5.34602051774e-05
97586366614,6085,97592000000,world,-1.80773264768e-07,-2.13437540791e-07,2.97625550981e-07,-3.93435917212e-05,8.37583079107e-05,-5.4468138903e-05
97606524903,6086,97608000000,world,2.8700847299e-05,2.97825268676e-05,1.12702063363e-05,-3.66405345938e-05,8.16918737608e-05,-5.50801268779e-05
97616607800,6087,97624000000,world,2.06243743105e-05,2.13189755534e-05,8.72917689489e-06,-3.3116296673e-05,7.81810974725e-05,-5.50155890967e-05
97636818351,6088,97640000000,world,1.17422615768e-05,1.21267231421e-05,4.91094105539e-06,-2.92210108469e-05,7.25834671307e-05,-5.54148436176e-05
97646935860,6089,97656000000,world,2.09272090367e-05,1.18053871521e-05,4.78253637484e-06,-3.09470257496e-05,8.18832994198e-05,0.000417999733186
97667145279,6090,97672000000,world,3.8161516467e-05,3.68446108074e-06,1.57987614222e-06,-3.44962715821e-05,7.71802757477e-05,0.00159988245726
97687336337,6091,97688000000,world,9.6489627766e-05,-4.90489347685e-06,-2.57141557285e-06,-2.87997997111e-05,5.55647422044e-05,0.00342000290172
97697432392,6092,97704000000,world,0.000187209684574,-2.43744618331e-06,-3.59087642266e-06,-9.55817178239e-06,3.01895296299e-05,0.00566426914949
97717680632,6093,97720000000,world,0.000290678074884,9.55803651389e-07,-4.82871039462e-06,1.79658200694e-05,5.08894155322e-06,0.00813079044713
97727746286,6094,97736000000,world,0.000395762140719,4.04617047476e-06,-6.15794746458e-06,4.75419186405e-05,-1.96152125246e-05,0.0106712456624
97758011311,6095,97760000000,world,0.000548094561293,5.70151844379e-06,-8.82102412501e-06,8.50718665674e-05,-5.224878489e-05,0.014505244414
97758011311,6096,97768000000,world,0.000597821614411,5.87817096443e-06,-9.85019113844e-06,9.64174488692e-05,-6.2748774128e-05,0.015782254421
97778510083,6097,97784000000,world,0.000696056051189,5.23327044473e-06,-1.23108604993e-05,0.000115978002228,-8.35907771796e-05,0.0183216371819
97798758355,6098,97800000000,world,0.000739789233903,-2.99770664138e-06,-1.41970076796e-05,0.000110553117936,-0.000106727976615,0.020090329397
97808902075,6099,97816000000,world,0.000704515037452,-9.49880116505e-06,-1.45470918928e-05,0.000100380408949,-0.000104189780847,0.0209210896008
97829054922,6100,97832000000,world,0.000672846163921,-1.46008074303e-05,-1.47443670424e-05,8.98458833087e-05,-0.000102558883674,0.0217537109778
97839174881,6101,97848000000,world,0.000687160557441,-1.90763930099e-05,-1.55733208748e-05,7.87654705728e-05,-0.000115570610946,0.023015730117
97849243044,6102,97864000000,world,0.000686049933745,-2.24725198834e-05,-1.59794983016e-05,6.74060152221e-05,-0.000122822377003,0.0240923648865
97879528408,6103,97880000000,world,0.000714882044343,-2.51653228787e-05,-1.67072228649e-05,5.55650745985e-05,-0.000138815169078,0.0254338877713
97889604765,6104,97896000000,world,0.000787517761241,-2.46158380735e-05,-1.80562941297e-05,4.90862383271e-05,-0.000163398066023,0.0271893935505
97909756687,6105,97912000000,world,0.00090035900818,-2.08870930275e-05,-1.97780600261e-05,4.76970686695e-05,-0.000203268030698,0.0287331506345
97919864351,6106,97928000000,world,0.00104290511254,-1.66700624658e-05,-2.17212302562e-05,4.5676470475e-05,-0.000255709993144,0.0297971193044
97940108124,6107,97944000000,world,0.0011998156237,-1.3794165199e-05,-2.38169631828e-05,3.96302086748e-05,-0.000304911266776,0.0303807585236
97950222332,6108,97960000000,world,0.00135985724886,-1.22104901879e-05,-2.59199941367e-05,2.97030389004e-05,-0.000342509795064,0.030603877267
97970381662,6109,97976000000,world,0.00151666491898,-1.02580917803e-05,-2.79844363249e-05,2.02613894027e-05,-0.000364700787696,0.0306067328561
97990632647,6110,97992000000,world,0.00166596027871,-7.71586741184e-06,-3.02535861997e-05,1.20087724582e-05,-0.000361166957997,0.030565298216
98000715519,6111,98008000000,world,0.00181310640125,-5.00396804095e-06,-3.27776042823e-05,4.71105320533e-06,-0.000353824640157,0.0304690050996
98030997409,6112,98032000000,world,0.00203800103225,-6.39328065108e-07,-3.6913225692e-05,-4.41391404315e-06,-0.00035829689046,0.0301852227219
98030997409,6113,98040000000,world,0.00211417227934,7.91175971132e-07,-3.83211922803e-05,-7.09434449395e-06,-0.000363898549695,0.030066751102
98051186681,6114,98056000000,world,0.00227037051884,3.60263460322e-06,-4.11423203408e-05,-1.19026244256e-05,-0.000383812820148,0.0297616702277
98071423923,6115,98072000000,world,0.00234406080877,6.3627939815e-06,-4.28290188053e-05,-1.62505336958e-05,-0.000401473523377,0.0295058579761
98081546229,6116,98088000000,world,0.00232113204893,8.12504838539e-06,-4.28578949127e-05,-1.90811759735e-05,-0.000412167906555,0.0293503066336
98101758655,6117,98104000000,world,0.00230208046579,9.70210125881e-06,-4.24265381156e-05,-2.12658537673e-05,-0.000423692730936,0.0291565371356
98111857140,6118,98120000000,world,0.00233713232482,1.14533420941e-05,-4.23516225449e-05,-2.20049009065e-05,-0.000438429241839,0.0288575644061
98132061184,6119,98136000000,world,0.00243906840395,1.28824179465e-05,-4.30549409883e-05,-1.97543862763e-05,-0.000457017100507,0.0284433253351
98142156911,6120,98152000000,world,0.00259514894039,1.35762930617e-05,-4.44708873644e-05,-1.3899199229e-05,-0.000478603114789,0.0279455525192
98162327711,6121,98168000000,world,0.00278312419958,1.37012265747e-05,-4.63806507006e-05,-5.47096772425e-06,-0.000499433235755,0.0274021109846
98182490735,6122,98184000000,world,0.0029836432918,1.33937147559e-05,-4.85590354211e-05,4.77298930114e-06,-0.000519533070298,0.026848184715
98196884134,6123,98200000000,world,0.00318384227205,1.27138114194e-05,-5.08270092711e-05,1.53195494162e-05,-0.000539475212742,0.0263036652061
98206941757,6124,98216000000,world,0.00337865861322,1.21423387792e-05,-5.3145532456e-05,2.39885910017e-05,-0.000559155473729,0.0257838948413
98227049319,6125,98232000000,world,0.00356750190731,1.19994385471e-05,-5.49757878217e-05,3.00545256572e-05,-0.000580461043608,0.0252948571481
98247198139,6126,98248000000,world,0.00375221663641,1.20281968152e-05,-5.61619016081e-05,3.50316776572e-05,-0.000602556799671,0.0248340099582
98257254806,6127,98264000000,world,0.00393502608126,1.18872754262e-05,-5.71021112038e-05,3.93038283506e-05,-0.000623794088887,0.0244015688015
98277368190,6128,98280000000,world,0.00411696141292,1.16053828807e-05,-5.8015254793e-05,4.33157198622e-05,-0.000641020547652,0.0239936365448
98287424269,6129,98296000000,world,0.00429961254588,1.10255244835e-05,-5.9117185346e-05,4.74375108654e-05,-0.000653493914755,0.0236105034297
98307768421,6130,98312000000,world,0.00448282386187,1.06837026861e-05,-6.06835846516e-05,5.15736732583e-05,-0.000662050452724,0.0232553814031
98318019823,6131,98328000000,world,0.00466643166146,1.04010856824e-05,-6.25423200793e-05,5.4900346723e-05,-0.000667897625615,0.022932199652
98338371862,6132,98344000000,world,0.00475780919185,1.0816818156e-05,-6.37439924044e-05,5.38542737282e-05,-0.000667817399319,0.0227155010387
98358734745,6133,98360000000,world,0.00474169000543,1.10380629642e-05,-6.36716464688e-05,5.13535610209e-05,-0.000664343571363,0.0226132910638
98368919622,6134,98376000000,world,0.00472637766549,1.15409280461e-05,-6.29721163217e-05,4.88611614556e-05,-0.000658043187001,0.022521241578
98389071493,6135,98392000000,world,0.00468240588318,1.19904462057e-05,-6.17308042328e-05,4.70858508917e-05,-0.000651203956881,0.0224599865809
98399135644,6136,98408000000,world,0.00468161945708,1.22871986025e-05,-6.05157209427e-05,4.56571809837e-05,-0.00064194230983,0.0223799391575
98419279091,6137,98424000000,world,0.00475533073272,1.23534105961e-05,-5.97056296186e-05,4.48505848754e-05,-0.000633779681093,0.0222700070677
98439490025,6138,98440000000,world,0.00489904442603,1.2253673292e-05,-5.93748100039e-05,4.48926374655e-05,-0.000628674061616,0.0221380492321
98449576162,6139,98456000000,world,0.00508919268956,1.21879077204e-05,-5.94253862169e-05,4.53779870861e-05,-0.000626536326944,0.0220003245876
98469782477,6140,98472000000,world,0.00530132037392,1.21462839418e-05,-5.97154903684e-05,4.62454254307e-05,-0.000625919316845,0.0218668226633
98479920011,6141,98488000000,world,0.00551845876539,1.17404523343e-05,-6.01194967467e-05,4.84183659738e-05,-0.000623856048737,0.021743450412
98500127347,6142,98504000000,world,0.00573129320681,1.10547293137e-05,-6.05635437402e-05,4.98554466517e-05,-0.000620879650297,0.0216368649372
98510194647,6143,98520000000,world,0.00593690204312,9.95615254614e-06,-6.1045612637e-05,5.04581927553e-05,-0.00061716300295,0.0215466378362
98530393793,6144,98536000000,world,0.00613653149159,8.88312177131e-06,-6.15491154283e-05,4.94700454836e-05,-0.000613409896401,0.0214729213991
98550668041,6145,98552000000,world,0.00633192632059,8.41643618962e-06,-6.18303418794e-05,4.65020402871e-05,-0.000609222562153,0.0214134249748
98580945203,6146,98568000000,world,0.00662237742052,8.69880798812e-06,-6.18494084254e-05,4.11583327682e-05,-0.00060017498227,0.0213406822705
98591035998,6147,98584000000,world,0.00671918125651,9.19808440828e-06,-6.17535825771e-05,3.90449895537e-05,-0.000596182994841,0.0213206053816
98591035998,6148,98600000000,world,0.00691316913488,1.06074800058e-05,-6.1566572404e-05,3.55125035625e-05,-0.000589302057993,0.0212882156133
98611189951,6149,98616000000,world,0.0070110350723,1.15815524962e-05,-6.11552508053e-05,3.28785963726e-05,-0.000580524865775,0.0212653410835
98631387614,6150,98632000000,world,0.00699798903026,1.19001366123e-05,-6.04649252313e-05,3.19199911709e-05,-0.00057117061763,0.0212519404517
98641502757,6151,98648000000,world,0.00691201741957,1.20715570117e-05,-5.95563689132e-05,3.21439368592e-05,-0.000568220258089,0.0212491125998
98661668891,6152,98664000000,world,0.00685461389336,1.21797231604e-05,-5.86855111168e-05,3.02207328157e-05,-0.000562592636167,0.0212482069457
98671752871,6153,98680000000,world,0.00687921058759,1.23930550425e-05,-5.80640550429e-05,2.49938594599e-05,-0.000556344976427,0.0212527878885
98691990960,6154,98696000000,world,0.00699813550449,1.30874140162e-05,-5.77149488215e-05,1.76652197815e-05,-0.000552568964999,0.0212642720994
98702113005,6155,98712000000,world,0.00718680850414,1.43046824108e-05,-5.7579835262e-05,9.46398263084e-06,-0.000551571262208,0.0212815792202
98722369342,6156,98728000000,world,0.00741187041753,1.55168763715e-05,-5.75743840553e-05,1.81236666049e-07,-0.000551420513382,0.0213034819061
98742604350,6157,98744000000,world,0.00764755912122,1.61650420295e-05,-5.7430207631e-05,-8.28847116819e-06,-0.000551761496266,0.0213259887247
98752725070,6158,98760000000,world,0.0078795753111,1.6182765005e-05,-5.69711069692e-05,-1.48097088828e-05,-0.000554285093436,0.0213483179431
98772962103,6159,98776000000,world,0.00810228767449,1.57557265786e-05,-5.62242597845e-05,-1.94616966618e-05,-0.000558764784259,0.0213698236685
98783049898,6160,98792000000,world,0.00831622029077,1.50931397566e-05,-5.53917684286e-05,-2.3454649747e-05,-0.000563255590269,0.0213903849778
98803214202,6161,98808000000,world,0.00852414459836,1.44378642211e-05,-5.45873517193e-05,-2.73615781996e-05,-0.000566880557372,0.021409924588
98823413627,6162,98824000000,world,0.00872921328166,1.39262128153e-05,-5.38077310607e-05,-3.10193735548e-05,-0.000569952911802,0.021428132272
98833533808,6163,98840000000,world,0.00893377684446,1.3384546149e-05,-5.30503371264e-05,-3.52275249871e-05,-0.00057281329968,0.0214470142804
98853732565,6164,98856000000,world,0.00913892292698,1.26632076756e-05,-5.23133410036e-05,-4.06139243858e-05,-0.0005758292587,0.0214683611159
98863861204,6165,98872000000,world,0.00934356980182,1.29392966109e-05,-5.14870741961e-05,-4.52647294443e-05,-0.000576319613798,0.0214914993019
98884108868,6166,98888000000,world,0.00944856856821,1.30657680788e-05,-5.07015492157e-05,-4.91674432223e-05,-0.00056970570518,0.0215053307205
98894185193,6167,98904000000,world,0.00953203103851,1.39246215371e-05,-4.97781888898e-05,-5.16084689687e-05,-0.000559185221227,0.0215191628874
98914384234,6168,98920000000,world,0.00963933947394,1.58333893108e-05,-4.86790878229e-05,-5.25368469921e-05,-0.000550329666406,0.0215410415394
98934657067,6169,98936000000,world,0.00978634751941,1.86758077071e-05,-4.7451967885e-05,-5.29885069742e-05,-0.000542964092343,0.0215734355358
98944743837,6170,98952000000,world,0.00996937788107,2.20943393154e-05,-4.61656247222e-05,-5.32037245179e-05,-0.000536536060053,0.0216136164592
98964956423,6171,98968000000,world,0.010176103981,2.5784161782e-05,-4.48745753089e-05,-5.34094083816e-05,-0.000530332681537,0.0216579527249
98975060404,6172,98984000000,world,0.0103937260251,2.9537991613e-05,-4.36059229128e-05,-5.36965525301e-05,-0.000523907740871,0.0217035545814
98995295717,6173,99000000000,world,0.0106128753321,3.32878800834e-05,-4.23571366812e-05,-5.39432732662e-05,-0.000517054270415,0.0217489073172
99015521344,6174,99016000000,world,0.0108289294974,3.6998813065e-05,-4.11264446767e-05,-5.4152758004e-05,-0.000511401836186,0.0217953775453
99025598502,6175,99032000000,world,0.0110404992403,4.06157049768e-05,-3.99284672361e-05,-5.4426235862e-05,-0.000508969271985,0.0218420561427
99045838813,6176,99048000000,world,0.0112479061153,4.41931163705e-05,-3.87699618021e-05,-5.47296155777e-05,-0.000507998506094,0.021886028041
99055964793,6177,99064000000,world,0.0113532222604,4.59685466403e-05,-3.7858786863e-05,-5.59376888176e-05,-0.000502186544888,0.0219114229079
99076161626,6178,99080000000,world,0.0114359148187,4.72313681855e-05,-3.70214873682e-05,-5.67374238741e-05,-0.000495007717262,0.0219297756684
99096426710,6179,99096000000,world,0.0115411179593,4.85888598691e-05,-3.61880195563e-05,-5.66352452942e-05,-0.000489214077047,0.0219474070574
99106531139,6180,99112000000,world,0.0116843716482,5.03454293292e-05,-3.52835937149e-05,-5.55825788024e-05,-0.000484013027445,0.0219678732739
99126710440,6181,99128000000,world,0.0118631250868,5.26602833981e-05,-3.42938419021e-05,-5.36583477927e-05,-0.000478242440692,0.0219915168535
99136765915,6182,99144000000,world,0.0120657682829,5.54702106931e-05,-3.32431653018e-05,-5.1184555166e-05,-0.000471412024548,0.0220174324591
99167010093,6183,99168000000,world,0.0123877721515,6.02648336586e-05,-3.16197928234e-05,-4.71347837734e-05,-0.000459393677196,0.0220583501869
99167010093,6184,99176000000,world,0.0124957683896,6.19325615612e-05,-3.10794831258e-05,-4.57723924772e-05,-0.000455182671075,0.0220720974162
99187169839,6185,99192000000,world,0.0127087246686,6.5226484437e-05,-3.00072384778e-05,-4.31093906146e-05,-0.000446346414654,0.0220993424813
99201183374,6186,99208000000,world,0.0128185364011,6.6853695556e-05,-2.91156029124e-05,-4.19244064824e-05,-0.000433875544962,0.0221162022123
99221295897,6187,99224000000,world,0.0128097998112,6.68338762594e-05,-2.85540616476e-05,-4.21241349759e-05,-0.000421460864942,0.0221196704704
99231399162,6188,99240000000,world,0.0127239597531,6.63229528285e-05,-2.829890785e-05,-4.2633979452e-05,-0.000417449664547,0.0221182288475
99251548798,6189,99256000000,world,0.0126679845487,6.63737116978e-05,-2.80409024397e-05,-4.46467653996e-05,-0.000410906437877,0.0221182769187
99271659392,6190,99272000000,world,0.0126121240499,6.64662822923e-05,-2.77836129266e-05,-4.67175266935e-05,-0.000404517864612,0.0221185972118
99284649437,6191,99288000000,world,0.0126236487651,6.76612768483e-05,-2.7486303292e-05,-5.01201192244e-05,-0.000396147362519,0.0221266411198
99294707791,6192,99304000000,world,0.0127277791994,7.11013210683e-05,-2.71342076587e-05,-5.29915233703e-05,-0.000391012050204,0.0221462991517
99314855423,6193,99320000000,world,0.0129101837533,7.64322099357e-05,-2.67371153876e-05,-5.54824170673e-05,-0.000389365725852,0.0221766346482
99335039100,6194,99336000000,world,0.0131397512617,8.28992591326e-05,-2.63150956067e-05,-5.77758807386e-05,-0.00039040695123,0.0222141947447
99345115829,6195,99352000000,world,0.0133893032195,8.98518147796e-05,-2.58854816965e-05,-6.0145972671e-05,-0.000392049240575,0.0222545478479
99365303098,6196,99368000000,world,0.013640905841,9.65470235931e-05,-2.54595884389e-05,-6.19111662615e-05,-0.000392757180156,0.0222926804773
99375427339,6197,99384000000,world,0.013885502826,0.000102698999529,-2.50429653127e-05,-6.29358943956e-05,-0.000392826770739,0.0223265492084
99395590322,6198,99400000000,world,0.0141215244824,0.000108451010999,-2.46362988677e-05,-6.32378732834e-05,-0.000390930662597,0.0223558969055
99415838703,6199,99424000000,world,0.0144639490792,0.000116750749236,-2.40413867149e-05,-6.27934112737e-05,-0.000388689170331,0.0223964648144
99435994746,6200,99432000000,world,0.0145769433261,0.000119523370889,-2.38456827689e-05,-6.25594942498e-05,-0.000388561058029,0.0224096010733
99446122159,6201,99448000000,world,0.014802050662,0.000125118451864,-2.34574512826e-05,-6.1952211931e-05,-0.000390665520568,0.0224353074533
99456241245,6202,99464000000,world,0.0150263907451,0.000131621174119,-2.30729631496e-05,-6.23756130489e-05,-0.000394916589621,0.0224557144966
99476476629,6203,99480000000,world,0.0151457056359,0.000135823414098,-2.27632540515e-05,-6.41891803145e-05,-0.000393639349566,0.0224632302357
99486606117,6204,99496000000,world,0.0152412475203,0.00014042658545,-2.24718782201e-05,-6.6530613845e-05,-0.0003913704507,0.0224664523614
99506822739,6205,99512000000,world,0.0153612669167,0.000146371955484,-2.21651759246e-05,-6.81631376913e-05,-0.000390198827469,0.0224695789676
99526978178,6206,99528000000,world,0.0155229044775,0.000153838198722,-2.18311367868e-05,-6.91118984126e-05,-0.000388466612226,0.0224725794862
99537054540,6207,99544000000,world,0.0157220230651,0.000162261136186,-2.14727282414e-05,-6.94793298845e-05,-0.000387769266144,0.0224774011559
99557290060,6208,99560000000,world,0.0159456294276,0.000171149018114,-2.10991982162e-05,-6.94464720343e-05,-0.00038857298551,0.0224843872002
99567414869,6209,99576000000,world,0.0160774068679,0.000176736352294,-2.07943101158e-05,-6.98125259115e-05,-0.000384253955307,0.0224864663631
99587632894,6210,99592000000,world,0.0161883315815,0.000181517850458,-2.05062652302e-05,-7.02746419548e-05,-0.000379505738012,0.022488127253
99607855868,6211,99608000000,world,0.0163200427848,0.000186783675833,-2.02044752345e-05,-7.16543018315e-05,-0.00037705755486,0.0224940696469
99617941057,6212,99624000000,world,0.0164873342719,0.000192872433591,-1.98779822665e-05,-7.41436641819e-05,-0.00037575234287,0.0225035421743
99638195346,6213,99640000000,world,0.0166870550093,0.000199798159735,-1.95290860725e-05,-7.7469053806e-05,-0.000374319022293,0.0225150469641
99648266295,6214,99656000000,world,0.0169077435187,0.000207675114196,-1.91663008215e-05,-8.02792636541e-05,-0.000373371273708,0.0225248270443
99668466441,6215,99672000000,world,0.0171383699382,0.00021565136291,-1.87979016229e-05,-8.21954749152e-05,-0.000371908164873,0.0225319980305
99678589626,6216,99688000000,world,0.0173710550821,0.000223317002113,-1.84297991331e-05,-8.31778777837e-05,-0.000371760373656,0.0225384804535
99698752372,6217,99704000000,world,0.0176014494987,0.000230587387726,-1.80652223414e-05,-8.34895786583e-05,-0.000373073240917,0.022545556766
99719016100,6218,99720000000,world,0.0178277513293,0.000237544534652,-1.75984923756e-05,-8.29999298245e-05,-0.000374948754267,0.022553853299
99729143448,6219,99736000000,world,0.0179467433477,0.000241153115242,-1.71984810412e-05,-8.31106744207e-05,-0.000370900119219,0.0225568486874
99749339489,6220,99752000000,world,0.018039212749,0.000245443445438,-1.66611823729e-05,-8.23618284467e-05,-0.000364965825807,0.022556428328
99759461635,6221,99768000000,world,0.0181538705763,0.000251482897933,-1.5929536224e-05,-8.07082615936e-05,-0.000359275059056,0.0225550694992
99779683036,6222,99784000000,world,0.0183087416735,0.000259514661434,-1.50423293342e-05,-7.84667541048e-05,-0.000352314877736,0.0225529036115
99799896642,6223,99800000000,world,0.0185006937697,0.00026893543326,-1.40679113941e-05,-7.59966227817e-05,-0.000346340839394,0.0225522008928
99810035192,6224,99816000000,world,0.0187173621859,0.000279075281386,-1.30644312321e-05,-7.33938669855e-05,-0.000342226628411,0.0225533069236
99830226097,6225,99832000000,world,0.0189456437475,0.000289423649831,-1.20637365486e-05,-7.07342951084e-05,-0.000339882467904,0.0225559660363
99840245438,6226,99848000000,world,0.0191758237763,0.000299687733564,-1.10673821989e-05,-6.80205048876e-05,-0.000338706614684,0.0225596746776
99860439163,6227,99864000000,world,0.0194027480358,0.000309775504508,-1.00760982967e-05,-6.52807460912e-05,-0.000337936185588,0.0225637732341
99870566615,6228,99880000000,world,0.0196234303667,0.000319624014562,-9.10628081907e-06,-6.26951629954e-05,-0.000335881368806,0.0225667088873
99890847538,6229,99896000000,world,0.019838288949,0.00032831248376,-8.16616278888e-06,-6.12087526011e-05,-0.000333463590226,0.0225723735304
99911021506,6230,99912000000,world,0.0199480393741,0.000332585038138,-7.49827078197e-06,-6.14726352766e-05,-0.00032618953853,0.0225740793521
99921091758,6231,99928000000,world,0.0200326606318,0.000335594471033,-6.90607911985e-06,-6.21214708345e-05,-0.00031876554906,0.0225770663015
99941322779,6232,99944000000,world,0.0201396964079,0.000339135838469,-6.30399965345e-06,-6.25315218619e-05,-0.000313337471057,0.0225858307091
99951391659,6233,99960000000,world,0.0202867065377,0.000343791032313,-5.61073517083e-06,-6.12358672506e-05,-0.000308400083467,0.0225991538985
99971585838,6234,99976000000,world,0.0204703755064,0.000349555269705,-4.81262045722e-06,-5.78010097836e-05,-0.000305270345368,0.0226166691716
99991724056,6235,99992000000,world,0.0206783658579,0.000356124670902,-3.93750111633e-06,-5.26418055479e-05,-0.000304056741004,0.0226369571003
100001836961,6236,100008000000,world,0.0207986493553,0.000359812556376,-3.20704493572e-06,-4.88386922017e-05,-0.000297766853966,0.0226498823014
100022055709,6237,100024000000,world,0.0208990131615,0.000363161918203,-2.51851037031e-06,-4.64640169887e-05,-0.000289385718776,0.0226560915058
100032242883,6238,100040000000,world,0.0210189837504,0.000367507840222,-1.82269381726e-06,-4.53344544964e-05,-0.000281025082659,0.0226584145539
100052442334,6239,100056000000,world,0.0210743213557,0.00037026177483,-1.29793831193e-06,-4.49047927111e-05,-0.00026994383951,0.022655539774
100062568845,6240,100072000000,world,0.021139276238,0.000373672555122,-7.69146334459e-07,-4.44905108033e-05,-0.000258962295707,0.0226527481315
100082768060,6241,100088000000,world,0.0212489979759,0.000378612555047,-1.74952474393e-07,-4.29877788755e-05,-0.000250492516589,0.022649515024
100103034450,6242,100104000000,world,0.0214087901887,0.000384946081321,5.45512338747e-07,-3.98432886433e-05,-0.000245194211773,0.0226458724581
100113094144,6243,100120000000,world,0.0216063169927,0.000391898002077,1.37066078862e-06,-3.62198824719e-05,-0.000242060872897,0.0226440542913
100133256460,6244,100136000000,world,0.0217255213021,0.00039572644088,2.06863396337e-06,-3.40609975763e-05,-0.000234769583779,0.0226402736853
100143349781,6245,100152000000,world,0.0218308769707,0.000398820752225,2.52315068486e-06,-3.34577332232e-05,-0.000227864064867,0.0226366394979
100163538013,6246,100168000000,world,0.0219587500757,0.000402549273548,2.77208291715e-06,-3.44472244426e-05,-0.000225163743388,0.022637219246
100183740227,6247,100184000000,world,0.0221211937773,0.000407418780264,2.99946502029e-06,-3.57061504264e-05,-0.00022670743011,0.022641916191
100193797630,6248,100200000000,world,0.0223145177209,0.000413436475895,3.25531296272e-06,-3.68312652978e-05,-0.000229235124465,0.0226473360743
100213961623,6249,100216000000,world,0.0225264759757,0.000420205753254,3.52842812989e-06,-3.77512986291e-05,-0.000231840451622,0.0226523933786
100224091615,6250,100232000000,world,0.0226467638721,0.000423874576456,3.71637675989e-06,-3.94588928984e-05,-0.000228267333491,0.0226527671524
100244231683,6251,100248000000,world,0.0227463029054,0.000426271095481,3.88498741541e-06,-4.15689888345e-05,-0.000224524145062,0.0226595508939
100254292793,6252,100264000000,world,0.0228662497224,0.000428887706292,4.07273473175e-06,-4.47684358186e-05,-0.000222700489704,0.022673150399
100274403084,6253,100280000000,world,0.0229219610243,0.000429425310478,4.20011177004e-06,-4.84157086345e-05,-0.000216880253614,0.0226828842573
100294513357,6254,100296000000,world,0.0229869195522,0.000430098546099,4.33622991717e-06,-5.18464689001e-05,-0.000212422569407,0.0226914859026
100304567443,6255,100312000000,world,0.0230968921073,0.000432040421011,4.51498653246e-06,-5.4478409406e-05,-0.000209015484721,0.0226994505358
100324761200,6256,100328000000,world,0.0232577453957,0.000435564089729,4.74209993835e-06,-5.61561434106e-05,-0.000208195404497,0.0227080438115
100334864605,6257,100344000000,world,0.0234572912179,0.000440392833823,5.00611768575e-06,-5.70261142075e-05,-0.000209821692538,0.0227174410241
100355137950,6258,100360000000,world,0.0236782661842,0.000446025761753,5.29066763864e-06,-5.74397502392e-05,-0.000212982088357,0.0227276162536
100375309803,6259,100376000000,world,0.0239069120803,0.000452060681666,5.58264355044e-06,-5.77565411011e-05,-0.000216378152802,0.0227380318633
