%time,field.header.seq,field.header.stamp,field.header.frame_id,field.orientation.x,field.orientation.y,field.orientation.z,field.orientation.w,field.orientation_covariance0,field.orientation_covariance1,field.orientation_covariance2,field.orientation_covariance3,field.orientation_covariance4,field.orientation_covariance5,field.orientation_covariance6,field.orientation_covariance7,field.orientation_covariance8,field.angular_velocity.x,field.angular_velocity.y,field.angular_velocity.z,field.angular_velocity_covariance0,field.angular_velocity_covariance1,field.angular_velocity_covariance2,field.angular_velocity_covariance3,field.angular_velocity_covariance4,field.angular_velocity_covariance5,field.angular_velocity_covariance6,field.angular_velocity_covariance7,field.angular_velocity_covariance8,field.linear_acceleration.x,field.linear_acceleration.y,field.linear_acceleration.z,field.linear_acceleration_covariance0,field.linear_acceleration_covariance1,field.linear_acceleration_covariance2,field.linear_acceleration_covariance3,field.linear_acceleration_covariance4,field.linear_acceleration_covariance5,field.linear_acceleration_covariance6,field.linear_acceleration_covariance7,field.linear_acceleration_covariance8
93814781613,5515,93824000000,honey/imu,1.93711176416e-05,7.23994885226e-06,0.707154367833,0.707059191035,-1.0,-1.0,-1.0,-1.0,-1.0,-1.0,-1.0,-1.0,-1.0,6.83264326961e-06,3.2914252666e-05,2.53537300782e-05,0.0,0.0,0.0,0.0,0.0,0.0,0.0,0.0,0.0,-0.00118772270721,8.03423425923e-07,3.40855107978e-07,0.0,0.0,0.0,0.0,0.0,0.0,0.0,0.0,0.0
93834989358,5516,93840000000,honey/imu,1.92249602757e-05,7.4631234443e-06,0.707154513513,0.707059045337,-1.0,-1.0,-1.0,-1.0,-1.0,-1.0,-1.0,-1.0,-1.0,6.80220687622e-06,3.24917959906e-05,2.59446043271e-05,0.0,0.0,0.0,0.0,0.0,0.0,0.0,0.0,0.0,0.00110736595473,3.02510685841e-07,2.72222683149e-07,0.0,0.0,0.0,0.0,0.0,0.0,0.0,0.0,0.0
93855184761,5517,93856000000,honey/imu,1.90820917013e-05,7.68266405756e-06,0.707154663514,0.707058895317,-1.0,-1.0,-1.0,-1.0,-1.0,-1.0,-1.0,-1.0,-1.0,6.77166138243e-06,3.1879532059e-05,2.67090987677e-05,0.0,0.0,0.0,0.0,0.0,0.0,0.0,0.0,0.0,0.00113297051765,4.33558589126e-07,4.43339864255e-07,0.0,0.0,0.0,0.0,0.0,0.0,0.0,0.0,0.0
93866081109,5518,93864000000,honey/imu,1.8942797882e-05,7.89828476647e-06,0.707154818101,0.707058740711,-1.0,-1.0,-1.0,-1.0,-1.0,-1.0,-1.0,-1.0,-1.0,6.7563888377e-06,3.15730118756e-05,2.70918303661e-05,0.0,0.0,0.0,0.0,0.0,0.0,0.0,0.0,0.0,-0.00544022255062,2.95644612336e-06,2.10284032803e-06,0.0,0.0,0.0,0.0,0.0,0.0,0.0,0.0,0.0
93886290671,5519,93888000000,honey/imu,1.88075426522e-05,8.10952179655e-06,0.7071549777,0.707058581091,-1.0,-1.0,-1.0,-1.0,-1.0,-1.0,-1.0,-1.0,-1.0,6.71057035564e-06,3.0489474769e-05,2.83909893794e-05,0.0,0.0,0.0,0.0,0.0,0.0,0.0,0.0,0.0,-0.00119067352669,1.3902388611e-06,1.12352581063e-06,0.0,0.0,0.0,0.0,0.0,0.0,0.0,0.0,0.0
93896357007,5520,93904000000,honey/imu,1.86756573303e-05,8.31704313488e-06,0.707155141707,0.707058417063,-1.0,-1.0,-1.0,-1.0,-1.0,-1.0,-1.0,-1.0,-1.0,6.67991573981e-06,2.97828706007e-05,2.92438509102e-05,0.0,0.0,0.0,0.0,0.0,0.0,0.0,0.0,0.0,0.000695867392503,6.97064032313e-07,6.63402087832e-07,0.0,0.0,0.0,0.0,0.0,0.0,0.0,0.0,0.0
93916526599,5521,93920000000,honey/imu,1.85491951549e-05,8.51879456593e-06,0.707155312,0.707058246748,-1.0,-1.0,-1.0,-1.0,-1.0,-1.0,-1.0,-1.0,-1.0,6.64926111598e-06,2.86715236139e-05,3.04665762118e-05,0.0,0.0,0.0,0.0,0.0,0.0,0.0,0.0,0.0,0.000611985885264,1.23185365496e-06,1.19774363583e-06,0.0,0.0,0.0,0.0,0.0,0.0,0.0,0.0,0.0
93926588945,5522,93936000000,honey/imu,1.8430927858e-05,8.71200594186e-06,0.707155491108,0.707058067615,-1.0,-1.0,-1.0,-1.0,-1.0,-1.0,-1.0,-1.0,-1.0,6.61860648993e-06,2.70686577374e-05,3.21381527677e-05,0.0,0.0,0.0,0.0,0.0,0.0,0.0,0.0,0.0,0.000628013073879,1.55598770684e-06,1.6402666905e-06,0.0,0.0,0.0,0.0,0.0,0.0,0.0,0.0,0.0
93946886901,5523,93952000000,honey/imu,1.83216350646e-05,8.89589527443e-06,0.707155679747,0.707057878951,-1.0,-1.0,-1.0,-1.0,-1.0,-1.0,-1.0,-1.0,-1.0,6.58773370126e-06,2.56846387817e-05,3.36105150072e-05,0.0,0.0,0.0,0.0,0.0,0.0,0.0,0.0,0.0,0.000699126270232,1.31287048786e-06,1.38030832048e-06,0.0,0.0,0.0,0.0,0.0,0.0,0.0,0.0,0.0
93967075226,5524,93960000000,honey/imu,1.82688698962e-05,8.98582750683e-06,0.707155776288,0.707057782397,-1.0,-1.0,-1.0,-1.0,-1.0,-1.0,-1.0,-1.0,-1.0,6.57224276732e-06,2.52257774398e-05,3.41341187236e-05,0.0,0.0,0.0,0.0,0.0,0.0,0.0,0.0,0.0,-0.00582843128542,4.61343082161e-06,3.27427464855e-06,0.0,0.0,0.0,0.0,0.0,0.0,0.0,0.0,0.0
93977151035,5525,93976000000,honey/imu,1.81611711777e-05,9.16759719357e-06,0.707155968405,0.707057590254,-1.0,-1.0,-1.0,-1.0,-1.0,-1.0,-1.0,-1.0,-1.0,6.54126089873e-06,2.57058539912e-05,3.39066749716e-05,0.0,0.0,0.0,0.0,0.0,0.0,0.0,0.0,0.0,0.000836180417416,-7.0591971909e-07,-7.9893236061e-07,0.0,0.0,0.0,0.0,0.0,0.0,0.0,0.0,0.0
93997338555,5526,94000000000,honey/imu,1.79833752203e-05,9.45584031562e-06,0.707156244298,0.707057314323,-1.0,-1.0,-1.0,-1.0,-1.0,-1.0,-1.0,-1.0,-1.0,6.49478805e-06,2.83879544326e-05,3.17769356932e-05,0.0,0.0,0.0,0.0,0.0,0.0,0.0,0.0,0.0,-0.00136814851635,-1.04851636784e-06,-1.63420755357e-06,0.0,0.0,0.0,0.0,0.0,0.0,0.0,0.0,0.0
94007433433,5527,94016000000,honey/imu,1.78519741111e-05,9.66043307065e-06,0.707156418187,0.70705714041,-1.0,-1.0,-1.0,-1.0,-1.0,-1.0,-1.0,-1.0,-1.0,6.46380611199e-06,3.00499260292e-05,3.04732629238e-05,0.0,0.0,0.0,0.0,0.0,0.0,0.0,0.0,0.0,0.000517208658824,-1.73405182565e-06,-2.02061286699e-06,0.0,0.0,0.0,0.0,0.0,0.0,0.0,0.0,0.0
94027637151,5528,94024000000,honey/imu,1.77134293814e-05,9.87181739026e-06,0.707156586926,0.707056971648,-1.0,-1.0,-1.0,-1.0,-1.0,-1.0,-1.0,-1.0,-1.0,6.44831499789e-06,3.0753605512e-05,2.99378138646e-05,0.0,0.0,0.0,0.0,0.0,0.0,0.0,0.0,0.0,0.00693719852249,-4.49030592947e-06,-3.67475771789e-06,0.0,0.0,0.0,0.0,0.0,0.0,0.0,0.0,0.0
94047832512,5529,94048000000,honey/imu,1.75719648644e-05,1.00857687534e-05,0.707156754373,0.707056804178,-1.0,-1.0,-1.0,-1.0,-1.0,-1.0,-1.0,-1.0,-1.0,6.40162401038e-06,3.13711983137e-05,2.96953647022e-05,0.0,0.0,0.0,0.0,0.0,0.0,0.0,0.0,0.0,-0.0020518046932,8.05647887314e-07,2.01083209443e-07,0.0,0.0,0.0,0.0,0.0,0.0,0.0,0.0,0.0
94057906856,5530,94064000000,honey/imu,1.7432361867e-05,1.02975077145e-05,0.707156924889,0.707056633638,-1.0,-1.0,-1.0,-1.0,-1.0,-1.0,-1.0,-1.0,-1.0,6.37053294173e-06,3.08252498891e-05,3.04075960569e-05,0.0,0.0,0.0,0.0,0.0,0.0,0.0,0.0,0.0,0.00033517933027,7.11312594213e-07,5.93501506733e-07,0.0,0.0,0.0,0.0,0.0,0.0,0.0,0.0,0.0
94078120358,5531,94080000000,honey/imu,1.72985535206e-05,1.05030991982e-05,0.707157102064,0.707056456438,-1.0,-1.0,-1.0,-1.0,-1.0,-1.0,-1.0,-1.0,-1.0,6.33922369248e-06,2.96319069843e-05,3.17104500806e-05,0.0,0.0,0.0,0.0,0.0,0.0,0.0,0.0,0.0,0.000603947267116,1.24223648872e-06,1.24185887815e-06,0.0,0.0,0.0,0.0,0.0,0.0,0.0,0.0,0.0
94088227802,5532,94096000000,honey/imu,1.71732976388e-05,1.06997832969e-05,0.707157288413,0.707056270063,-1.0,-1.0,-1.0,-1.0,-1.0,-1.0,-1.0,-1.0,-1.0,6.30769626955e-06,2.8014470023e-05,3.34002831989e-05,0.0,0.0,0.0,0.0,0.0,0.0,0.0,0.0,0.0,0.000845265412897,1.58169907106e-06,1.6617312999e-06,0.0,0.0,0.0,0.0,0.0,0.0,0.0,0.0,0.0
94108432834,5533,94112000000,honey/imu,1.70579386297e-05,1.08862133237e-05,0.707157485166,0.707056073282,-1.0,-1.0,-1.0,-1.0,-1.0,-1.0,-1.0,-1.0,-1.0,6.2759506841e-06,2.62182142687e-05,3.52534994164e-05,0.0,0.0,0.0,0.0,0.0,0.0,0.0,0.0,0.0,0.00100444965544,1.74041602847e-06,1.83986246036e-06,0.0,0.0,0.0,0.0,0.0,0.0,0.0,0.0,0.0
94118551339,5534,94128000000,honey/imu,1.69517823567e-05,1.1063082097e-05,0.707157691692,0.707055866726,-1.0,-1.0,-1.0,-1.0,-1.0,-1.0,-1.0,-1.0,-1.0,6.24420512036e-06,2.47278779303e-05,3.68283197272e-05,0.0,0.0,0.0,0.0,0.0,0.0,0.0,0.0,0.0,0.000934086146785,1.39235926773e-06,1.47155525505e-06,0.0,0.0,0.0,0.0,0.0,0.0,0.0,0.0,0.0
94138688866,5535,94144000000,honey/imu,1.68510659059e-05,1.1234153878e-05,0.707157904565,0.707055653821,-1.0,-1.0,-1.0,-1.0,-1.0,-1.0,-1.0,-1.0,-1.0,6.212568663e-06,2.38955657569e-05,3.78039611251e-05,0.0,0.0,0.0,0.0,0.0,0.0,0.0,0.0,0.0,0.000626869010087,8.85309732312e-07,8.31136636168e-07,0.0,0.0,0.0,0.0,0.0,0.0,0.0,0.0,0.0
94158880463,5536,94160000000,honey/imu,1.67529589508e-05,1.1402257994e-05,0.70715812121,0.707055437145,-1.0,-1.0,-1.0,-1.0,-1.0,-1.0,-1.0,-1.0,-1.0,6.18082312801e-06,2.34202633661e-05,3.84548149855e-05,0.0,0.0,0.0,0.0,0.0,0.0,0.0,0.0,0.0,0.000430396360255,1.80324036953e-06,1.22770051344e-06,0.0,0.0,0.0,0.0,0.0,0.0,0.0,0.0,0.0
94168900721,5537,94176000000,honey/imu,1.66560634344e-05,1.15687898429e-05,0.707158340356,0.707055217967,-1.0,-1.0,-1.0,-1.0,-1.0,-1.0,-1.0,-1.0,-1.0,6.14885942504e-06,2.33682174979e-05,3.87200535028e-05,0.0,0.0,0.0,0.0,0.0,0.0,0.0,0.0,0.0,-0.00610099151661,4.83800105536e-06,3.01404530904e-06,0.0,0.0,0.0,0.0,0.0,0.0,0.0,0.0,0.0
94189210655,5538,94184000000,honey/imu,1.66068349649e-05,1.16527003029e-05,0.707158449741,0.707055108566,-1.0,-1.0,-1.0,-1.0,-1.0,-1.0,-1.0,-1.0,-1.0,6.13282302654e-06,2.35361847293e-05,3.86758065563e-05,0.0,0.0,0.0,0.0,0.0,0.0,0.0,0.0,0.0,0.00710698820165,-1.05222205373e-05,-6.9258560333e-06,0.0,0.0,0.0,0.0,0.0,0.0,0.0,0.0,0.0
94199268681,5539,94208000000,honey/imu,1.64463923849e-05,1.19166458835e-05,0.707158768359,0.7070547899,-1.0,-1.0,-1.0,-1.0,-1.0,-1.0,-1.0,-1.0,-1.0,6.08493195661e-06,2.59485698883e-05,3.68027246851e-05,0.0,0.0,0.0,0.0,0.0,0.0,0.0,0.0,0.0,-0.00143601997724,4.7317282296e-07,-6.0085497689e-07,0.0,0.0,0.0,0.0,0.0,0.0,0.0,0.0,0.0
94219381668,5540,94224000000,honey/imu,1.6324673867e-05,1.21068550238e-05,0.707158969055,0.707054589174,-1.0,-1.0,-1.0,-1.0,-1.0,-1.0,-1.0,-1.0,-1.0,6.04293222914e-06,2.81157257274e-05,3.50318476145e-05,0.0,0.0,0.0,0.0,0.0,0.0,0.0,0.0,0.0,0.000872658497931,-2.96002080977e-06,4.94555405226e-06,0.0,0.0,0.0,0.0,0.0,0.0,0.0,0.0,0.0
94239681587,5541,94232000000,honey/imu,1.62590822177e-05,1.22064710197e-05,0.707159065597,0.707054492617,-1.0,-1.0,-1.0,-1.0,-1.0,-1.0,-1.0,-1.0,-1.0,6.01696892989e-06,2.92051037845e-05,3.41348507327e-05,0.0,0.0,0.0,0.0,0.0,0.0,0.0,0.0,0.0,0.00746268198859,-1.36540094501e-05,-8.09308635952e-05,0.0,0.0,0.0,0.0,0.0,0.0,0.0,0.0,0.0
94249791922,5542,94256000000,honey/imu,1.60466231466e-05,1.25194033373e-05,0.707159342834,0.707054215339,-1.0,-1.0,-1.0,-1.0,-1.0,-1.0,-1.0,-1.0,-1.0,5.8677366743e-06,3.17123968263e-05,3.20471108383e-05,0.0,0.0,0.0,0.0,0.0,0.0,0.0,0.0,0.0,-0.00135212451815,1.61118448217e-06,8.60528099228e-05,0.0,0.0,0.0,0.0,0.0,0.0,0.0,0.0,0.0
94270016998,5543,94272000000,honey/imu,1.58951719346e-05,1.27341756188e-05,0.707159519867,0.707054038279,-1.0,-1.0,-1.0,-1.0,-1.0,-1.0,-1.0,-1.0,-1.0,5.39135600839e-06,3.23571934561e-05,3.1105686043e-05,0.0,0.0,0.0,0.0,0.0,0.0,0.0,0.0,0.0,0.000771111565197,-8.81897434803e-07,7.69235684176e-05,0.0,0.0,0.0,0.0,0.0,0.0,0.0,0.0,0.0
94280283132,5544,94288000000,honey/imu,1.57402744735e-05,1.29417046819e-05,0.707159693213,0.707053864907,-1.0,-1.0,-1.0,-1.0,-1.0,-1.0,-1.0,-1.0,-1.0,4.33354646171e-06,3.17377406448e-05,3.05672845679e-05,0.0,0.0,0.0,0.0,0.0,0.0,0.0,0.0,0.0,0.00061996954268,1.56407690234e-07,5.90062852185e-05,0.0,0.0,0.0,0.0,0.0,0.0,0.0,0.0,0.0
94300451368,5545,94304000000,honey/imu,1.55853418405e-05,1.31352960733e-05,0.707159865366,0.707053692728,-1.0,-1.0,-1.0,-1.0,-1.0,-1.0,-1.0,-1.0,-1.0,3.14701538529e-06,3.04675362977e-05,3.04572123637e-05,0.0,0.0,0.0,0.0,0.0,0.0,0.0,0.0,0.0,0.000366231283744,1.48001316234e-06,6.16169354675e-06,0.0,0.0,0.0,0.0,0.0,0.0,0.0,0.0,0.0
94310586804,5546,94320000000,honey/imu,1.54319954369e-05,1.33165810374e-05,0.707160038428,0.70705351964,-1.0,-1.0,-1.0,-1.0,-1.0,-1.0,-1.0,-1.0,-1.0,2.34108577616e-06,2.93649384512e-05,3.06868636705e-05,0.0,0.0,0.0,0.0,0.0,0.0,0.0,0.0,0.0,0.000136512096162,3.14870213774e-06,-4.19794676905e-05,0.0,0.0,0.0,0.0,0.0,0.0,0.0,0.0,0.0
94330781129,5547,94336000000,honey/imu,1.52792520358e-05,1.34913481465e-05,0.707160212418,0.707053345623,-1.0,-1.0,-1.0,-1.0,-1.0,-1.0,-1.0,-1.0,-1.0,1.81790737156e-06,2.89582666104e-05,3.06477548621e-05,0.0,0.0,0.0,0.0,0.0,0.0,0.0,0.0,0.0,5.27052029099e-05,2.85659128523e-06,-1.94474514443e-05,0.0,0.0,0.0,0.0,0.0,0.0,0.0,0.0,0.0
94351043073,5548,94352000000,honey/imu,1.51235825496e-05,1.36611298507e-05,0.707160383744,0.707053174272,-1.0,-1.0,-1.0,-1.0,-1.0,-1.0,-1.0,-1.0,-1.0,9.43144489001e-07,2.85556127183e-05,3.01512312839e-05,0.0,0.0,0.0,0.0,0.0,0.0,0.0,0.0,0.0,0.000137295683621,4.45541055641e-06,-9.31220408724e-06,0.0,0.0,0.0,0.0,0.0,0.0,0.0,0.0,0.0
94361121800,5549,94368000000,honey/imu,1.496681592e-05,1.38154910482e-05,0.707160552439,0.707053005551,-1.0,-1.0,-1.0,-1.0,-1.0,-1.0,-1.0,-1.0,-1.0,-7.51291289901e-07,2.68677868605e-05,2.97685309149e-05,0.0,0.0,0.0,0.0,0.0,0.0,0.0,0.0,0.0,-0.00300503161262,-1.05859181336e-05,-0.000138388589743,0.0,0.0,0.0,0.0,0.0,0.0,0.0,0.0,0.0
94381291404,5550,94384000000,honey/imu,1.48133154878e-05,1.3939930523e-05,0.707160720562,0.707052837404,-1.0,-1.0,-1.0,-1.0,-1.0,-1.0,-1.0,-1.0,-1.0,-3.30063471395e-06,2.35329335589e-05,2.9784309913e-05,0.0,0.0,0.0,0.0,0.0,0.0,0.0,0.0,0.0,0.000408871983264,5.46081513673e-07,4.5129625736e-05,0.0,0.0,0.0,0.0,0.0,0.0,0.0,0.0,0.0
94391382999,5551,94400000000,honey/imu,1.46675215295e-05,1.40221210967e-05,0.707160890666,0.707052667275,-1.0,-1.0,-1.0,-1.0,-1.0,-1.0,-1.0,-1.0,-1.0,-6.47209598622e-06,1.88405309289e-05,3.02353001375e-05,0.0,0.0,0.0,0.0,0.0,0.0,0.0,0.0,0.0,0.000497577353288,1.33985941254e-06,5.58165515679e-05,0.0,0.0,0.0,0.0,0.0,0.0,0.0,0.0,0.0
94411531957,5552,94416000000,honey/imu,1.45326321853e-05,1.40543292931e-05,0.707161064811,0.707052493106,-1.0,-1.0,-1.0,-1.0,-1.0,-1.0,-1.0,-1.0,-1.0,-9.9735424819e-06,1.33244293909e-05,3.10118916206e-05,0.0,0.0,0.0,0.0,0.0,0.0,0.0,0.0,0.0,0.000539575846916,1.74259373513e-06,6.1598000003e-05,0.0,0.0,0.0,0.0,0.0,0.0,0.0,0.0,0.0
94431685447,5553,94432000000,honey/imu,1.44101429186e-05,1.40334395576e-05,0.707161244055,0.707052313837,-1.0,-1.0,-1.0,-1.0,-1.0,-1.0,-1.0,-1.0,-1.0,-1.35733843738e-05,7.5319577154e-06,3.1913990235e-05,0.0,0.0,0.0,0.0,0.0,0.0,0.0,0.0,0.0,0.000550397993538,1.63479581949e-06,6.33412237772e-05,0.0,0.0,0.0,0.0,0.0,0.0,0.0,0.0,0.0
94441850031,5554,94448000000,honey/imu,1.42997923845e-05,1.3961262594e-05,0.707161428458,0.707052129409,-1.0,-1.0,-1.0,-1.0,-1.0,-1.0,-1.0,-1.0,-1.0,-1.6890583894e-05,2.11977791115e-06,3.28350665725e-05,0.0,0.0,0.0,0.0,0.0,0.0,0.0,0.0,0.0,0.000542214183182,6.55796618398e-07,6.80838826735e-05,0.0,0.0,0.0,0.0,0.0,0.0,0.0,0.0,0.0
94462124718,5555,94456000000,honey/imu,1.42000618357e-05,1.38471878519e-05,0.707161618135,0.707051939707,-1.0,-1.0,-1.0,-1.0,-1.0,-1.0,-1.0,-1.0,-1.0,-1.84056803234e-05,-3.92661034794e-07,3.33045481387e-05,0.0,0.0,0.0,0.0,0.0,0.0,0.0,0.0,0.0,-0.00601156657705,2.10852739587e-05,-0.000551180123578,0.0,0.0,0.0,0.0,0.0,0.0,0.0,0.0,0.0
94472367772,5556,94480000000,honey/imu,1.41082681858e-05,1.37058611184e-05,0.707161812912,0.707051744904,-1.0,-1.0,-1.0,-1.0,-1.0,-1.0,-1.0,-1.0,-1.0,-2.08360098194e-05,-4.86679996442e-06,3.46522533957e-05,0.0,0.0,0.0,0.0,0.0,0.0,0.0,0.0,0.0,-0.00166015123103,2.45683528378e-06,-0.000237947545696,0.0,0.0,0.0,0.0,0.0,0.0,0.0,0.0,0.0
94482452931,5557,94488000000,honey/imu,1.40645812714e-05,1.3629075867e-05,0.707161912148,0.707051645655,-1.0,-1.0,-1.0,-1.0,-1.0,-1.0,-1.0,-1.0,-1.0,-2.12971166238e-05,-5.84866703029e-06,3.50878156927e-05,0.0,0.0,0.0,0.0,0.0,0.0,0.0,0.0,0.0,0.00700881581756,-3.67909722196e-06,0.00100368109877,0.0,0.0,0.0,0.0,0.0,0.0,0.0,0.0,0.0
94502670256,5558,94504000000,honey/imu,1.39801212062e-05,1.34711796606e-05,0.707162114165,0.707051443612,-1.0,-1.0,-1.0,-1.0,-1.0,-1.0,-1.0,-1.0,-1.0,-2.14635816607e-05,-6.70181708477e-06,3.59230437958e-05,0.0,0.0,0.0,0.0,0.0,0.0,0.0,0.0,0.0,0.000491908303518,6.47435733002e-07,8.01543391506e-05,0.0,0.0,0.0,0.0,0.0,0.0,0.0,0.0,0.0
94522826759,5559,94528000000,honey/imu,1.38586152883e-05,1.323330988e-05,0.707162425599,0.707051132135,-1.0,-1.0,-1.0,-1.0,-1.0,-1.0,-1.0,-1.0,-1.0,-2.09332044334e-05,-6.73943410291e-06,3.70521821874e-05,0.0,0.0,0.0,0.0,0.0,0.0,0.0,0.0,0.0,-0.00172381043498,1.98472784493e-06,-0.000262235582057,0.0,0.0,0.0,0.0,0.0,0.0,0.0,0.0,0.0
94542974101,5560,94544000000,honey/imu,1.37794964089e-05,1.30778381059e-05,0.707162637824,0.707050919881,-1.0,-1.0,-1.0,-1.0,-1.0,-1.0,-1.0,-1.0,-1.0,-2.08486623025e-05,-6.9958215232e-06,3.76691858391e-05,0.0,0.0,0.0,0.0,0.0,0.0,0.0,0.0,0.0,0.000331841034201,3.55570864503e-07,4.4905091433e-05,0.0,0.0,0.0,0.0,0.0,0.0,0.0,0.0,0.0
94553036638,5561,94560000000,honey/imu,1.37037308239e-05,1.29127241268e-05,0.707162853465,0.70705070421,-1.0,-1.0,-1.0,-1.0,-1.0,-1.0,-1.0,-1.0,-1.0,-2.15083054969e-05,-8.29514866039e-06,3.82768597515e-05,0.0,0.0,0.0,0.0,0.0,0.0,0.0,0.0,0.0,0.000315708556424,7.88028100137e-07,3.72489641017e-05,0.0,0.0,0.0,0.0,0.0,0.0,0.0,0.0,0.0
94573149259,5562,94576000000,honey/imu,1.36327790061e-05,1.27343252512e-05,0.707163073444,0.707050484202,-1.0,-1.0,-1.0,-1.0,-1.0,-1.0,-1.0,-1.0,-1.0,-2.21390407762e-05,-9.89363228008e-06,3.91954356651e-05,0.0,0.0,0.0,0.0,0.0,0.0,0.0,0.0,0.0,0.00032147987824,1.12987102697e-06,3.5415121646e-05,0.0,0.0,0.0,0.0,0.0,0.0,0.0,0.0,0.0
94583210448,5563,94592000000,honey/imu,1.35682719529e-05,1.25460401968e-05,0.707163300206,0.707050257408,-1.0,-1.0,-1.0,-1.0,-1.0,-1.0,-1.0,-1.0,-1.0,-2.23531761226e-05,-1.11842928608e-05,4.03721249073e-05,0.0,0.0,0.0,0.0,0.0,0.0,0.0,0.0,0.0,0.000285430622831,1.20608675852e-06,4.13107965479e-05,0.0,0.0,0.0,0.0,0.0,0.0,0.0,0.0,0.0
94603377832,5564,94608000000,honey/imu,1.35077721966e-05,1.2353365308e-05,0.707163532114,0.707050025467,-1.0,-1.0,-1.0,-1.0,-1.0,-1.0,-1.0,-1.0,-1.0,-2.23871011374e-05,-1.16835262662e-05,4.10604600672e-05,0.0,0.0,0.0,0.0,0.0,0.0,0.0,0.0,0.0,0.000218479050271,7.30806419005e-07,5.20241156689e-05,0.0,0.0,0.0,0.0,0.0,0.0,0.0,0.0,0.0
94623624921,5565,94616000000,honey/imu,1.3445902269e-05,1.21616753493e-05,0.707163764269,0.70704979328,-1.0,-1.0,-1.0,-1.0,-1.0,-1.0,-1.0,-1.0,-1.0,-2.24041182931e-05,-1.16901873786e-05,4.11831579763e-05,0.0,0.0,0.0,0.0,0.0,0.0,0.0,0.0,0.0,-0.00633921217844,1.21227652594e-05,-9.76747732993e-05,0.0,0.0,0.0,0.0,0.0,0.0,0.0,0.0,0.0
94633760124,5566,94640000000,honey/imu,1.33773024088e-05,1.19763292255e-05,0.707163991784,0.707049565732,-1.0,-1.0,-1.0,-1.0,-1.0,-1.0,-1.0,-1.0,-1.0,-2.24551693377e-05,-9.81539137264e-06,3.98239520559e-05,0.0,0.0,0.0,0.0,0.0,0.0,0.0,0.0,0.0,0.00244779170689,-5.56752327198e-06,3.32232877793e-05,0.0,0.0,0.0,0.0,0.0,0.0,0.0,0.0,0.0
94654019567,5567,94656000000,honey/imu,1.32962793194e-05,1.18030187009e-05,0.707164209471,0.707049348014,-1.0,-1.0,-1.0,-1.0,-1.0,-1.0,-1.0,-1.0,-1.0,-2.24893126844e-05,-7.49601997238e-06,3.794283501e-05,0.0,0.0,0.0,0.0,0.0,0.0,0.0,0.0,0.0,0.000291962646473,-2.62374964783e-06,-1.30775891816e-06,0.0,0.0,0.0,0.0,0.0,0.0,0.0,0.0,0.0
94664294069,5568,94672000000,honey/imu,1.31998149455e-05,1.1644759487e-05,0.707164414581,0.707049142875,-1.0,-1.0,-1.0,-1.0,-1.0,-1.0,-1.0,-1.0,-1.0,-2.25235652997e-05,-4.74013318889e-06,3.5664054886e-05,0.0,0.0,0.0,0.0,0.0,0.0,0.0,0.0,0.0,0.000320006426751,-3.11578410426e-06,-1.64288236436e-06,0.0,0.0,0.0,0.0,0.0,0.0,0.0,0.0,0.0
94684427156,5569,94688000000,honey/imu,1.30869064492e-05,1.15025536338e-05,0.707164606203,0.707048951226,-1.0,-1.0,-1.0,-1.0,-1.0,-1.0,-1.0,-1.0,-1.0,-2.25579271891e-05,-1.87276714665e-06,3.32841157504e-05,0.0,0.0,0.0,0.0,0.0,0.0,0.0,0.0,0.0,0.000338677798326,-3.27053982939e-06,-1.48060449932e-06,0.0,0.0,0.0,0.0,0.0,0.0,0.0,0.0,0.0
94694486667,5570,94704000000,honey/imu,1.29593820119e-05,1.13745713939e-05,0.707164786008,0.707048771396,-1.0,-1.0,-1.0,-1.0,-1.0,-1.0,-1.0,-1.0,-1.0,-2.25923983338e-05,3.67948270239e-07,3.14763224204e-05,0.0,0.0,0.0,0.0,0.0,0.0,0.0,0.0,0.0,0.000355516764586,-2.65806717861e-06,-2.93088792176e-07,0.0,0.0,0.0,0.0,0.0,0.0,0.0,0.0,0.0
94714607456,5571,94720000000,honey/imu,1.28243647029e-05,1.12536908434e-05,0.707164960495,0.707048596885,-1.0,-1.0,-1.0,-1.0,-1.0,-1.0,-1.0,-1.0,-1.0,-2.26268695806e-05,1.32384760276e-06,3.08410291863e-05,0.0,0.0,0.0,0.0,0.0,0.0,0.0,0.0,0.0,0.000375961055972,-1.40734929601e-06,2.15674030271e-06,0.0,0.0,0.0,0.0,0.0,0.0,0.0,0.0,0.0
94734824882,5572,94736000000,honey/imu,1.26889382184e-05,1.11328288161e-05,0.707165136128,0.707048421227,-1.0,-1.0,-1.0,-1.0,-1.0,-1.0,-1.0,-1.0,-1.0,-2.26614499447e-05,1.11172086193e-06,3.12717079147e-05,0.0,0.0,0.0,0.0,0.0,0.0,0.0,0.0,0.0,0.000393814210034,-3.91607926332e-07,5.8010637896e-06,0.0,0.0,0.0,0.0,0.0,0.0,0.0,0.0,0.0
94744883874,5573,94752000000,honey/imu,1.25584228563e-05,1.10066640302e-05,0.707165317763,0.707048239567,-1.0,-1.0,-1.0,-1.0,-1.0,-1.0,-1.0,-1.0,-1.0,-2.26961393725e-05,1.81861268375e-08,3.25069272618e-05,0.0,0.0,0.0,0.0,0.0,0.0,0.0,0.0,0.0,0.000404122518571,-1.75642313633e-07,1.52376573259e-05,0.0,0.0,0.0,0.0,0.0,0.0,0.0,0.0,0.0
94765084384,5574,94768000000,honey/imu,1.24365977108e-05,1.08714173958e-05,0.707165508849,0.707048048453,-1.0,-1.0,-1.0,-1.0,-1.0,-1.0,-1.0,-1.0,-1.0,-2.27309378191e-05,-1.64836988577e-06,3.42653992175e-05,0.0,0.0,0.0,0.0,0.0,0.0,0.0,0.0,0.0,-0.00288003127406,8.49909425934e-06,-3.44616193647e-05,0.0,0.0,0.0,0.0,0.0,0.0,0.0,0.0,0.0
94775207424,5575,94784000000,honey/imu,1.23253310283e-05,1.07252191274e-05,0.707165711094,0.707047846178,-1.0,-1.0,-1.0,-1.0,-1.0,-1.0,-1.0,-1.0,-1.0,-2.27658452502e-05,-3.59274043332e-06,3.62778504546e-05,0.0,0.0,0.0,0.0,0.0,0.0,0.0,0.0,0.0,0.000406448012179,2.02309987671e-06,-1.52445870979e-07,0.0,0.0,0.0,0.0,0.0,0.0,0.0,0.0,0.0
94795405452,5576,94800000000,honey/imu,1.22239637363e-05,1.05687275786e-05,0.707165923902,0.707047633339,-1.0,-1.0,-1.0,-1.0,-1.0,-1.0,-1.0,-1.0,-1.0,-2.28008616402e-05,-5.13156873973e-06,3.79209568403e-05,0.0,0.0,0.0,0.0,0.0,0.0,0.0,0.0,0.0,0.000397851958053,1.57394453546e-06,-2.88255113857e-07,0.0,0.0,0.0,0.0,0.0,0.0,0.0,0.0,0.0
94815640064,5577,94816000000,honey/imu,1.21271558144e-05,1.04072806603e-05,0.707166142405,0.707047414803,-1.0,-1.0,-1.0,-1.0,-1.0,-1.0,-1.0,-1.0,-1.0,-2.283587794e-05,-5.7665566085e-06,3.87402874437e-05,0.0,0.0,0.0,0.0,0.0,0.0,0.0,0.0,0.0,0.000328273084517,6.4200493975e-07,-1.32222100289e-06,0.0,0.0,0.0,0.0,0.0,0.0,0.0,0.0,0.0
94825708548,5578,94832000000,honey/imu,1.20313374091e-05,1.0244448872e-05,0.707166363353,0.707047193823,-1.0,-1.0,-1.0,-1.0,-1.0,-1.0,-1.0,-1.0,-1.0,-2.2870894207e-05,-5.9632554421e-06,3.9160511639e-05,0.0,0.0,0.0,0.0,0.0,0.0,0.0,0.0,0.0,0.000254932767363,2.73016905588e-07,-1.3414053673e-06,0.0,0.0,0.0,0.0,0.0,0.0,0.0,0.0,0.0
94845884928,5579,94848000000,honey/imu,1.1936858283e-05,1.0079880659e-05,0.707166587067,0.707046970075,-1.0,-1.0,-1.0,-1.0,-1.0,-1.0,-1.0,-1.0,-1.0,-2.29060195444e-05,-6.33656696446e-06,3.97424039855e-05,0.0,0.0,0.0,0.0,0.0,0.0,0.0,0.0,0.0,0.000254997226154,5.11119915428e-07,-1.17483744627e-06,0.0,0.0,0.0,0.0,0.0,0.0,0.0,0.0,0.0
94856148999,5580,94864000000,honey/imu,1.18454077719e-05,9.91188635099e-06,0.707166815092,0.707046742015,-1.0,-1.0,-1.0,-1.0,-1.0,-1.0,-1.0,-1.0,-1.0,-2.29412539301e-05,-6.90133649644e-06,4.04995329628e-05,0.0,0.0,0.0,0.0,0.0,0.0,0.0,0.0,0.0,0.000238988626044,7.54760341845e-07,-1.42771639304e-06,0.0,0.0,0.0,0.0,0.0,0.0,0.0,0.0,0.0
94876356778,5581,94880000000,honey/imu,1.17567027205e-05,9.7407472069e-06,0.707167047175,0.707046509896,-1.0,-1.0,-1.0,-1.0,-1.0,-1.0,-1.0,-1.0,-1.0,-2.29765973567e-05,-7.38927946899e-06,4.11872738846e-05,0.0,0.0,0.0,0.0,0.0,0.0,0.0,0.0,0.0,0.000165106083578,8.17716111933e-07,-1.40553528223e-06,0.0,0.0,0.0,0.0,0.0,0.0,0.0,0.0,0.0
94886490832,5582,94896000000,honey/imu,1.16685128229e-05,9.56738690649e-06,0.707167280442,0.707046276593,-1.0,-1.0,-1.0,-1.0,-1.0,-1.0,-1.0,-1.0,-1.0,-2.32428760174e-05,-7.45037317537e-06,4.09775159309e-05,0.0,0.0,0.0,0.0,0.0,0.0,0.0,0.0,0.0,0.00012312941045,5.59677374119e-06,-7.58229047938e-07,0.0,0.0,0.0,0.0,0.0,0.0,0.0,0.0,0.0
94906676073,5583,94912000000,honey/imu,1.15751335901e-05,9.39342917547e-06,0.707167507061,0.70704604994,-1.0,-1.0,-1.0,-1.0,-1.0,-1.0,-1.0,-1.0,-1.0,-2.37685614385e-05,-6.93898177885e-06,3.96746682358e-05,0.0,0.0,0.0,0.0,0.0,0.0,0.0,0.0,0.0,0.000115038941118,-1.02721992783e-05,-1.33999149007e-06,0.0,0.0,0.0,0.0,0.0,0.0,0.0,0.0,0.0
94926927236,5584,94928000000,honey/imu,1.14728378826e-05,9.22043474733e-06,0.707167722238,0.707045834729,-1.0,-1.0,-1.0,-1.0,-1.0,-1.0,-1.0,-1.0,-1.0,-2.4620196182e-05,-5.91478666376e-06,3.71869329069e-05,0.0,0.0,0.0,0.0,0.0,0.0,0.0,0.0,0.0,0.000124379959864,-1.06442109031e-05,-1.27614842969e-06,0.0,0.0,0.0,0.0,0.0,0.0,0.0,0.0,0.0
94936996723,5585,94944000000,honey/imu,1.13546423231e-05,9.04836154675e-06,0.707167915078,0.70704564186,-1.0,-1.0,-1.0,-1.0,-1.0,-1.0,-1.0,-1.0,-1.0,-2.61187115979e-05,-4.26710904971e-06,3.27064576304e-05,0.0,0.0,0.0,0.0,0.0,0.0,0.0,0.0,0.0,0.00018420553835,-4.60049754881e-05,-2.33721875615e-06,0.0,0.0,0.0,0.0,0.0,0.0,0.0,0.0,0.0
94957229778,5586,94960000000,honey/imu,1.12134072481e-05,8.87685296201e-06,0.707168074235,0.70704548268,-1.0,-1.0,-1.0,-1.0,-1.0,-1.0,-1.0,-1.0,-1.0,-2.82434904493e-05,-2.06362215189e-06,2.63401039858e-05,0.0,0.0,0.0,0.0,0.0,0.0,0.0,0.0,0.0,0.000249156892895,-0.000179583315537,-7.06872758683e-06,0.0,0.0,0.0,0.0,0.0,0.0,0.0,0.0,0.0
94967356686,5587,94976000000,honey/imu,1.10459329086e-05,8.70349075686e-06,0.70716819317,0.707045363729,-1.0,-1.0,-1.0,-1.0,-1.0,-1.0,-1.0,-1.0,-1.0,-3.08076682442e-05,-1.90208732445e-07,1.93073843252e-05,0.0,0.0,0.0,0.0,0.0,0.0,0.0,0.0,0.0,-0.00296510926584,0.000296003894597,3.4609639352e-05,0.0,0.0,0.0,0.0,0.0,0.0,0.0,0.0,0.0
94987554267,5588,94992000000,honey/imu,1.08571996188e-05,8.5202016775e-06,0.70716827443,0.70704528246,-1.0,-1.0,-1.0,-1.0,-1.0,-1.0,-1.0,-1.0,-1.0,-3.35937272288e-05,5.04132714571e-07,1.28618707848e-05,0.0,0.0,0.0,0.0,0.0,0.0,0.0,0.0,0.0,0.000299415969315,0.000113605083472,5.38361679433e-06,0.0,0.0,0.0,0.0,0.0,0.0,0.0,0.0,0.0
95007738525,5589,95008000000,honey/imu,1.06538780977e-05,8.31929495974e-06,0.707168323442,0.707045233445,-1.0,-1.0,-1.0,-1.0,-1.0,-1.0,-1.0,-1.0,-1.0,-3.64416380386e-05,-1.10541710026e-07,7.47471217963e-06,0.0,0.0,0.0,0.0,0.0,0.0,0.0,0.0,0.0,0.000307899519559,0.000106502819635,6.55769787475e-06,0.0,0.0,0.0,0.0,0.0,0.0,0.0,0.0,0.0
95027948951,5590,95032000000,honey/imu,1.03327784705e-05,7.97357412549e-06,0.707168346687,0.707045210205,-1.0,-1.0,-1.0,-1.0,-1.0,-1.0,-1.0,-1.0,-1.0,-4.07197766824e-05,-2.15775050787e-06,4.07270799024e-07,0.0,0.0,0.0,0.0,0.0,0.0,0.0,0.0,0.0,-0.00174479650961,-0.000699403164263,-5.42843006486e-06,0.0,0.0,0.0,0.0,0.0,0.0,0.0,0.0,0.0
95048288871,5591,95056000000,honey/imu,9.99686377323e-06,7.57245221885e-06,0.707168315264,0.707045241643,-1.0,-1.0,-1.0,-1.0,-1.0,-1.0,-1.0,-1.0,-1.0,-4.45626618125e-05,-4.59061946395e-06,-5.34811800495e-06,0.0,0.0,0.0,0.0,0.0,0.0,0.0,0.0,0.0,0.00226735882666,0.00089121123148,1.99561355857e-05,0.0,0.0,0.0,0.0,0.0,0.0,0.0,0.0,0.0
95068542259,5592,95064000000,honey/imu,9.88299761185e-06,7.42867540201e-06,0.707168296266,0.707045260647,-1.0,-1.0,-1.0,-1.0,-1.0,-1.0,-1.0,-1.0,-1.0,-4.55457457615e-05,-5.28362663021e-06,-6.71781702488e-06,0.0,0.0,0.0,0.0,0.0,0.0,0.0,0.0,0.0,-0.00595240535318,-0.00232426150618,-3.16034712531e-05,0.0,0.0,0.0,0.0,0.0,0.0,0.0,0.0,0.0
95078677335,5593,95088000000,honey/imu,9.54167757472e-06,6.98463001104e-06,0.707168234282,0.707045322651,-1.0,-1.0,-1.0,-1.0,-1.0,-1.0,-1.0,-1.0,-1.0,-4.6436052063e-05,-6.31357825494e-06,-7.24733897311e-06,0.0,0.0,0.0,0.0,0.0,0.0,0.0,0.0,0.0,0.00209279651575,0.000827661694739,1.49436508532e-05,0.0,0.0,0.0,0.0,0.0,0.0,0.0,0.0,0.0
95098810665,5594,95104000000,honey/imu,9.31478345462e-06,6.68586018014e-06,0.707168194529,0.707045362416,-1.0,-1.0,-1.0,-1.0,-1.0,-1.0,-1.0,-1.0,-1.0,-4.64721596366e-05,-6.19904648615e-06,-7.10281128452e-06,0.0,0.0,0.0,0.0,0.0,0.0,0.0,0.0,0.0,3.18202225178e-05,3.46495218472e-06,2.31688142637e-08,0.0,0.0,0.0,0.0,0.0,0.0,0.0,0.0,0.0
95118957107,5595,95120000000,honey/imu,9.08386328416e-06,6.39070707874e-06,0.707168152701,0.707045404258,-1.0,-1.0,-1.0,-1.0,-1.0,-1.0,-1.0,-1.0,-1.0,-4.65082944782e-05,-5.4478742588e-06,-7.53881948147e-06,0.0,0.0,0.0,0.0,0.0,0.0,0.0,0.0,0.0,5.21045218414e-05,2.28818504847e-05,-3.69459408255e-07,0.0,0.0,0.0,0.0,0.0,0.0,0.0,0.0,0.0
95129012877,5596,95136000000,honey/imu,8.84613284023e-06,6.10066656317e-06,0.707168105427,0.707045451546,-1.0,-1.0,-1.0,-1.0,-1.0,-1.0,-1.0,-1.0,-1.0,-4.67720647326e-05,-4.24263880619e-06,-8.89016324236e-06,0.0,0.0,0.0,0.0,0.0,0.0,0.0,0.0,0.0,9.59124267647e-05,3.19641297293e-05,-4.44188824252e-07,0.0,0.0,0.0,0.0,0.0,0.0,0.0,0.0,0.0
95149194721,5597,95152000000,honey/imu,8.59502011417e-06,5.81597186656e-06,0.707168042626,0.707045514363,-1.0,-1.0,-1.0,-1.0,-1.0,-1.0,-1.0,-1.0,-1.0,-4.7701069287e-05,-2.43989922528e-06,-1.22517811867e-05,0.0,0.0,0.0,0.0,0.0,0.0,0.0,0.0,0.0,0.000174112692672,7.65550888146e-05,6.84890560497e-07,0.0,0.0,0.0,0.0,0.0,0.0,0.0,0.0,0.0
95159305433,5598,95168000000,honey/imu,8.32260931275e-06,5.53487815878e-06,0.707167950843,0.707045606167,-1.0,-1.0,-1.0,-1.0,-1.0,-1.0,-1.0,-1.0,-1.0,-4.94625098485e-05,-1.35619759824e-07,-1.79045085532e-05,0.0,0.0,0.0,0.0,0.0,0.0,0.0,0.0,0.0,0.000241884261723,0.00013982739235,2.91027390941e-06,0.0,0.0,0.0,0.0,0.0,0.0,0.0,0.0,0.0
95179472881,5599,95184000000,honey/imu,8.0227633228e-06,5.2553431036e-06,0.707167819206,0.707045737833,-1.0,-1.0,-1.0,-1.0,-1.0,-1.0,-1.0,-1.0,-1.0,-5.1880212326e-05,2.47897599965e-06,-2.52857744714e-05,0.0,0.0,0.0,0.0,0.0,0.0,0.0,0.0,0.0,0.000253808225189,0.000252859750225,6.95341199413e-06,0.0,0.0,0.0,0.0,0.0,0.0,0.0,0.0,0.0
95199588406,5600,95200000000,honey/imu,7.69198271957e-06,4.97574882374e-06,0.70716764122,0.707045915855,-1.0,-1.0,-1.0,-1.0,-1.0,-1.0,-1.0,-1.0,-1.0,-5.46796069397e-05,5.21925010834e-06,-3.36222858991e-05,0.0,0.0,0.0,0.0,0.0,0.0,0.0,0.0,0.0,-1.76985215346e-05,0.000693035412741,2.25383556267e-05,0.0,0.0,0.0,0.0,0.0,0.0,0.0,0.0,0.0
95209641877,5601,95208000000,honey/imu,7.33065256431e-06,4.69358234836e-06,0.707167415864,0.707046141255,-1.0,-1.0,-1.0,-1.0,-1.0,-1.0,-1.0,-1.0,-1.0,-5.61394242091e-05,6.6004760565e-06,-3.79330370138e-05,0.0,0.0,0.0,0.0,0.0,0.0,0.0,0.0,0.0,-0.00488948439037,-0.00386405985642,-8.77852726273e-05,0.0,0.0,0.0,0.0,0.0,0.0,0.0,0.0,0.0
95229818519,5602,95232000000,honey/imu,6.94637698886e-06,4.40097149597e-06,0.707167149902,0.707046407269,-1.0,-1.0,-1.0,-1.0,-1.0,-1.0,-1.0,-1.0,-1.0,-6.0566491934e-05,8.00833679918e-06,-4.84742218829e-05,0.0,0.0,0.0,0.0,0.0,0.0,0.0,0.0,0.0,-0.00182812841437,-8.97896399737e-05,1.1989610571e-05,0.0,0.0,0.0,0.0,0.0,0.0,0.0,0.0,0.0
95239912323,5603,95248000000,honey/imu,6.54975718728e-06,4.08729124195e-06,0.707166852986,0.707046704242,-1.0,-1.0,-1.0,-1.0,-1.0,-1.0,-1.0,-1.0,-1.0,-6.35204883184e-05,6.86029544927e-06,-5.36038834907e-05,0.0,0.0,0.0,0.0,0.0,0.0,0.0,0.0,0.0,0.000328929551559,-3.106091878e-05,3.14183787553e-06,0.0,0.0,0.0,0.0,0.0,0.0,0.0,0.0,0.0
95260025583,5604,95264000000,honey/imu,6.14856117053e-06,3.74501643042e-06,0.707166532356,0.707047024931,-1.0,-1.0,-1.0,-1.0,-1.0,-1.0,-1.0,-1.0,-1.0,-6.64295958483e-05,4.51697998934e-06,-5.75442202313e-05,0.0,0.0,0.0,0.0,0.0,0.0,0.0,0.0,0.0,0.000300044959563,6.18027090898e-07,5.51755862078e-06,0.0,0.0,0.0,0.0,0.0,0.0,0.0,0.0,0.0
95270082890,5605,95280000000,honey/imu,5.74755174984e-06,3.37051527163e-06,0.707166193087,0.707047364263,-1.0,-1.0,-1.0,-1.0,-1.0,-1.0,-1.0,-1.0,-1.0,-6.92308447044e-05,1.57205769498e-06,-6.06980228203e-05,0.0,0.0,0.0,0.0,0.0,0.0,0.0,0.0,0.0,0.000281704685165,1.50330791825e-05,6.47694163922e-06,0.0,0.0,0.0,0.0,0.0,0.0,0.0,0.0,0.0
95290189385,5606,95296000000,honey/imu,5.3472738966e-06,2.96456963659e-06,0.707165836533,0.707047720881,-1.0,-1.0,-1.0,-1.0,-1.0,-1.0,-1.0,-1.0,-1.0,-7.19212896406e-05,-1.01015367539e-06,-6.39384543181e-05,0.0,0.0,0.0,0.0,0.0,0.0,0.0,0.0,0.0,0.000280192463419,2.24914734283e-05,6.09473000293e-06,0.0,0.0,0.0,0.0,0.0,0.0,0.0,0.0,0.0
95310303298,5607,95312000000,honey/imu,4.94108830684e-06,2.53480813475e-06,0.707165457279,0.707048100203,-1.0,-1.0,-1.0,-1.0,-1.0,-1.0,-1.0,-1.0,-1.0,-7.45344882247e-05,-2.11642550034e-06,-6.83549279142e-05,0.0,0.0,0.0,0.0,0.0,0.0,0.0,0.0,0.0,0.000296919255469,2.68303670619e-05,4.34078163563e-06,0.0,0.0,0.0,0.0,0.0,0.0,0.0,0.0,0.0
95320357580,5608,95328000000,honey/imu,4.52043254163e-06,2.09267318329e-06,0.707165049376,0.707048508178,-1.0,-1.0,-1.0,-1.0,-1.0,-1.0,-1.0,-1.0,-1.0,-7.6694925036e-05,-1.59196573732e-06,-7.32613762151e-05,0.0,0.0,0.0,0.0,0.0,0.0,0.0,0.0,0.0,0.000272067556488,2.02894260872e-05,1.74924931567e-06,0.0,0.0,0.0,0.0,0.0,0.0,0.0,0.0,0.0
95340677044,5609,95344000000,honey/imu,4.08361224915e-06,1.647551476e-06,0.707164616245,0.707048941384,-1.0,-1.0,-1.0,-1.0,-1.0,-1.0,-1.0,-1.0,-1.0,-7.83442524747e-05,-4.6459234623e-07,-7.7591742015e-05,0.0,0.0,0.0,0.0,0.0,0.0,0.0,0.0,0.0,0.000236041128301,1.91019757103e-05,4.95809226695e-07,0.0,0.0,0.0,0.0,0.0,0.0,0.0,0.0,0.0
95350805340,5610,95360000000,honey/imu,3.63417825306e-06,1.19917260339e-06,0.707164163241,0.707049394465,-1.0,-1.0,-1.0,-1.0,-1.0,-1.0,-1.0,-1.0,-1.0,-7.9587070432e-05,1.3726627748e-07,-8.05472063762e-05,0.0,0.0,0.0,0.0,0.0,0.0,0.0,0.0,0.0,0.000263742842255,2.78355608848e-05,4.31314297979e-07,0.0,0.0,0.0,0.0,0.0,0.0,0.0,0.0,0.0
95370980357,5611,95368000000,honey/imu,3.18118911501e-06,7.46359345806e-07,0.707163703712,0.707049854071,-1.0,-1.0,-1.0,-1.0,-1.0,-1.0,-1.0,-1.0,-1.0,-8.00485594153e-05,2.12945187191e-07,-8.14671751946e-05,0.0,0.0,0.0,0.0,0.0,0.0,0.0,0.0,0.0,0.00686392255541,6.78005852612e-06,-4.26598758631e-05,0.0,0.0,0.0,0.0,0.0,0.0,0.0,0.0,0.0
95391181979,5612,95392000000,honey/imu,2.73278543839e-06,2.88962732067e-07,0.707163250239,0.707050307619,-1.0,-1.0,-1.0,-1.0,-1.0,-1.0,-1.0,-1.0,-1.0,-8.0020401351e-05,-1.02552359476e-06,-7.97784921557e-05,0.0,0.0,0.0,0.0,0.0,0.0,0.0,0.0,0.0,-0.00188627455939,0.0001204587811,1.55936778288e-05,0.0,0.0,0.0,0.0,0.0,0.0,0.0,0.0,0.0
95401251409,5613,95408000000,honey/imu,2.29137027957e-06,-1.72403556781e-07,0.707162806962,0.707050750968,-1.0,-1.0,-1.0,-1.0,-1.0,-1.0,-1.0,-1.0,-1.0,-7.96548539957e-05,-2.01521039159e-06,-7.77389973229e-05,0.0,0.0,0.0,0.0,0.0,0.0,0.0,0.0,0.0,0.000271308818015,0.000122459892224,1.24005168299e-06,0.0,0.0,0.0,0.0,0.0,0.0,0.0,0.0,0.0
95421429603,5614,95424000000,honey/imu,1.86021720973e-06,-6.36540253758e-07,0.707162379753,0.707051178246,-1.0,-1.0,-1.0,-1.0,-1.0,-1.0,-1.0,-1.0,-1.0,-7.88938014738e-05,-3.28727639884e-06,-7.45706475963e-05,0.0,0.0,0.0,0.0,0.0,0.0,0.0,0.0,0.0,0.000291342337765,0.000130924895376,8.91106910484e-07,0.0,0.0,0.0,0.0,0.0,0.0,0.0,0.0,0.0
95431562072,5615,95440000000,honey/imu,1.44189379734e-06,-1.10224006523e-06,0.70716197339,0.707051584673,-1.0,-1.0,-1.0,-1.0,-1.0,-1.0,-1.0,-1.0,-1.0,-7.78613019838e-05,-4.31947340457e-06,-7.10231312896e-05,0.0,0.0,0.0,0.0,0.0,0.0,0.0,0.0,0.0,0.000321384668343,0.000149068367011,3.04602615718e-07,0.0,0.0,0.0,0.0,0.0,0.0,0.0,0.0,0.0
95441687750,5616,95456000000,honey/imu,1.03295931493e-06,-1.56479691619e-06,0.707161585552,0.707051972571,-1.0,-1.0,-1.0,-1.0,-1.0,-1.0,-1.0,-1.0,-1.0,-7.67520536759e-05,-4.87165237805e-06,-6.77443866256e-05,0.0,0.0,0.0,0.0,0.0,0.0,0.0,0.0,0.0,0.000335531999454,0.000165326398658,-1.40755792709e-07,0.0,0.0,0.0,0.0,0.0,0.0,0.0,0.0,0.0
95472220514,5617,95472000000,honey/imu,6.34062434968e-07,-2.02499174038e-06,0.707161216746,0.707052341433,-1.0,-1.0,-1.0,-1.0,-1.0,-1.0,-1.0,-1.0,-1.0,-7.56726540887e-05,-5.67646403401e-06,-6.43008891177e-05,0.0,0.0,0.0,0.0,0.0,0.0,0.0,0.0,0.0,0.000334644565427,0.00017094966252,5.26145112431e-07,0.0,0.0,0.0,0.0,0.0,0.0,0.0,0.0,0.0
95482336911,5618,95488000000,honey/imu,2.47844550075e-07,-2.48626340421e-06,0.707160868866,0.707052689365,-1.0,-1.0,-1.0,-1.0,-1.0,-1.0,-1.0,-1.0,-1.0,-7.46681626301e-05,-7.05094068056e-06,-6.05026667321e-05,0.0,0.0,0.0,0.0,0.0,0.0,0.0,0.0,0.0,0.000323969562414,0.000171839773358,1.92429201558e-06,0.0,0.0,0.0,0.0,0.0,0.0,0.0,0.0,0.0
95502503418,5619,95504000000,honey/imu,-1.22645925738e-07,-2.95239179585e-06,0.707160544221,0.707053014058,-1.0,-1.0,-1.0,-1.0,-1.0,-1.0,-1.0,-1.0,-1.0,-7.37093988121e-05,-8.99834272653e-06,-5.62824827205e-05,0.0,0.0,0.0,0.0,0.0,0.0,0.0,0.0,0.0,0.000310755000513,0.000164346283966,4.01717278069e-06,0.0,0.0,0.0,0.0,0.0,0.0,0.0,0.0,0.0
95502503418,5620,95520000000,honey/imu,-4.76466227497e-07,-3.42438677175e-06,0.707160243628,0.707053314694,-1.0,-1.0,-1.0,-1.0,-1.0,-1.0,-1.0,-1.0,-1.0,-7.27547326751e-05,-1.07792295691e-05,-5.22231413206e-05,0.0,0.0,0.0,0.0,0.0,0.0,0.0,0.0,0.0,0.00029878501236,0.000142701445235,8.54354482188e-06,0.0,0.0,0.0,0.0,0.0,0.0,0.0,0.0,0.0
95532884338,5621,95536000000,honey/imu,-8.19005007509e-07,-3.89686503897e-06,0.70715996217,0.707053596192,-1.0,-1.0,-1.0,-1.0,-1.0,-1.0,-1.0,-1.0,-1.0,-7.18004620473e-05,-1.15006139174e-05,-4.91310274759e-05,0.0,0.0,0.0,0.0,0.0,0.0,0.0,0.0,0.0,-0.00268413448393,-0.00129668016506,-2.11918757236e-05,0.0,0.0,0.0,0.0,0.0,0.0,0.0,0.0,0.0
95542962665,5622,95544000000,honey/imu,-9.88071944873e-07,-4.13125880387e-06,0.707159826766,0.707053731615,-1.0,-1.0,-1.0,-1.0,-1.0,-1.0,-1.0,-1.0,-1.0,-7.13234221795e-05,-1.15427366862e-05,-4.78757434814e-05,0.0,0.0,0.0,0.0,0.0,0.0,0.0,0.0,0.0,-0.00508338315008,-0.00368632403008,6.89846439974e-05,0.0,0.0,0.0,0.0,0.0,0.0,0.0,0.0,0.0
95563161824,5623,95560000000,honey/imu,-1.3186485858e-06,-4.60333563093e-06,0.707159557227,0.707054001191,-1.0,-1.0,-1.0,-1.0,-1.0,-1.0,-1.0,-1.0,-1.0,-7.08205361905e-05,-1.28210514491e-05,-4.75766145468e-05,0.0,0.0,0.0,0.0,0.0,0.0,0.0,0.0,0.0,0.000158092606312,0.000204164966893,1.90057180993e-05,0.0,0.0,0.0,0.0,0.0,0.0,0.0,0.0,0.0
95583396246,5624,95576000000,honey/imu,-1.62852758231e-06,-5.09216986009e-06,0.707159279446,0.707054279009,-1.0,-1.0,-1.0,-1.0,-1.0,-1.0,-1.0,-1.0,-1.0,-7.05241367128e-05,-1.68090923616e-05,-4.9619002822e-05,0.0,0.0,0.0,0.0,0.0,0.0,0.0,0.0,0.0,0.000137465976194,0.00015054108708,3.80318560306e-05,0.0,0.0,0.0,0.0,0.0,0.0,0.0,0.0,0.0
95593473576,5625,95592000000,honey/imu,-1.91213994313e-06,-5.60400965156e-06,0.707158986366,0.707054572127,-1.0,-1.0,-1.0,-1.0,-1.0,-1.0,-1.0,-1.0,-1.0,-7.02447141335e-05,-2.15312446456e-05,-5.29856479448e-05,0.0,0.0,0.0,0.0,0.0,0.0,0.0,0.0,0.0,0.000131784230038,0.000114812387921,1.01625362787e-05,0.0,0.0,0.0,0.0,0.0,0.0,0.0,0.0,0.0
95613675307,5626,95616000000,honey/imu,-2.2678786497e-06,-6.42187755536e-06,0.707158495014,0.707055063543,-1.0,-1.0,-1.0,-1.0,-1.0,-1.0,-1.0,-1.0,-1.0,-6.85265568817e-05,-2.97769319131e-05,-5.9986370667e-05,0.0,0.0,0.0,0.0,0.0,0.0,0.0,0.0,0.0,0.00192898224795,0.00124548773949,-0.000108130885369,0.0,0.0,0.0,0.0,0.0,0.0,0.0,0.0,0.0
95623757144,5627,95624000000,honey/imu,-2.46487424933e-06,-6.98947931936e-06,0.707158143247,0.707055415356,-1.0,-1.0,-1.0,-1.0,-1.0,-1.0,-1.0,-1.0,-1.0,-6.78372027937e-05,-3.21306152413e-05,-6.18052840298e-05,0.0,0.0,0.0,0.0,0.0,0.0,0.0,0.0,0.0,-0.00545965603621,-0.00350178555265,0.000428936993086,0.0,0.0,0.0,0.0,0.0,0.0,0.0,0.0,0.0
95644009176,5628,95648000000,honey/imu,-2.64457089906e-06,-7.56336254944e-06,0.707157784195,0.707055774454,-1.0,-1.0,-1.0,-1.0,-1.0,-1.0,-1.0,-1.0,-1.0,-6.63961324143e-05,-3.50565533671e-05,-6.3615415792e-05,0.0,0.0,0.0,0.0,0.0,0.0,0.0,0.0,0.0,0.00187053896457,0.00120121847043,-0.000151853394494,0.0,0.0,0.0,0.0,0.0,0.0,0.0,0.0,0.0
95664235189,5629,95664000000,honey/imu,-2.81650757807e-06,-8.13639529653e-06,0.707157423173,0.70705613552,-1.0,-1.0,-1.0,-1.0,-1.0,-1.0,-1.0,-1.0,-1.0,-6.57312222365e-05,-3.53968316122e-05,-6.3754481032e-05,0.0,0.0,0.0,0.0,0.0,0.0,0.0,0.0,0.0,5.04486678048e-05,2.95731872693e-05,-6.35443591471e-06,0.0,0.0,0.0,0.0,0.0,0.0,0.0,0.0,0.0
95674361979,5630,95680000000,honey/imu,-2.98893031953e-06,-8.7047063268e-06,0.707157064962,0.707056493775,-1.0,-1.0,-1.0,-1.0,-1.0,-1.0,-1.0,-1.0,-1.0,-6.54550812848e-05,-3.46769856712e-05,-6.30395957788e-05,0.0,0.0,0.0,0.0,0.0,0.0,0.0,0.0,0.0,4.59215015657e-05,2.64346452162e-05,-3.70184457095e-06,0.0,0.0,0.0,0.0,0.0,0.0,0.0,0.0,0.0
95694633193,5631,95696000000,honey/imu,-3.16682942249e-06,-9.26661312009e-06,0.707156714853,0.707056843926,-1.0,-1.0,-1.0,-1.0,-1.0,-1.0,-1.0,-1.0,-1.0,-6.53704817333e-05,-3.38157935263e-05,-6.13253805994e-05,0.0,0.0,0.0,0.0,0.0,0.0,0.0,0.0,0.0,6.90366879861e-05,3.37436342168e-05,-1.06587775354e-05,0.0,0.0,0.0,0.0,0.0,0.0,0.0,0.0,0.0
95704719781,5632,95712000000,honey/imu,-3.3458396786e-06,-9.82783281215e-06,0.707156376715,0.707057182103,-1.0,-1.0,-1.0,-1.0,-1.0,-1.0,-1.0,-1.0,-1.0,-6.55350142e-05,-3.39813349198e-05,-5.93700547498e-05,0.0,0.0,0.0,0.0,0.0,0.0,0.0,0.0,0.0,0.000131990912959,8.49541625784e-05,-2.35045630252e-05,0.0,0.0,0.0,0.0,0.0,0.0,0.0,0.0,0.0
95724956279,5633,95728000000,honey/imu,-3.52181631802e-06,-1.039867194e-05,0.707156045863,0.707057512992,-1.0,-1.0,-1.0,-1.0,-1.0,-1.0,-1.0,-1.0,-1.0,-6.62807028099e-05,-3.54035602475e-05,-5.84271550687e-05,0.0,0.0,0.0,0.0,0.0,0.0,0.0,0.0,0.0,0.000212991749639,0.000144216676646,-2.99531081106e-05,0.0,0.0,0.0,0.0,0.0,0.0,0.0,0.0,0.0
95735097902,5634,95744000000,honey/imu,-3.69197457616e-06,-1.09889992577e-05,0.707155714509,0.707057844383,-1.0,-1.0,-1.0,-1.0,-1.0,-1.0,-1.0,-1.0,-1.0,-6.76248174398e-05,-3.78470331465e-05,-5.88570828341e-05,0.0,0.0,0.0,0.0,0.0,0.0,0.0,0.0,0.0,0.000280281765067,0.000188651963233,-2.34638107187e-05,0.0,0.0,0.0,0.0,0.0,0.0,0.0,0.0,0.0
95755286211,5635,95760000000,honey/imu,-3.85502266525e-06,-1.16056489282e-05,0.70715537549,0.707058183438,-1.0,-1.0,-1.0,-1.0,-1.0,-1.0,-1.0,-1.0,-1.0,-6.94059790124e-05,-4.08998837606e-05,-6.04543935633e-05,0.0,0.0,0.0,0.0,0.0,0.0,0.0,0.0,0.0,0.000326561229915,0.000206719680361,9.54714473551e-06,0.0,0.0,0.0,0.0,0.0,0.0,0.0,0.0,0.0
95775534904,5636,95768000000,honey/imu,-3.93378407146e-06,-1.19249949589e-05,0.707155201564,0.707058357382,-1.0,-1.0,-1.0,-1.0,-1.0,-1.0,-1.0,-1.0,-1.0,-7.03793767593e-05,-4.25242458423e-05,-6.14954917817e-05,0.0,0.0,0.0,0.0,0.0,0.0,0.0,0.0,0.0,-0.00520646459969,-0.00329654874314,0.000404768652198,0.0,0.0,0.0,0.0,0.0,0.0,0.0,0.0,0.0
95785624528,5637,95792000000,honey/imu,-4.17236217395e-06,-1.29143043032e-05,0.707154647631,0.707058911371,-1.0,-1.0,-1.0,-1.0,-1.0,-1.0,-1.0,-1.0,-1.0,-7.32006432475e-05,-4.47750615927e-05,-6.70943597052e-05,0.0,0.0,0.0,0.0,0.0,0.0,0.0,0.0,0.0,0.00219290747693,0.00116025359672,0.000554781759963,0.0,0.0,0.0,0.0,0.0,0.0,0.0,0.0,0.0
95805829317,5638,95808000000,honey/imu,-4.33634940573e-06,-1.35906180541e-05,0.707154254007,0.707059305035,-1.0,-1.0,-1.0,-1.0,-1.0,-1.0,-1.0,-1.0,-1.0,-7.46058340301e-05,-4.54438888966e-05,-7.03274432472e-05,0.0,0.0,0.0,0.0,0.0,0.0,0.0,0.0,0.0,-0.0051103764574,-0.003122317925,0.000123520830361,0.0,0.0,0.0,0.0,0.0,0.0,0.0,0.0,0.0
95826076587,5639,95816000000,honey/imu,-4.41972962168e-06,-1.39329802515e-05,0.707154050914,0.707059508148,-1.0,-1.0,-1.0,-1.0,-1.0,-1.0,-1.0,-1.0,-1.0,-7.52648803208e-05,-4.5776015468e-05,-7.18080997455e-05,0.0,0.0,0.0,0.0,0.0,0.0,0.0,0.0,0.0,0.00525977219811,0.003829698349,-0.00216019961372,0.0,0.0,0.0,0.0,0.0,0.0,0.0,0.0,0.0
95846290622,5640,95832000000,honey/imu,-4.58793571242e-06,-1.46274441143e-05,0.707153633371,0.707059925731,-1.0,-1.0,-1.0,-1.0,-1.0,-1.0,-1.0,-1.0,-1.0,-7.6583143578e-05,-4.67533271634e-05,-7.44845677525e-05,0.0,0.0,0.0,0.0,0.0,0.0,0.0,0.0,0.0,0.000216910861814,0.000157293965586,-7.72439971652e-05,0.0,0.0,0.0,0.0,0.0,0.0,0.0,0.0,0.0
95846290622,5641,95848000000,honey/imu,-4.76055082737e-06,-1.5334808385e-05,0.707153197274,0.707060361869,-1.0,-1.0,-1.0,-1.0,-1.0,-1.0,-1.0,-1.0,-1.0,-7.81837560788e-05,-4.7428081114e-05,-7.79657892892e-05,0.0,0.0,0.0,0.0,0.0,0.0,0.0,0.0,0.0,0.000241575630324,0.00017004100674,-8.27292686582e-05,0.0,0.0,0.0,0.0,0.0,0.0,0.0,0.0,0.0
95866439511,5642,95872000000,honey/imu,-5.04170679886e-06,-1.64113561594e-05,0.707152493473,0.707061065736,-1.0,-1.0,-1.0,-1.0,-1.0,-1.0,-1.0,-1.0,-1.0,-8.09437221371e-05,-4.63234361178e-05,-8.57306779457e-05,0.0,0.0,0.0,0.0,0.0,0.0,0.0,0.0,0.0,-0.00141710992135,-0.00101968537731,0.000525768585341,0.0,0.0,0.0,0.0,0.0,0.0,0.0,0.0,0.0
95876555783,5643,95880000000,honey/imu,-5.14430232645e-06,-1.67720185256e-05,0.70715224258,0.707061316653,-1.0,-1.0,-1.0,-1.0,-1.0,-1.0,-1.0,-1.0,-1.0,-8.18968617789e-05,-4.56135627695e-05,-8.87083352204e-05,0.0,0.0,0.0,0.0,0.0,0.0,0.0,0.0,0.0,0.00543089337289,0.0038863586503,-0.00199748853788,0.0,0.0,0.0,0.0,0.0,0.0,0.0,0.0,0.0
95896754018,5644,95904000000,honey/imu,-5.47300999414e-06,-1.7852696079e-05,0.707151450078,0.707062109227,-1.0,-1.0,-1.0,-1.0,-1.0,-1.0,-1.0,-1.0,-1.0,-8.33235850538e-05,-4.39854280596e-05,-9.57314402292e-05,0.0,0.0,0.0,0.0,0.0,0.0,0.0,0.0,0.0,-0.0014666479207,-0.00105112604825,0.000542186508145,0.0,0.0,0.0,0.0,0.0,0.0,0.0,0.0,0.0
95916952817,5645,95920000000,honey/imu,-5.69195835704e-06,-1.85746404091e-05,0.70715088961,0.707062669745,-1.0,-1.0,-1.0,-1.0,-1.0,-1.0,-1.0,-1.0,-1.0,-8.29449473655e-05,-4.50121169739e-05,-0.000100113984799,0.0,0.0,0.0,0.0,0.0,0.0,0.0,0.0,0.0,0.000232212500312,0.000160574113352,-7.05578762895e-05,0.0,0.0,0.0,0.0,0.0,0.0,0.0,0.0,0.0
95927025439,5646,95936000000,honey/imu,-5.89143718839e-06,-1.93056263149e-05,0.707150305419,0.707063253987,-1.0,-1.0,-1.0,-1.0,-1.0,-1.0,-1.0,-1.0,-1.0,-8.19926332764e-05,-4.78120949444e-05,-0.000104374072085,0.0,0.0,0.0,0.0,0.0,0.0,0.0,0.0,0.0,0.000240299341193,0.000166532822151,-7.23673997948e-05,0.0,0.0,0.0,0.0,0.0,0.0,0.0,0.0,0.0
95947179038,5647,95952000000,honey/imu,-6.06668179329e-06,-2.00513595041e-05,0.707149697075,0.707063862383,-1.0,-1.0,-1.0,-1.0,-1.0,-1.0,-1.0,-1.0,-1.0,-8.13299811363e-05,-5.13432051349e-05,-0.000108521198713,0.0,0.0,0.0,0.0,0.0,0.0,0.0,0.0,0.0,0.000251971688745,0.000184173772146,-7.92093386822e-05,0.0,0.0,0.0,0.0,0.0,0.0,0.0,0.0,0.0
95967357455,5648,95968000000,honey/imu,-6.22130903444e-06,-2.08160086198e-05,0.70714906923,0.70706449028,-1.0,-1.0,-1.0,-1.0,-1.0,-1.0,-1.0,-1.0,-1.0,-8.13410900336e-05,-5.46293041168e-05,-0.000111514312327,0.0,0.0,0.0,0.0,0.0,0.0,0.0,0.0,0.0,0.00018319552866,0.000146242699876,-9.52112858733e-05,0.0,0.0,0.0,0.0,0.0,0.0,0.0,0.0,0.0
95977471720,5649,95984000000,honey/imu,-6.36394780078e-06,-2.15966294633e-05,0.707148432583,0.707065126978,-1.0,-1.0,-1.0,-1.0,-1.0,-1.0,-1.0,-1.0,-1.0,-8.17119554424e-05,-5.67020738487e-05,-0.000112541538742,0.0,0.0,0.0,0.0,0.0,0.0,0.0,0.0,0.0,0.000295400336127,0.00019106256889,-2.21107179012e-05,0.0,0.0,0.0,0.0,0.0,0.0,0.0,0.0,0.0
95997633638,5650,96000000000,honey/imu,-6.50217476859e-06,-2.23841793182e-05,0.707147797811,0.707065761799,-1.0,-1.0,-1.0,-1.0,-1.0,-1.0,-1.0,-1.0,-1.0,-8.17489291079e-05,-5.74311533445e-05,-0.000111908510449,0.0,0.0,0.0,0.0,0.0,0.0,0.0,0.0,0.0,0.000280381333707,0.000178188594345,-1.85384876979e-05,0.0,0.0,0.0,0.0,0.0,0.0,0.0,0.0,0.0
96007756879,5651,96016000000,honey/imu,-6.63796991425e-06,-2.31686741703e-05,0.707147170682,0.707066388973,-1.0,-1.0,-1.0,-1.0,-1.0,-1.0,-1.0,-1.0,-1.0,-8.11131244774e-05,-5.71386401849e-05,-0.000110441541316,0.0,0.0,0.0,0.0,0.0,0.0,0.0,0.0,0.0,0.000258495456903,0.000163666023473,-1.92838543174e-05,0.0,0.0,0.0,0.0,0.0,0.0,0.0,0.0,0.0
96017846952,5652,96024000000,honey/imu,-6.70550729816e-06,-2.35573048572e-05,0.707146860719,0.707066698958,-1.0,-1.0,-1.0,-1.0,-1.0,-1.0,-1.0,-1.0,-1.0,-8.06444071355e-05,-5.6754896744e-05,-0.000109592448787,0.0,0.0,0.0,0.0,0.0,0.0,0.0,0.0,0.0,-0.00526303519187,-0.00339451165072,0.000474169750365,0.0,0.0,0.0,0.0,0.0,0.0,0.0,0.0,0.0
96038095624,5653,96048000000,honey/imu,-6.91056399148e-06,-2.46992201537e-05,0.707145945326,0.707067614413,-1.0,-1.0,-1.0,-1.0,-1.0,-1.0,-1.0,-1.0,-1.0,-7.87198671957e-05,-5.43187903248e-05,-0.000107075175328,0.0,0.0,0.0,0.0,0.0,0.0,0.0,0.0,0.0,0.00206737996726,0.00133184771687,-0.000187079886408,0.0,0.0,0.0,0.0,0.0,0.0,0.0,0.0,0.0
96058395126,5654,96064000000,honey/imu,-7.05104803951e-06,-2.5437935206e-05,0.707145346095,0.707068213682,-1.0,-1.0,-1.0,-1.0,-1.0,-1.0,-1.0,-1.0,-1.0,-7.73803197676e-05,-5.2367778656e-05,-0.000105570683016,0.0,0.0,0.0,0.0,0.0,0.0,0.0,0.0,0.0,0.000225259382844,0.000145009333058,-2.60176886854e-05,0.0,0.0,0.0,0.0,0.0,0.0,0.0,0.0,0.0
96078595550,5655,96072000000,honey/imu,-7.12271016588e-06,-2.58001897824e-05,0.707145049559,0.707068510236,-1.0,-1.0,-1.0,-1.0,-1.0,-1.0,-1.0,-1.0,-1.0,-7.67105254227e-05,-5.13633806071e-05,-0.00010484473887,0.0,0.0,0.0,0.0,0.0,0.0,0.0,0.0,0.0,-0.00528425040945,-0.00340962113519,0.000469124004602,0.0,0.0,0.0,0.0,0.0,0.0,0.0,0.0,0.0
96088670167,5656,96096000000,honey/imu,-7.34382545896e-06,-2.68564783046e-05,0.707144172095,0.707069387752,-1.0,-1.0,-1.0,-1.0,-1.0,-1.0,-1.0,-1.0,-1.0,-7.44158099495e-05,-4.79064014312e-05,-0.00010272840505,0.0,0.0,0.0,0.0,0.0,0.0,0.0,0.0,0.0,0.0020588108945,0.00133087685859,-0.000202454504759,0.0,0.0,0.0,0.0,0.0,0.0,0.0,0.0,0.0
96108918068,5657,96112000000,honey/imu,-7.49856706053e-06,-2.75244689524e-05,0.707143596429,0.707069963452,-1.0,-1.0,-1.0,-1.0,-1.0,-1.0,-1.0,-1.0,-1.0,-7.19867022441e-05,-4.42594715149e-05,-0.000101470942994,0.0,0.0,0.0,0.0,0.0,0.0,0.0,0.0,0.0,0.000219271674786,0.000147005222783,-6.95859100371e-05,0.0,0.0,0.0,0.0,0.0,0.0,0.0,0.0,0.0
96118979411,5658,96128000000,honey/imu,-7.6620029154e-06,-2.81477858508e-05,0.707143027381,0.707070532532,-1.0,-1.0,-1.0,-1.0,-1.0,-1.0,-1.0,-1.0,-1.0,-6.85740223696e-05,-3.92234680218e-05,-0.000100316711896,0.0,0.0,0.0,0.0,0.0,0.0,0.0,0.0,0.0,0.000201695530268,0.000139513866231,-0.000206494617491,0.0,0.0,0.0,0.0,0.0,0.0,0.0,0.0,0.0
96139178906,5659,96144000000,honey/imu,-7.83432635112e-06,-2.87167349953e-05,0.707142466017,0.707071093929,-1.0,-1.0,-1.0,-1.0,-1.0,-1.0,-1.0,-1.0,-1.0,-6.44107541749e-05,-3.37160601562e-05,-9.87221233178e-05,0.0,0.0,0.0,0.0,0.0,0.0,0.0,0.0,0.0,-0.000151830971893,-5.76517002727e-05,-0.00118588343663,0.0,0.0,0.0,0.0,0.0,0.0,0.0,0.0,0.0
96159362959,5660,96152000000,honey/imu,-8.01169488431e-06,-2.92303037038e-05,0.707141916345,0.707071643633,-1.0,-1.0,-1.0,-1.0,-1.0,-1.0,-1.0,-1.0,-1.0,-6.21860736139e-05,-3.10457438323e-05,-9.76886279491e-05,0.0,0.0,0.0,0.0,0.0,0.0,0.0,0.0,0.0,-0.00447822919981,-0.00304670551108,0.0032948806974,0.0,0.0,0.0,0.0,0.0,0.0,0.0,0.0,0.0
96159362959,5661,96176000000,honey/imu,-8.19220742422e-06,-2.96984935767e-05,0.707141373648,0.707072186361,-1.0,-1.0,-1.0,-1.0,-1.0,-1.0,-1.0,-1.0,-1.0,-5.66386688725e-05,-2.46128142131e-05,-9.59234248013e-05,0.0,0.0,0.0,0.0,0.0,0.0,0.0,0.0,0.0,-0.00158101705843,-0.000960080685838,-0.000271518118919,0.0,0.0,0.0,0.0,0.0,0.0,0.0,0.0,0.0
96189609932,5662,96184000000,honey/imu,-8.37495000261e-06,-3.01376181259e-05,0.707140829472,0.707072730569,-1.0,-1.0,-1.0,-1.0,-1.0,-1.0,-1.0,-1.0,-1.0,-5.52351309209e-05,-2.29945471332e-05,-9.5892700445e-05,0.0,0.0,0.0,0.0,0.0,0.0,0.0,0.0,0.0,0.00585653553569,0.00356080106902,0.000965413596078,0.0,0.0,0.0,0.0,0.0,0.0,0.0,0.0,0.0
96199666110,5663,96208000000,honey/imu,-8.55887781293e-06,-3.05690274447e-05,0.707140277066,0.707073283007,-1.0,-1.0,-1.0,-1.0,-1.0,-1.0,-1.0,-1.0,-1.0,-5.46142528616e-05,-2.20983977277e-05,-9.81872642874e-05,0.0,0.0,0.0,0.0,0.0,0.0,0.0,0.0,0.0,-0.0015386253208,-0.000950405078045,-0.000268986690308,0.0,0.0,0.0,0.0,0.0,0.0,0.0,0.0,0.0
96219779010,5664,96224000000,honey/imu,-8.74258675025e-06,-3.10130943444e-05,0.707139712816,0.707073847289,-1.0,-1.0,-1.0,-1.0,-1.0,-1.0,-1.0,-1.0,-1.0,-5.59210397697e-05,-2.34576565287e-05,-0.000100246013004,0.0,0.0,0.0,0.0,0.0,0.0,0.0,0.0,0.0,0.00030258630566,0.000183398432316,5.19227337049e-05,0.0,0.0,0.0,0.0,0.0,0.0,0.0,0.0,0.0
96239926523,5665,96240000000,honey/imu,-8.92604259133e-06,-3.14768241241e-05,0.707139137417,0.707074422718,-1.0,-1.0,-1.0,-1.0,-1.0,-1.0,-1.0,-1.0,-1.0,-5.76311490034e-05,-2.51763271582e-05,-0.0001021988206,0.0,0.0,0.0,0.0,0.0,0.0,0.0,0.0,0.0,0.000287830595765,0.000183209656625,4.99039776789e-05,0.0,0.0,0.0,0.0,0.0,0.0,0.0,0.0,0.0
96250025624,5666,96256000000,honey/imu,-9.10986716235e-06,-3.19594052563e-05,0.707138551163,0.707075009002,-1.0,-1.0,-1.0,-1.0,-1.0,-1.0,-1.0,-1.0,-1.0,-5.93301181775e-05,-2.68077569422e-05,-0.000104119714161,0.0,0.0,0.0,0.0,0.0,0.0,0.0,0.0,0.0,0.000283091483197,0.000184251600912,4.4213161083e-05,0.0,0.0,0.0,0.0,0.0,0.0,0.0,0.0,0.0
96270139956,5667,96272000000,honey/imu,-9.29409643087e-06,-3.24608032177e-05,0.707137954019,0.707075606173,-1.0,-1.0,-1.0,-1.0,-1.0,-1.0,-1.0,-1.0,-1.0,-6.10292104336e-05,-2.84350707306e-05,-0.000106044606062,0.0,0.0,0.0,0.0,0.0,0.0,0.0,0.0,0.0,0.000282148845144,0.000184676886473,4.23464426964e-05,0.0,0.0,0.0,0.0,0.0,0.0,0.0,0.0,0.0
96280250126,5668,96288000000,honey/imu,-9.4786013523e-06,-3.29812794352e-05,0.707137346019,0.7070762142,-1.0,-1.0,-1.0,-1.0,-1.0,-1.0,-1.0,-1.0,-1.0,-6.27515895331e-05,-3.01312986043e-05,-0.000107957916447,0.0,0.0,0.0,0.0,0.0,0.0,0.0,0.0,0.0,0.000281685328493,0.000182439134164,4.53917612992e-05,0.0,0.0,0.0,0.0,0.0,0.0,0.0,0.0,0.0
96300362069,5669,96304000000,honey/imu,-9.662836679e-06,-3.3522203802e-05,0.707136727127,0.707076833117,-1.0,-1.0,-1.0,-1.0,-1.0,-1.0,-1.0,-1.0,-1.0,-6.4573302151e-05,-3.20283574548e-05,-0.000109906833703,0.0,0.0,0.0,0.0,0.0,0.0,0.0,0.0,0.0,0.000274640404205,0.000166130409803,6.51905660268e-05,0.0,0.0,0.0,0.0,0.0,0.0,0.0,0.0,0.0
96310419182,5670,96320000000,honey/imu,-9.84620487678e-06,-3.4085862438e-05,0.707136096798,0.707077463469,-1.0,-1.0,-1.0,-1.0,-1.0,-1.0,-1.0,-1.0,-1.0,-6.65413303633e-05,-3.41712154404e-05,-0.000111953826648,0.0,0.0,0.0,0.0,0.0,0.0,0.0,0.0,0.0,0.000276765888459,0.000217348711096,-1.38206966227e-05,0.0,0.0,0.0,0.0,0.0,0.0,0.0,0.0,0.0
96330739763,5671,96328000000,honey/imu,-1.00282656573e-05,-3.46741558852e-05,0.707135454493,0.707078105796,-1.0,-1.0,-1.0,-1.0,-1.0,-1.0,-1.0,-1.0,-1.0,-6.75604507093e-05,-3.5299556922e-05,-0.00011300273264,0.0,0.0,0.0,0.0,0.0,0.0,0.0,0.0,0.0,-0.00486998811478,-0.00384334726311,0.000443584656848,0.0,0.0,0.0,0.0,0.0,0.0,0.0,0.0,0.0
96350928918,5672,96352000000,honey/imu,-1.0209967218e-05,-3.52870722842e-05,0.70713479874,0.707078761568,-1.0,-1.0,-1.0,-1.0,-1.0,-1.0,-1.0,-1.0,-1.0,-7.07833305808e-05,-3.85148458582e-05,-0.000116668856,0.0,0.0,0.0,0.0,0.0,0.0,0.0,0.0,0.0,0.00199559627524,0.00157361274063,-0.000160370759233,0.0,0.0,0.0,0.0,0.0,0.0,0.0,0.0,0.0
96360984269,5673,96368000000,honey/imu,-1.03967720262e-05,-3.59195644071e-05,0.707134124292,0.707079436035,-1.0,-1.0,-1.0,-1.0,-1.0,-1.0,-1.0,-1.0,-1.0,-7.29670304333e-05,-3.94448918915e-05,-0.000120297141703,0.0,0.0,0.0,0.0,0.0,0.0,0.0,0.0,0.0,0.000263989282694,0.000215476033757,-1.17065250911e-05,0.0,0.0,0.0,0.0,0.0,0.0,0.0,0.0,0.0
96381167268,5674,96384000000,honey/imu,-1.05963908707e-05,-3.6564001047e-05,0.707133424062,0.707080136283,-1.0,-1.0,-1.0,-1.0,-1.0,-1.0,-1.0,-1.0,-1.0,-7.51557111154e-05,-3.90585860129e-05,-0.000125137100684,0.0,0.0,0.0,0.0,0.0,0.0,0.0,0.0,0.0,0.000251410277978,0.000205418266842,-1.53895248799e-05,0.0,0.0,0.0,0.0,0.0,0.0,0.0,0.0,0.0
96391433697,5675,96400000000,honey/imu,-1.08140464979e-05,-3.72151679362e-05,0.707132693281,0.70708086708,-1.0,-1.0,-1.0,-1.0,-1.0,-1.0,-1.0,-1.0,-1.0,-7.73449203703e-05,-3.80640682869e-05,-0.000130532989962,0.0,0.0,0.0,0.0,0.0,0.0,0.0,0.0,0.0,0.000251964403119,0.000192314851314,-2.02898386245e-05,0.0,0.0,0.0,0.0,0.0,0.0,0.0,0.0,0.0
96411710722,5676,96416000000,honey/imu,-1.10459238858e-05,-3.78749973051e-05,0.707131933359,0.707081627019,-1.0,-1.0,-1.0,-1.0,-1.0,-1.0,-1.0,-1.0,-1.0,-7.92012057964e-05,-3.80651151905e-05,-0.000135449416829,0.0,0.0,0.0,0.0,0.0,0.0,0.0,0.0,0.0,0.000265275976541,0.000183866048548,-3.39231538372e-05,0.0,0.0,0.0,0.0,0.0,0.0,0.0,0.0,0.0
96431985746,5677,96424000000,honey/imu,-1.1163000844e-05,-3.82102360345e-05,0.707131543965,0.70708201642,-1.0,-1.0,-1.0,-1.0,-1.0,-1.0,-1.0,-1.0,-1.0,-7.99628559885e-05,-3.8558310176e-05,-0.000137672498365,0.0,0.0,0.0,0.0,0.0,0.0,0.0,0.0,0.0,-0.00493847885724,-0.00380143388357,0.000398011283988,0.0,0.0,0.0,0.0,0.0,0.0,0.0,0.0,0.0
96442049775,5678,96448000000,honey/imu,-1.14794722698e-05,-3.9235467069e-05,0.707130351394,0.707083209011,-1.0,-1.0,-1.0,-1.0,-1.0,-1.0,-1.0,-1.0,-1.0,-7.78025763436e-05,-4.35713648978e-05,-0.000141241789431,0.0,0.0,0.0,0.0,0.0,0.0,0.0,0.0,0.0,0.00203960208141,0.00150668764184,-0.000207413741757,0.0,0.0,0.0,0.0,0.0,0.0,0.0,0.0,0.0
96462257252,5679,96464000000,honey/imu,-1.16380915778e-05,-3.99206586088e-05,0.707129552209,0.707084008208,-1.0,-1.0,-1.0,-1.0,-1.0,-1.0,-1.0,-1.0,-1.0,-7.3176367911e-05,-4.75402826327e-05,-0.000141115346355,0.0,0.0,0.0,0.0,0.0,0.0,0.0,0.0,0.0,-0.00485752407927,-0.00381948992982,0.000399256810572,0.0,0.0,0.0,0.0,0.0,0.0,0.0,0.0,0.0
96472262901,5680,96480000000,honey/imu,-1.17410455875e-05,-4.05947873221e-05,0.70712875695,0.707084803477,-1.0,-1.0,-1.0,-1.0,-1.0,-1.0,-1.0,-1.0,-1.0,-6.70246253604e-05,-5.14054436995e-05,-0.000140380392994,0.0,0.0,0.0,0.0,0.0,0.0,0.0,0.0,0.0,0.000290541328095,0.000249599701285,-2.59227921033e-05,0.0,0.0,0.0,0.0,0.0,0.0,0.0,0.0,0.0
96492406207,5681,96496000000,honey/imu,-1.1784604525e-05,-4.12504178748e-05,0.707127968048,0.707085592389,-1.0,-1.0,-1.0,-1.0,-1.0,-1.0,-1.0,-1.0,-1.0,-5.99145724612e-05,-5.49252001365e-05,-0.000138950388251,0.0,0.0,0.0,0.0,0.0,0.0,0.0,0.0,0.0,0.000294016510627,0.000255109144113,-2.70441043738e-05,0.0,0.0,0.0,0.0,0.0,0.0,0.0,0.0,0.0
96502490694,5682,96512000000,honey/imu,-1.17651970957e-05,-4.18806130552e-05,0.707127193753,0.707086366693,-1.0,-1.0,-1.0,-1.0,-1.0,-1.0,-1.0,-1.0,-1.0,-5.18479254342e-05,-5.82313296828e-05,-0.000135829234616,0.0,0.0,0.0,0.0,0.0,0.0,0.0,0.0,0.0,0.000307051992126,0.000262451722504,-2.70277177978e-05,0.0,0.0,0.0,0.0,0.0,0.0,0.0,0.0,0.0
96522685894,5683,96528000000,honey/imu,-1.16793013787e-05,-4.24778501634e-05,0.707126444278,0.707087116176,-1.0,-1.0,-1.0,-1.0,-1.0,-1.0,-1.0,-1.0,-1.0,-4.28407759483e-05,-6.08764088958e-05,-0.000131254043851,0.0,0.0,0.0,0.0,0.0,0.0,0.0,0.0,0.0,0.000328448803892,0.000273239403086,-2.64067976309e-05,0.0,0.0,0.0,0.0,0.0,0.0,0.0,0.0,0.0
96542940642,5684,96544000000,honey/imu,-1.15289410684e-05,-4.30314969845e-05,0.707125723979,0.707087836483,-1.0,-1.0,-1.0,-1.0,-1.0,-1.0,-1.0,-1.0,-1.0,-3.31807035802e-05,-6.25603891514e-05,-0.000125890308687,0.0,0.0,0.0,0.0,0.0,0.0,0.0,0.0,0.0,0.000339299020675,0.000290939904915,-2.65138642639e-05,0.0,0.0,0.0,0.0,0.0,0.0,0.0,0.0,0.0
96553019086,5685,96560000000,honey/imu,-1.1316965228e-05,-4.35351384305e-05,0.70712503552,0.707088524951,-1.0,-1.0,-1.0,-1.0,-1.0,-1.0,-1.0,-1.0,-1.0,-2.33270440429e-05,-6.32528331403e-05,-0.000120410350521,0.0,0.0,0.0,0.0,0.0,0.0,0.0,0.0,0.0,0.000350637741033,0.000296058651232,-2.77539981558e-05,0.0,0.0,0.0,0.0,0.0,0.0,0.0,0.0,0.0
96573234394,5686,96576000000,honey/imu,-1.10523293576e-05,-4.39827171663e-05,0.707124375893,0.707089184588,-1.0,-1.0,-1.0,-1.0,-1.0,-1.0,-1.0,-1.0,-1.0,-1.39359585181e-05,-6.26282461835e-05,-0.000115400493537,0.0,0.0,0.0,0.0,0.0,0.0,0.0,0.0,0.0,0.000371247077879,0.000295438736397,-3.56794989205e-05,0.0,0.0,0.0,0.0,0.0,0.0,0.0,0.0,0.0
96583311420,5687,96592000000,honey/imu,-1.07477274458e-05,-4.43727752796e-05,0.70712374427,0.707089816222,-1.0,-1.0,-1.0,-1.0,-1.0,-1.0,-1.0,-1.0,-1.0,-5.6556432183e-06,-6.07989579918e-05,-0.000110336413805,0.0,0.0,0.0,0.0,0.0,0.0,0.0,0.0,0.0,-0.001907160579,-0.0020358694431,-4.15377702561e-05,0.0,0.0,0.0,0.0,0.0,0.0,0.0,0.0,0.0
96603479015,5688,96608000000,honey/imu,-1.04161399218e-05,-4.47069351553e-05,0.707123143562,0.707090416942,-1.0,-1.0,-1.0,-1.0,-1.0,-1.0,-1.0,-1.0,-1.0,1.3894041538e-06,-5.80740957199e-05,-0.000104698665362,0.0,0.0,0.0,0.0,0.0,0.0,0.0,0.0,0.0,0.000322968554051,0.000411565771055,1.65389253422e-05,0.0,0.0,0.0,0.0,0.0,0.0,0.0,0.0,0.0
96623639334,5689,96624000000,honey/imu,-1.00666508625e-05,-4.49877375844e-05,0.707122577454,0.707090983064,-1.0,-1.0,-1.0,-1.0,-1.0,-1.0,-1.0,-1.0,-1.0,7.50394645548e-06,-5.48713716757e-05,-9.84495805665e-05,0.0,0.0,0.0,0.0,0.0,0.0,0.0,0.0,0.0,0.000374812065789,0.000383191418185,-9.89636088804e-06,0.0,0.0,0.0,0.0,0.0,0.0,0.0,0.0,0.0
96633696014,5690,96640000000,honey/imu,-9.70428869729e-06,-4.52176599898e-05,0.707122048256,0.707091512275,-1.0,-1.0,-1.0,-1.0,-1.0,-1.0,-1.0,-1.0,-1.0,1.30282284005e-05,-5.14945560753e-05,-9.19145154886e-05,0.0,0.0,0.0,0.0,0.0,0.0,0.0,0.0,0.0,0.000396701471422,0.000369637436612,-2.3669995891e-05,0.0,0.0,0.0,0.0,0.0,0.0,0.0,0.0,0.0
