%time,field.header.seq,field.header.stamp,field.header.frame_id,field.twist.twist.linear.x,field.twist.twist.linear.y,field.twist.twist.linear.z,field.twist.twist.angular.x,field.twist.twist.angular.y,field.twist.twist.angular.z,field.twist.covariance0,field.twist.covariance1,field.twist.covariance2,field.twist.covariance3,field.twist.covariance4,field.twist.covariance5,field.twist.covariance6,field.twist.covariance7,field.twist.covariance8,field.twist.covariance9,field.twist.covariance10,field.twist.covariance11,field.twist.covariance12,field.twist.covariance13,field.twist.covariance14,field.twist.covariance15,field.twist.covariance16,field.twist.covariance17,field.twist.covariance18,field.twist.covariance19,field.twist.covariance20,field.twist.covariance21,field.twist.covariance22,field.twist.covariance23,field.twist.covariance24,field.twist.covariance25,field.twist.covariance26,field.twist.covariance27,field.twist.covariance28,field.twist.covariance29,field.twist.covariance30,field.twist.covariance31,field.twist.covariance32,field.twist.covariance33,field.twist.covariance34,field.twist.covariance35
29330689418,0,0,honey/haz_cam,0.000156755821081,-0.00012850551866,-0.000601911277045,1.12647921924e-05,-0.000288781913696,0.000288572802674,2.79411524389e-05,2.81677675976e-12,-1.58134738637e-09,0.0,0.0,0.0,2.81677675976e-12,2.78870484181e-05,-1.22700244062e-11,0.0,0.0,0.0,-1.58134738637e-09,-1.22700244062e-11,5.27245429112e-05,0.0,0.0,0.0,0.0,0.0,0.0,3.41581483099e-08,-1.64221955856e-06,0.000400060031097,0.0,0.0,0.0,0.0,0.0,0.0,0.0,0.0,0.0,0.0,0.0,0.0
30302252283,1,0,honey/haz_cam,0.00061521702446,-0.000108126354462,-0.00165314425249,1.40273505167e-05,-0.000213400853681,0.000164829107234,7.89158802945e-05,5.96862698155e-11,-1.07762554435e-08,0.0,0.0,0.0,5.96862698155e-11,7.65977310948e-05,-3.60773322328e-09,0.0,0.0,0.0,-1.07762554435e-08,-3.60773322328e-09,0.000102846388472,0.0,0.0,0.0,0.0,0.0,0.0,-2.41855195782e-06,-6.1313066908e-06,0.00119754706975,0.0,0.0,0.0,0.0,0.0,0.0,0.0,0.0,0.0,0.0,0.0,0.0
31342299325,2,0,honey/haz_cam,0.0020448944997,-0.000142892517033,-0.00442590657622,nan,nan,nan,0.000200647002202,1.87559745513e-08,-8.5866119548e-08,0.0,0.0,0.0,1.87559745513e-08,0.000162815864314,-1.10422639921e-07,0.0,0.0,0.0,-8.5866119548e-08,-1.10422639921e-07,0.000220514295506,0.0,0.0,0.0,0.0,0.0,0.0,-5.85018278798e-06,-1.30850203277e-05,0.00199706992134,0.0,0.0,0.0,0.0,0.0,0.0,0.0,0.0,0.0,0.0,0.0,0.0
32311995146,3,0,honey/haz_cam,0.00411479640752,-0.000175519351615,-0.00881133694202,nan,nan,nan,0.000324361433741,1.82479254818e-07,-2.15666474901e-07,0.0,0.0,0.0,1.82479254818e-07,0.000198157373234,-7.44299597955e-07,0.0,0.0,0.0,-2.15666474901e-07,-7.44299597955e-07,0.000334588141413,0.0,0.0,0.0,0.0,0.0,0.0,-1.19863107102e-05,-2.05957767321e-05,0.00279936427251,0.0,0.0,0.0,0.0,0.0,0.0,0.0,0.0,0.0,0.0,0.0,0.0
33311807340,4,0,honey/haz_cam,0.00726140709594,1.17582339954e-05,-0.0151964388788,nan,nan,nan,0.000498980865814,9.98482164505e-07,-5.16687407526e-07,0.0,0.0,0.0,9.98482164505e-07,0.000205218821066,-3.28718351739e-06,0.0,0.0,0.0,-5.16687407526e-07,-3.28718351739e-06,0.000488473393489,0.0,0.0,0.0,0.0,0.0,0.0,-1.81444920599e-05,-2.7988513466e-05,0.00360080925748,0.0,0.0,0.0,0.0,0.0,0.0,0.0,0.0,0.0,0.0,0.0,0.0
34472644105,5,0,honey/haz_cam,0.0111016733572,0.000472651270684,-0.0227394327521,nan,nan,nan,0.000699329015333,3.62228593076e-06,-1.06332447558e-06,0.0,0.0,0.0,3.62228593076e-06,0.000194413267309,-9.84567213891e-06,0.0,0.0,0.0,-1.06332447558e-06,-9.84567213891e-06,0.000655289913993,0.0,0.0,0.0,0.0,0.0,0.0,-2.58590443991e-05,-3.576677409e-05,0.00440818537027,0.0,0.0,0.0,0.0,0.0,0.0,0.0,0.0,0.0,0.0,0.0,0.0
35429727049,6,0,honey/haz_cam,0.0140051944181,0.0010824004421,-0.027888584882,nan,nan,nan,0.000778544927016,6.53437655274e-06,-1.10808093723e-06,0.0,0.0,0.0,6.53437655274e-06,0.00017747230595,-1.59852497745e-05,0.0,0.0,0.0,-1.10808093723e-06,-1.59852497745e-05,0.000706918886863,0.0,0.0,0.0,0.0,0.0,0.0,-3.52181377821e-05,-4.32809756603e-05,0.00521602993831,0.0,0.0,0.0,0.0,0.0,0.0,0.0,0.0,0.0,0.0,0.0,0.0
36390874720,7,0,honey/haz_cam,0.0161537602544,0.00175550312269,-0.0313803851604,nan,nan,nan,0.000844531401526,1.0288028534e-05,-8.4541625256e-07,0.0,0.0,0.0,1.0288028534e-05,0.000177959227585,-2.30147379625e-05,0.0,0.0,0.0,-8.4541625256e-07,-2.30147379625e-05,0.000754300679546,0.0,0.0,0.0,0.0,0.0,0.0,-4.61385934614e-05,-4.92265098728e-05,0.00602050963789,0.0,0.0,0.0,0.0,0.0,0.0,0.0,0.0,0.0,0.0,0.0,0.0
37493729104,8,0,honey/haz_cam,0.0170633886009,0.00222372659482,-0.0326119959354,nan,nan,nan,0.000882052758243,1.44092819028e-05,-5.80046560117e-07,0.0,0.0,0.0,1.44092819028e-05,0.000182791802217,-2.99122439174e-05,0.0,0.0,0.0,-5.80046560117e-07,-2.99122439174e-05,0.000787581840996,0.0,0.0,0.0,0.0,0.0,0.0,-5.44494250789e-05,-5.56260347366e-05,0.00682980380952,0.0,0.0,0.0,0.0,0.0,0.0,0.0,0.0,0.0,0.0,0.0,0.0
38468854908,9,0,honey/haz_cam,0.0168151650578,0.00246160407551,-0.0319227688015,nan,nan,nan,0.000900721992366,1.83136835403e-05,-1.28920305542e-07,0.0,0.0,0.0,1.83136835403e-05,0.000188722697203,-3.62676437362e-05,0.0,0.0,0.0,-1.28920305542e-07,-3.62676437362e-05,0.000816110346932,0.0,0.0,0.0,0.0,0.0,0.0,-6.59313518554e-05,-5.99354389124e-05,0.00764253130183,0.0,0.0,0.0,0.0,0.0,0.0,0.0,0.0,0.0,0.0,0.0,0.0
39376975158,10,0,honey/haz_cam,0.0155235603452,0.00247301487252,-0.0292159877717,nan,nan,nan,0.000911387032829,2.15721684071e-05,1.6696351679e-07,0.0,0.0,0.0,2.15721684071e-05,0.000193742176634,-4.18857889599e-05,0.0,0.0,0.0,1.6696351679e-07,-4.18857889599e-05,0.000847037299536,0.0,0.0,0.0,0.0,0.0,0.0,-7.50481849536e-05,-6.3867890276e-05,0.00846017897129,0.0,0.0,0.0,0.0,0.0,0.0,0.0,0.0,0.0,0.0,0.0,0.0
40456900413,11,0,honey/haz_cam,0.0132426097989,0.00222925189883,-0.0245973113924,nan,nan,nan,0.00093061523512,2.43394406425e-05,3.02697770849e-07,0.0,0.0,0.0,2.43394406425e-05,0.000198444118723,-4.74912048958e-05,0.0,0.0,0.0,3.02697770849e-07,-4.74912048958e-05,0.000891577627044,0.0,0.0,0.0,0.0,0.0,0.0,-8.48000636324e-05,-6.69775763527e-05,0.00928363390267,0.0,0.0,0.0,0.0,0.0,0.0,0.0,0.0,0.0,0.0,0.0,0.0
41386799696,12,0,honey/haz_cam,0.0109665403143,0.0018357837107,-0.0198742076755,nan,nan,nan,0.000886495108716,2.25213498197e-05,3.66371750715e-07,0.0,0.0,0.0,2.25213498197e-05,0.000188618592802,-4.48131686426e-05,0.0,0.0,0.0,3.66371750715e-07,-4.48131686426e-05,0.000866402522661,0.0,0.0,0.0,0.0,0.0,0.0,-9.34135168791e-05,-6.79709482938e-05,0.0101088639349,0.0,0.0,0.0,0.0,0.0,0.0,0.0,0.0,0.0,0.0,0.0,0.0
42377995713,13,0,honey/haz_cam,0.00851404760033,0.00141717295628,-0.0152197275311,nan,nan,nan,0.000890878378414,2.17094893742e-05,3.75696657784e-07,0.0,0.0,0.0,2.17094893742e-05,0.000191981132957,-4.42702075816e-05,0.0,0.0,0.0,3.75696657784e-07,-4.42702075816e-05,0.000884748529643,0.0,0.0,0.0,0.0,0.0,0.0,-0.000103087280877,-6.84249680489e-05,0.0109286447987,0.0,0.0,0.0,0.0,0.0,0.0,0.0,0.0,0.0,0.0,0.0,0.0
43466438984,14,0,honey/haz_cam,0.00613037031144,0.000965927436482,-0.0103156911209,nan,nan,nan,0.000919007870834,2.16723692574e-05,3.15570929388e-07,0.0,0.0,0.0,2.16723692574e-05,0.000195973014343,-4.51122323284e-05,0.0,0.0,0.0,3.15570929388e-07,-4.51122323284e-05,0.000921644445043,0.0,0.0,0.0,0.0,0.0,0.0,-0.000108770793304,-6.85963314027e-05,0.0117553640157,0.0,0.0,0.0,0.0,0.0,0.0,0.0,0.0,0.0,0.0,0.0,0.0
44385150728,15,0,honey/haz_cam,0.00396811868995,0.000533950398676,-0.00619246764109,nan,nan,nan,0.000910370901693,2.04647822102e-05,3.80686856261e-07,0.0,0.0,0.0,2.04647822102e-05,0.000189878017409,-4.32831366197e-05,0.0,0.0,0.0,3.80686856261e-07,-4.32831366197e-05,0.000916290970054,0.0,0.0,0.0,0.0,0.0,0.0,-0.000112356268801,-6.5942062065e-05,0.0125853940845,0.0,0.0,0.0,0.0,0.0,0.0,0.0,0.0,0.0,0.0,0.0,0.0
45494620308,16,0,honey/haz_cam,0.00166429404635,0.000126354410895,-0.00178616866469,nan,nan,nan,0.000961880432442,2.06398544833e-05,3.02162618482e-07,0.0,0.0,0.0,2.06398544833e-05,0.000196363893338,-4.40524454461e-05,0.0,0.0,0.0,3.02162618482e-07,-4.40524454461e-05,0.000967578613199,0.0,0.0,0.0,0.0,0.0,0.0,-0.00011651503155,-6.43993262202e-05,0.0134154772386,0.0,0.0,0.0,0.0,0.0,0.0,0.0,0.0,0.0,0.0,0.0,0.0
46343027211,17,0,honey/haz_cam,1.69746999745e-05,-0.000228318851441,0.0012779138051,nan,nan,nan,0.00094520743005,1.92594397959e-05,2.24040135777e-07,0.0,0.0,0.0,1.92594397959e-05,0.000187797035323,-4.14043934143e-05,0.0,0.0,0.0,2.24040135777e-07,-4.14043934143e-05,0.000948259315919,0.0,0.0,0.0,0.0,0.0,0.0,-0.000118090276374,-6.48794230074e-05,0.0142424851656,0.0,0.0,0.0,0.0,0.0,0.0,0.0,0.0,0.0,0.0,0.0,0.0
47394195238,18,0,honey/haz_cam,-0.00174955476541,-0.000540674605872,0.00449926359579,nan,nan,nan,0.00100946705788,1.90529535757e-05,-2.58825195942e-07,0.0,0.0,0.0,1.90529535757e-05,0.000197302477318,-4.11441287724e-05,0.0,0.0,0.0,-2.58825195942e-07,-4.11441287724e-05,0.00100830732845,0.0,0.0,0.0,0.0,0.0,0.0,-0.000116004433949,-6.35904725641e-05,0.0150746498257,0.0,0.0,0.0,0.0,0.0,0.0,0.0,0.0,0.0,0.0,0.0,0.0
48353086964,19,0,honey/haz_cam,-0.00310535496101,-0.000699521333445,0.00692063383758,nan,nan,nan,0.00103112775832,1.78142709046e-05,-3.83997900144e-07,0.0,0.0,0.0,1.78142709046e-05,0.00019619827799,-3.8815625885e-05,0.0,0.0,0.0,-3.83997900144e-07,-3.8815625885e-05,0.00102612096816,0.0,0.0,0.0,0.0,0.0,0.0,-0.000112419016659,-5.8364123106e-05,0.0159215535969,0.0,0.0,0.0,0.0,0.0,0.0,0.0,0.0,0.0,0.0,0.0,0.0
49372881903,20,0,honey/haz_cam,-0.00397394225001,-0.000842003442813,0.0083612492308,nan,nan,nan,0.00104591308627,1.6345833501e-05,-5.00238115819e-07,0.0,0.0,0.0,1.6345833501e-05,0.000197471221327,-3.60396807082e-05,0.0,0.0,0.0,-5.00238115819e-07,-3.60396807082e-05,0.00103819207288,0.0,0.0,0.0,0.0,0.0,0.0,-0.000108898966573,-5.66970556974e-05,0.016768893227,0.0,0.0,0.0,0.0,0.0,0.0,0.0,0.0,0.0,0.0,0.0,0.0
50341851581,21,0,honey/haz_cam,-0.00445156916976,-0.000938827637583,0.00888096541166,nan,nan,nan,0.00104708154686,1.48979306687e-05,-6.07425079124e-07,0.0,0.0,0.0,1.48979306687e-05,0.0001987083524,-3.34082324116e-05,0.0,0.0,0.0,-6.07425079124e-07,-3.34082324116e-05,0.00103848264553,0.0,0.0,0.0,0.0,0.0,0.0,-0.000104245496914,-5.60444314033e-05,0.0176178477705,0.0,0.0,0.0,0.0,0.0,0.0,0.0,0.0,0.0,0.0,0.0,0.0
51342023593,22,0,honey/haz_cam,-0.00451269792393,-0.000825474853627,0.00884823687375,nan,nan,nan,0.00102386740036,1.37508222906e-05,-5.23415167208e-07,0.0,0.0,0.0,1.37508222906e-05,0.00019670445181,-3.12695156026e-05,0.0,0.0,0.0,-5.23415167208e-07,-3.12695156026e-05,0.0010156884091,0.0,0.0,0.0,0.0,0.0,0.0,-9.90628032014e-05,-5.57329040021e-05,0.0184629485011,0.0,0.0,0.0,0.0,0.0,0.0,0.0,0.0,0.0,0.0,0.0,0.0
52363351778,23,0,honey/haz_cam,-0.00426285713911,-0.000643584178761,0.00841852463782,nan,nan,nan,0.00105476274621,1.30932521643e-05,-6.83546033997e-07,0.0,0.0,0.0,1.30932521643e-05,0.000203509189305,-3.03472261294e-05,0.0,0.0,0.0,-6.83546033997e-07,-3.03472261294e-05,0.00104749889579,0.0,0.0,0.0,0.0,0.0,0.0,-9.11820679903e-05,-5.69284893572e-05,0.0193102769554,0.0,0.0,0.0,0.0,0.0,0.0,0.0,0.0,0.0,0.0,0.0,0.0
53371473925,24,0,honey/haz_cam,-0.00394764635712,-0.000459013797808,0.0076092700474,nan,nan,nan,0.001033889479,1.25106053019e-05,-6.83013809066e-07,0.0,0.0,0.0,1.25106053019e-05,0.000198180117877,-2.93108332698e-05,0.0,0.0,0.0,-6.83013809066e-07,-2.93108332698e-05,0.00102806824725,0.0,0.0,0.0,0.0,0.0,0.0,-8.37321858853e-05,-6.00914936513e-05,0.0201556570828,0.0,0.0,0.0,0.0,0.0,0.0,0.0,0.0,0.0,0.0,0.0,0.0
54353706545,25,0,honey/haz_cam,-0.00345021649264,-0.000278269522823,0.00667124288157,nan,nan,nan,0.00104437128175,1.2290693121e-05,-7.62715842484e-07,0.0,0.0,0.0,1.2290693121e-05,0.000200136157218,-2.91855194519e-05,0.0,0.0,0.0,-7.62715842484e-07,-2.91855194519e-05,0.00104027625639,0.0,0.0,0.0,0.0,0.0,0.0,-7.20373354852e-05,-6.16873148829e-05,0.0210031345487,0.0,0.0,0.0,0.0,0.0,0.0,0.0,0.0,0.0,0.0,0.0,0.0
55378871410,26,0,honey/haz_cam,-0.0027887201868,-0.000140087227919,0.00548092834651,5.7989047491e-05,-0.000178997026524,1.95573084056e-05,0.00106207735371,1.23293912111e-05,-7.97953248366e-07,0.0,0.0,0.0,1.23293912111e-05,0.000201328119147,-2.9461012673e-05,0.0,0.0,0.0,-7.97953248366e-07,-2.9461012673e-05,0.00105927418917,0.0,0.0,0.0,0.0,0.0,0.0,-6.28437846899e-05,-6.50626607239e-05,0.0218547321856,0.0,0.0,0.0,0.0,0.0,0.0,0.0,0.0,0.0,0.0,0.0,0.0
56350704699,27,0,honey/haz_cam,-0.00228968518786,-6.39481513645e-05,0.00422041863203,nan,nan,nan,0.00106223439798,1.24252428577e-05,-7.42094016459e-07,0.0,0.0,0.0,1.24252428577e-05,0.000199611997232,-2.97305978165e-05,0.0,0.0,0.0,-7.42094016459e-07,-2.97305978165e-05,0.00106043333653,0.0,0.0,0.0,0.0,0.0,0.0,-5.346769467e-05,-7.05635175109e-05,0.0227086562663,0.0,0.0,0.0,0.0,0.0,0.0,0.0,0.0,0.0,0.0,0.0,0.0
57312783608,28,0,honey/haz_cam,-0.00145376694854,2.4982866762e-06,0.00300493370742,nan,nan,nan,0.00107616430614,1.27603088913e-05,-8.10074027413e-07,0.0,0.0,0.0,1.27603088913e-05,0.000201611881494,-3.04676214e-05,0.0,0.0,0.0,-8.10074027413e-07,-3.04676214e-05,0.00107441935688,0.0,0.0,0.0,0.0,0.0,0.0,-4.6661356464e-05,-7.87668395787e-05,0.0235534310341,0.0,0.0,0.0,0.0,0.0,0.0,0.0,0.0,0.0,0.0,0.0,0.0
58363468322,29,0,honey/haz_cam,-0.000846509996336,6.83615653543e-05,0.0019011037657,nan,nan,nan,0.00108963134699,1.32418217618e-05,-7.0250104045e-07,0.0,0.0,0.0,1.32418217618e-05,0.000203432835406,-3.14812095894e-05,0.0,0.0,0.0,-7.0250104045e-07,-3.14812095894e-05,0.0010871689301,0.0,0.0,0.0,0.0,0.0,0.0,-4.04259189963e-05,-8.59987922013e-05,0.0243914946914,0.0,0.0,0.0,0.0,0.0,0.0,0.0,0.0,0.0,0.0,0.0,0.0
59366611874,30,0,honey/haz_cam,-0.000480779068312,5.74307741772e-05,0.0009464257746,nan,nan,nan,0.0010667105671,1.33063686008e-05,-5.69076405554e-07,0.0,0.0,0.0,1.33063686008e-05,0.000200595372007,-3.14470271405e-05,0.0,0.0,0.0,-5.69076405554e-07,-3.14470271405e-05,0.00106411008164,0.0,0.0,0.0,0.0,0.0,0.0,-3.09743918478e-05,-9.46940854192e-05,0.0252285264432,0.0,0.0,0.0,0.0,0.0,0.0,0.0,0.0,0.0,0.0,0.0,0.0
60377170805,31,0,honey/haz_cam,-0.000151040163473,7.64746000641e-05,0.000158171111252,nan,nan,nan,0.00108420290053,1.38321620398e-05,-7.27436429315e-07,0.0,0.0,0.0,1.38321620398e-05,0.000205451782676,-3.263981489e-05,0.0,0.0,0.0,-7.27436429315e-07,-3.263981489e-05,0.00108166865539,0.0,0.0,0.0,0.0,0.0,0.0,-2.14501051232e-05,-0.000105652143247,0.0260787978768,0.0,0.0,0.0,0.0,0.0,0.0,0.0,0.0,0.0,0.0,0.0,0.0
61385547750,32,0,honey/haz_cam,5.73463785258e-06,7.4696727097e-05,-0.000254964106716,nan,nan,nan,0.00105083838571,1.36096496135e-05,-5.28106909314e-07,0.0,0.0,0.0,1.36096496135e-05,0.000199681075173,-3.21802581311e-05,0.0,0.0,0.0,-5.28106909314e-07,-3.21802581311e-05,0.00104865303729,0.0,0.0,0.0,0.0,0.0,0.0,-1.36942253448e-05,-0.000116597802844,0.0269314832985,0.0,0.0,0.0,0.0,0.0,0.0,0.0,0.0,0.0,0.0,0.0,0.0
62353680842,33,0,honey/haz_cam,0.000137662762427,0.000101262274256,-0.000548608542886,nan,nan,nan,0.00103854073677,1.35934133141e-05,-6.01217152507e-07,0.0,0.0,0.0,1.35934133141e-05,0.000199103684281,-3.20807266689e-05,0.0,0.0,0.0,-6.01217152507e-07,-3.20807266689e-05,0.00103667541407,0.0,0.0,0.0,0.0,0.0,0.0,-1.06735024019e-05,-0.000126908678794,0.0277688987553,0.0,0.0,0.0,0.0,0.0,0.0,0.0,0.0,0.0,0.0,0.0,0.0
63362966767,34,0,honey/haz_cam,0.000116028204502,0.000100356061012,-0.000644573068712,nan,nan,nan,0.00107870518696,1.43430943353e-05,-5.26332200934e-07,0.0,0.0,0.0,1.43430943353e-05,0.000204728770768,-3.38796562573e-05,0.0,0.0,0.0,-5.26332200934e-07,-3.38796562573e-05,0.0010766882915,0.0,0.0,0.0,0.0,0.0,0.0,-1.46506936289e-05,-0.000141226293636,0.0286265090108,0.0,0.0,0.0,0.0,0.0,0.0,0.0,0.0,0.0,0.0,0.0,0.0
64371894920,35,0,honey/haz_cam,0.000178636619239,0.000101611833088,-0.00057706492953,nan,nan,nan,0.00108858768363,1.4665193703e-05,-4.19018107323e-07,0.0,0.0,0.0,1.4665193703e-05,0.0002018641826,-3.46500419255e-05,0.0,0.0,0.0,-4.19018107323e-07,-3.46500419255e-05,0.00108646776062,0.0,0.0,0.0,0.0,0.0,0.0,-1.47840473801e-05,-0.000155543209985,0.0294869355857,0.0,0.0,0.0,0.0,0.0,0.0,0.0,0.0,0.0,0.0,0.0,0.0
65430871515,36,0,honey/haz_cam,0.000306500209263,0.000129778447445,-0.000420377298724,nan,nan,nan,0.00107793428469,1.46548018165e-05,-3.92760711065e-07,0.0,0.0,0.0,1.46548018165e-05,0.000199251793674,-3.44368490914e-05,0.0,0.0,0.0,-3.92760711065e-07,-3.44368490914e-05,0.00107610668056,0.0,0.0,0.0,0.0,0.0,0.0,-1.31668057293e-05,-0.000168751197634,0.0303491763771,0.0,0.0,0.0,0.0,0.0,0.0,0.0,0.0,0.0,0.0,0.0,0.0
66391047396,37,0,honey/haz_cam,0.0004096388584,0.000109559907287,-0.000305757654132,nan,nan,nan,0.00103576213587,1.41042164614e-05,-3.32554975557e-07,0.0,0.0,0.0,1.41042164614e-05,0.000193615051103,-3.29755566781e-05,0.0,0.0,0.0,-3.32554975557e-07,-3.29755566781e-05,0.00103417807259,0.0,0.0,0.0,0.0,0.0,0.0,-1.71852298081e-05,-0.000180892238859,0.0312013160437,0.0,0.0,0.0,0.0,0.0,0.0,0.0,0.0,0.0,0.0,0.0,0.0
67348468571,38,0,honey/haz_cam,0.000442442134954,0.000103066544398,-0.000181952476851,nan,nan,nan,0.00104761612602,1.42847447933e-05,-4.30900740866e-07,0.0,0.0,0.0,1.42847447933e-05,0.000199287314899,-3.32064992108e-05,0.0,0.0,0.0,-4.30900740866e-07,-3.32064992108e-05,0.00104615290184,0.0,0.0,0.0,0.0,0.0,0.0,-2.24341638386e-05,-0.000193061408936,0.0320555642247,0.0,0.0,0.0,0.0,0.0,0.0,0.0,0.0,0.0,0.0,0.0,0.0
68337376948,39,0,honey/haz_cam,0.000451851956313,3.16379155265e-05,-9.79580072453e-05,nan,nan,nan,0.00104948075023,1.43316883623e-05,-3.00235313944e-07,0.0,0.0,0.0,1.43316883623e-05,0.000198817258934,-3.32424933731e-05,0.0,0.0,0.0,-3.00235313944e-07,-3.32424933731e-05,0.00104811158963,0.0,0.0,0.0,0.0,0.0,0.0,-2.76300124824e-05,-0.000204811338335,0.032923784107,0.0,0.0,0.0,0.0,0.0,0.0,0.0,0.0,0.0,0.0,0.0,0.0
69407960824,40,0,honey/haz_cam,0.000301211577607,1.78999766831e-06,4.58636277472e-05,-2.66498536803e-05,-0.000205561780604,8.87697096914e-05,0.00108744110912,1.49247589434e-05,-5.16435875397e-07,0.0,0.0,0.0,1.49247589434e-05,0.00020251616661,-3.44507461705e-05,0.0,0.0,0.0,-5.16435875397e-07,-3.44507461705e-05,0.00108601129614,0.0,0.0,0.0,0.0,0.0,0.0,-3.5347416997e-05,-0.000215245177969,0.0337947830558,0.0,0.0,0.0,0.0,0.0,0.0,0.0,0.0,0.0,0.0,0.0,0.0
70355969719,41,0,honey/haz_cam,4.40701624029e-05,-6.02848667768e-05,0.000102663696453,nan,nan,nan,0.00103637878783,1.40962929436e-05,-4.26498132811e-07,0.0,0.0,0.0,1.40962929436e-05,0.000191753308172,-3.27173765982e-05,0.0,0.0,0.0,-4.26498132811e-07,-3.27173765982e-05,0.00103506748565,0.0,0.0,0.0,0.0,0.0,0.0,-4.37586568296e-05,-0.000223358278163,0.0346671193838,0.0,0.0,0.0,0.0,0.0,0.0,0.0,0.0,0.0,0.0,0.0,0.0
71345319141,42,0,honey/haz_cam,-0.000116637049359,-0.000116049355711,0.000181921524927,nan,nan,nan,0.00104988284875,1.40804786497e-05,-4.82282018766e-07,0.0,0.0,0.0,1.40804786497e-05,0.000197721441509,-3.28161877405e-05,0.0,0.0,0.0,-4.82282018766e-07,-3.28161877405e-05,0.00104848167393,0.0,0.0,0.0,0.0,0.0,0.0,-5.36921434104e-05,-0.000230654841289,0.0355332270265,0.0,0.0,0.0,0.0,0.0,0.0,0.0,0.0,0.0,0.0,0.0,0.0
72344338441,43,0,honey/haz_cam,-0.000227549186093,-0.000100180819572,0.000336610537488,nan,nan,nan,0.001068688347,1.41690179589e-05,-5.41590964076e-07,0.0,0.0,0.0,1.41690179589e-05,0.000200820417376,-3.31483206537e-05,0.0,0.0,0.0,-5.41590964076e-07,-3.31483206537e-05,0.00106728507672,0.0,0.0,0.0,0.0,0.0,0.0,-6.1362516135e-05,-0.000236252322793,0.0364169105887,0.0,0.0,0.0,0.0,0.0,0.0,0.0,0.0,0.0,0.0,0.0,0.0
73357024553,44,0,honey/haz_cam,-0.000315492012305,-9.24235355342e-05,0.0004480330972,nan,nan,nan,0.0010342458263,1.35687914735e-05,-3.79433515718e-07,0.0,0.0,0.0,1.35687914735e-05,0.000194176798686,-3.18589809467e-05,0.0,0.0,0.0,-3.79433515718e-07,-3.18589809467e-05,0.00103298423346,0.0,0.0,0.0,0.0,0.0,0.0,-6.87618739903e-05,-0.000239654444158,0.0372980833054,0.0,0.0,0.0,0.0,0.0,0.0,0.0,0.0,0.0,0.0,0.0,0.0
74365941347,45,0,honey/haz_cam,-0.000396549730795,-7.01749522705e-05,0.000542183057405,nan,nan,nan,0.00101777596865,1.32085724545e-05,-3.13709705324e-07,0.0,0.0,0.0,1.32085724545e-05,0.000193394953385,-3.10583709506e-05,0.0,0.0,0.0,-3.13709705324e-07,-3.10583709506e-05,0.00101651623845,0.0,0.0,0.0,0.0,0.0,0.0,-7.60601833463e-05,-0.00024403212592,0.038167566061,0.0,0.0,0.0,0.0,0.0,0.0,0.0,0.0,0.0,0.0,0.0,0.0
75374158278,46,0,honey/haz_cam,-0.000461260293378,-6.61011144985e-05,0.000655559415463,nan,nan,nan,0.00106234906707,1.36340258905e-05,-4.90529771469e-07,0.0,0.0,0.0,1.36340258905e-05,0.000201456976356,-3.21386251017e-05,0.0,0.0,0.0,-4.90529771469e-07,-3.21386251017e-05,0.00106104055885,0.0,0.0,0.0,0.0,0.0,0.0,-8.29361379147e-05,-0.000246047973633,0.0390492491424,0.0,0.0,0.0,0.0,0.0,0.0,0.0,0.0,0.0,0.0,0.0,0.0
76351970427,47,0,honey/haz_cam,-0.000387812033296,-0.000113866924949,0.000778893241659,nan,nan,nan,0.0010696798563,1.36350054163e-05,-4.18634300559e-07,0.0,0.0,0.0,1.36350054163e-05,0.000199081201572,-3.22117557516e-05,0.0,0.0,0.0,-4.18634300559e-07,-3.22117557516e-05,0.00106847204734,0.0,0.0,0.0,0.0,0.0,0.0,-8.78367573023e-05,-0.000244169030339,0.0399508439004,0.0,0.0,0.0,0.0,0.0,0.0,0.0,0.0,0.0,0.0,0.0,0.0
77431629231,48,0,honey/haz_cam,-0.000471686740639,-9.59366880124e-05,0.000730001134798,nan,nan,nan,0.00104089477099,1.3118878087e-05,-2.68207003273e-07,0.0,0.0,0.0,1.3118878087e-05,0.000193938642042,-3.11418880301e-05,0.0,0.0,0.0,-2.68207003273e-07,-3.11418880301e-05,0.00103983504232,0.0,0.0,0.0,0.0,0.0,0.0,-8.81212763488e-05,-0.000243356451392,0.0408437363803,0.0,0.0,0.0,0.0,0.0,0.0,0.0,0.0,0.0,0.0,0.0,0.0
78369554024,49,0,honey/haz_cam,-0.000523262599017,-8.3480590547e-05,0.000709677755367,nan,nan,nan,0.00104854116216,1.30150056066e-05,-3.24373445437e-07,0.0,0.0,0.0,1.30150056066e-05,0.000197953864699,-3.10674731736e-05,0.0,0.0,0.0,-3.24373445437e-07,-3.10674731736e-05,0.00104750494938,0.0,0.0,0.0,0.0,0.0,0.0,-8.97292047739e-05,-0.000243578106165,0.041731365025,0.0,0.0,0.0,0.0,0.0,0.0,0.0,0.0,0.0,0.0,0.0,0.0
79347962329,50,0,honey/haz_cam,-0.000541218265425,-6.34232128505e-05,0.00065743556479,nan,nan,nan,0.00102244620211,1.25851138364e-05,-2.93615215696e-07,0.0,0.0,0.0,1.25851138364e-05,0.0001938764035,-3.01330182992e-05,0.0,0.0,0.0,-2.93615215696e-07,-3.01330182992e-05,0.00102149357554,0.0,0.0,0.0,0.0,0.0,0.0,-9.05846245587e-05,-0.000241019763052,0.0426172539592,0.0,0.0,0.0,0.0,0.0,0.0,0.0,0.0,0.0,0.0,0.0,0.0
80381789535,51,0,honey/haz_cam,-0.000681728939526,-3.58336656063e-05,0.000451025262009,nan,nan,nan,0.00102581840474,1.24765510918e-05,-3.72456241848e-07,0.0,0.0,0.0,1.24765510918e-05,0.000195876287762,-3.00790616166e-05,0.0,0.0,0.0,-3.72456241848e-07,-3.00790616166e-05,0.00102491222788,0.0,0.0,0.0,0.0,0.0,0.0,-8.67904163897e-05,-0.000238762237132,0.0434988923371,0.0,0.0,0.0,0.0,0.0,0.0,0.0,0.0,0.0,0.0,0.0,0.0
81352676524,52,0,honey/haz_cam,-0.000459229311673,-1.29664967972e-05,0.000587601447478,nan,nan,nan,0.00105478847399,1.27565999719e-05,-3.76160073756e-07,0.0,0.0,0.0,1.27565999719e-05,0.000199478177819,-3.08410562866e-05,0.0,0.0,0.0,-3.76160073756e-07,-3.08410562866e-05,0.00105431338307,0.0,0.0,0.0,0.0,0.0,0.0,-7.65146687627e-05,-0.000230836682022,0.0443888492882,0.0,0.0,0.0,0.0,0.0,0.0,0.0,0.0,0.0,0.0,0.0,0.0
82340797339,53,0,honey/haz_cam,-0.000306366535369,-1.35487698572e-06,0.000657605880406,nan,nan,nan,0.0010736673139,1.30154739963e-05,-4.67880539645e-07,0.0,0.0,0.0,1.30154739963e-05,0.000199231944862,-3.12942283927e-05,0.0,0.0,0.0,-4.67880539645e-07,-3.12942283927e-05,0.00107302155811,0.0,0.0,0.0,0.0,0.0,0.0,-6.57603959553e-05,-0.000229628756642,0.0453008785844,0.0,0.0,0.0,0.0,0.0,0.0,0.0,0.0,0.0,0.0,0.0,0.0
83402800795,54,0,honey/haz_cam,-0.000204517084057,4.49552462669e-05,0.000688670726959,nan,nan,nan,0.00107199046761,1.29659747472e-05,-3.59122083182e-07,0.0,0.0,0.0,1.29659747472e-05,0.00019833589613,-3.10695540975e-05,0.0,0.0,0.0,-3.59122083182e-07,-3.10695540975e-05,0.00107115949504,0.0,0.0,0.0,0.0,0.0,0.0,-5.65754016861e-05,-0.00022510997951,0.046216212213,0.0,0.0,0.0,0.0,0.0,0.0,0.0,0.0,0.0,0.0,0.0,0.0
84423250974,55,0,honey/haz_cam,-0.000242095979047,4.07552688557e-05,0.000672968511935,nan,nan,nan,0.0010586141143,1.27283292386e-05,-3.42340683801e-07,0.0,0.0,0.0,1.27283292386e-05,0.000198376466869,-3.04099212372e-05,0.0,0.0,0.0,-3.42340683801e-07,-3.04099212372e-05,0.00105773634277,0.0,0.0,0.0,0.0,0.0,0.0,-5.08790835738e-05,-0.000224492512643,0.0471222996712,0.0,0.0,0.0,0.0,0.0,0.0,0.0,0.0,0.0,0.0,0.0,0.0
85350828724,56,0,honey/haz_cam,-0.000279218045762,1.24162870634e-05,0.000703709374648,nan,nan,nan,0.00105466810055,1.25625938381e-05,-3.03706173099e-07,0.0,0.0,0.0,1.25625938381e-05,0.000200468770345,-3.00772353512e-05,0.0,0.0,0.0,-3.03706173099e-07,-3.00772353512e-05,0.00105375912972,0.0,0.0,0.0,0.0,0.0,0.0,-4.50303778052e-05,-0.000225366093218,0.0480275452137,0.0,0.0,0.0,0.0,0.0,0.0,0.0,0.0,0.0,0.0,0.0,0.0
86330239048,57,0,honey/haz_cam,-0.000334529700922,-3.80168239644e-05,0.000500992347952,nan,nan,nan,0.00106300250627,1.25516244225e-05,-2.88275174398e-07,0.0,0.0,0.0,1.25516244225e-05,0.000202630559215,-3.01534309983e-05,0.0,0.0,0.0,-2.88275174398e-07,-3.01534309983e-05,0.00106188282371,0.0,0.0,0.0,0.0,0.0,0.0,-3.56328673661e-05,-0.000227514654398,0.0489401035011,0.0,0.0,0.0,0.0,0.0,0.0,0.0,0.0,0.0,0.0,0.0,0.0
87318601558,58,0,honey/haz_cam,-0.000335515156621,-8.18797198008e-05,0.000578807201236,nan,nan,nan,0.00106180156581,1.2453949239e-05,-3.56682647862e-07,0.0,0.0,0.0,1.2453949239e-05,0.000201537157409,-2.99873972835e-05,0.0,0.0,0.0,-3.56682647862e-07,-2.99873972835e-05,0.00106066989247,0.0,0.0,0.0,0.0,0.0,0.0,-1.82599760592e-05,-0.000227709300816,0.0498451553285,0.0,0.0,0.0,0.0,0.0,0.0,0.0,0.0,0.0,0.0,0.0,0.0
88379096684,59,0,honey/haz_cam,-0.000202134178835,-0.000147744081914,0.000570799282286,nan,nan,nan,0.00109324685764,1.2804736798e-05,-2.62631289161e-07,0.0,0.0,0.0,1.2804736798e-05,0.000205038755666,-3.06984111376e-05,0.0,0.0,0.0,-2.62631289161e-07,-3.06984111376e-05,0.00109189969953,0.0,0.0,0.0,0.0,0.0,0.0,-1.37658789754e-05,-0.000233247876167,0.0507726185024,0.0,0.0,0.0,0.0,0.0,0.0,0.0,0.0,0.0,0.0,0.0,0.0
89338191056,60,0,honey/haz_cam,-0.000193463958567,-0.000165791163454,0.000641868740786,nan,nan,nan,0.00106741755735,1.24638581838e-05,-2.74773242381e-07,0.0,0.0,0.0,1.24638581838e-05,0.000199718342628,-2.98725535686e-05,0.0,0.0,0.0,-2.74773242381e-07,-2.98725535686e-05,0.00106612488162,0.0,0.0,0.0,0.0,0.0,0.0,2.26544216275e-06,-0.000237091444433,0.0516828522086,0.0,0.0,0.0,0.0,0.0,0.0,0.0,0.0,0.0,0.0,0.0,0.0
90337053185,61,0,honey/haz_cam,-0.000157789356308,-0.000248467869824,0.000666342617478,nan,nan,nan,0.00106052646879,1.23586441987e-05,-2.96643491993e-07,0.0,0.0,0.0,1.23586441987e-05,0.0002006686409,-2.94827805192e-05,0.0,0.0,0.0,-2.96643491993e-07,-2.94827805192e-05,0.00105939828791,0.0,0.0,0.0,0.0,0.0,0.0,8.90763476491e-06,-0.000244678463787,0.0525856129825,0.0,0.0,0.0,0.0,0.0,0.0,0.0,0.0,0.0,0.0,0.0,0.0
91349388830,62,0,honey/haz_cam,-0.000237031723373,-0.000136112343171,0.000716892187484,nan,nan,nan,0.00106837123167,1.23805384646e-05,-3.01239168721e-07,0.0,0.0,0.0,1.23805384646e-05,0.000202539085876,-2.94957426377e-05,0.0,0.0,0.0,-3.01239168721e-07,-2.94957426377e-05,0.00106741092168,0.0,0.0,0.0,0.0,0.0,0.0,1.71619467437e-05,-0.000253816600889,0.0534924268723,0.0,0.0,0.0,0.0,0.0,0.0,0.0,0.0,0.0,0.0,0.0,0.0
92339016127,63,0,honey/haz_cam,-0.000275850936305,-6.09333437751e-05,0.000776235363446,nan,nan,nan,0.00107964430936,1.24021644297e-05,-2.84985844701e-07,0.0,0.0,0.0,1.24021644297e-05,0.000202836876269,-2.96461530525e-05,0.0,0.0,0.0,-2.84985844701e-07,-2.96461530525e-05,0.00107871950604,0.0,0.0,0.0,0.0,0.0,0.0,3.47127206624e-05,-0.000261352863163,0.054399844259,0.0,0.0,0.0,0.0,0.0,0.0,0.0,0.0,0.0,0.0,0.0,0.0
93297497017,64,0,honey/haz_cam,-0.00064099841984,-3.05994740302e-06,0.000724848650862,nan,nan,nan,0.00105824496131,1.21814318845e-05,8.83469297719e-08,0.0,0.0,0.0,1.21814318845e-05,0.000198037567316,-2.90297066385e-05,0.0,0.0,0.0,8.83469297719e-08,-2.90297066385e-05,0.00105786719359,0.0,0.0,0.0,0.0,0.0,0.0,2.33273021877e-05,-0.000282959081233,0.055291056633,0.0,0.0,0.0,0.0,0.0,0.0,0.0,0.0,0.0,0.0,0.0,0.0
94300566190,65,0,honey/haz_cam,-0.000502364826389,2.29035758821e-05,0.000721215561498,nan,nan,nan,0.00106878881343,1.18356092571e-05,9.45051326084e-09,0.0,0.0,0.0,1.18356092571e-05,0.000200490292627,-2.90968364425e-05,0.0,0.0,0.0,9.45051326084e-09,-2.90968364425e-05,0.00106849591248,0.0,0.0,0.0,0.0,0.0,0.0,5.91657590121e-05,-0.000300382263958,0.0561784654856,0.0,0.0,0.0,0.0,0.0,0.0,0.0,0.0,0.0,0.0,0.0,0.0
95309633024,66,0,honey/haz_cam,-0.000402536446927,8.47638802952e-05,0.000745144789107,nan,nan,nan,0.001064893906,1.17048957691e-05,-6.96953676993e-08,0.0,0.0,0.0,1.17048957691e-05,0.000199074973352,-2.88588034891e-05,0.0,0.0,0.0,-6.96953676993e-08,-2.88588034891e-05,0.00106442032848,0.0,0.0,0.0,0.0,0.0,0.0,7.4865296483e-05,-0.000309656723402,0.0570871382952,0.0,0.0,0.0,0.0,0.0,0.0,0.0,0.0,0.0,0.0,0.0,0.0
96297939132,67,0,honey/haz_cam,-0.000378157041268,5.69881849515e-05,0.000624139909633,nan,nan,nan,0.00104423018638,1.15566263048e-05,-2.85661798216e-07,0.0,0.0,0.0,1.15566263048e-05,0.000195532324142,-2.81979591819e-05,0.0,0.0,0.0,-2.85661798216e-07,-2.81979591819e-05,0.00104382832069,0.0,0.0,0.0,0.0,0.0,0.0,7.14770285413e-05,-0.000323451124132,0.0579828321934,0.0,0.0,0.0,0.0,0.0,0.0,0.0,0.0,0.0,0.0,0.0,0.0
97297784219,68,0,honey/haz_cam,-0.000519379565958,-6.51308873785e-05,0.000418812909629,nan,nan,nan,0.00107234809548,1.18054531413e-05,-3.73945908905e-07,0.0,0.0,0.0,1.18054531413e-05,0.000200994487386,-2.88590272248e-05,0.0,0.0,0.0,-3.73945908905e-07,-2.88590272248e-05,0.00107267429121,0.0,0.0,0.0,0.0,0.0,0.0,6.14604214206e-05,-0.000339082936989,0.0588821284473,0.0,0.0,0.0,0.0,0.0,0.0,0.0,0.0,0.0,0.0,0.0,0.0
98317072006,69,0,honey/haz_cam,-0.000485540862428,-0.000104901322629,0.000411862129113,nan,nan,nan,0.00105582713149,1.14657905215e-05,-5.70166946545e-07,0.0,0.0,0.0,1.14657905215e-05,0.000196566063096,-2.84354737232e-05,0.0,0.0,0.0,-5.70166946545e-07,-2.84354737232e-05,0.00105581909884,0.0,0.0,0.0,0.0,0.0,0.0,7.66378361732e-05,-0.000348324654624,0.0597864314914,0.0,0.0,0.0,0.0,0.0,0.0,0.0,0.0,0.0,0.0,0.0,0.0
99338873309,70,0,honey/haz_cam,-0.00043347387691,-0.000102851547126,0.000377712916816,nan,nan,nan,0.00105159298982,1.13560890895e-05,-4.99195721204e-07,0.0,0.0,0.0,1.13560890895e-05,0.000196793625946,-2.81565426121e-05,0.0,0.0,0.0,-4.99195721204e-07,-2.81565426121e-05,0.00105130567681,0.0,0.0,0.0,0.0,0.0,0.0,7.54608772695e-05,-0.000366736901924,0.0607129596174,0.0,0.0,0.0,0.0,0.0,0.0,0.0,0.0,0.0,0.0,0.0,0.0
100336396531,71,0,honey/haz_cam,-0.00038931981544,-9.83312638709e-05,0.000410379027016,nan,nan,nan,0.00105317588896,1.13336172944e-05,-5.53581514851e-07,0.0,0.0,0.0,1.13336172944e-05,0.000197685672902,-2.80723852484e-05,0.0,0.0,0.0,-5.53581514851e-07,-2.80723852484e-05,0.00105256750248,0.0,0.0,0.0,0.0,0.0,0.0,7.58380629122e-05,-0.000379460630938,0.0616215988994,0.0,0.0,0.0,0.0,0.0,0.0,0.0,0.0,0.0,0.0,0.0,0.0
101340628494,72,0,honey/haz_cam,-0.000233422309975,-2.07460689126e-05,0.000585274014156,nan,nan,nan,0.00102329964284,1.10211603896e-05,-5.5994360082e-07,0.0,0.0,0.0,1.10211603896e-05,0.000192481922568,-2.71327407972e-05,0.0,0.0,0.0,-5.5994360082e-07,-2.71327407972e-05,0.0010224012658,0.0,0.0,0.0,0.0,0.0,0.0,7.52517953515e-05,-0.000390940112993,0.0625283494592,0.0,0.0,0.0,0.0,0.0,0.0,0.0,0.0,0.0,0.0,0.0,0.0
102352384677,73,0,honey/haz_cam,-0.000236441424931,-1.23969800825e-06,0.000588475668337,nan,nan,nan,0.00104339141399,1.12127045213e-05,-5.97646021561e-07,0.0,0.0,0.0,1.12127045213e-05,0.000197500514332,-2.74655449175e-05,0.0,0.0,0.0,-5.97646021561e-07,-2.74655449175e-05,0.00104219443165,0.0,0.0,0.0,0.0,0.0,0.0,7.11008906364e-05,-0.000401828670874,0.0634432584047,0.0,0.0,0.0,0.0,0.0,0.0,0.0,0.0,0.0,0.0,0.0,0.0
103337665440,74,0,honey/haz_cam,-0.000225654192036,5.85103271078e-06,0.000560480577406,nan,nan,nan,0.00102476670872,1.10011224024e-05,-6.06109779255e-07,0.0,0.0,0.0,1.10011224024e-05,0.000192660168977,-2.69092215603e-05,0.0,0.0,0.0,-6.06109779255e-07,-2.69092215603e-05,0.00102350395173,0.0,0.0,0.0,0.0,0.0,0.0,6.45034015179e-05,-0.000411494402215,0.0643564760685,0.0,0.0,0.0,0.0,0.0,0.0,0.0,0.0,0.0,0.0,0.0,0.0
104385286771,75,0,honey/haz_cam,-0.000227201715461,7.96213043941e-06,0.00048970541684,nan,nan,nan,0.00105495960452,1.12690868264e-05,-5.84660426739e-07,0.0,0.0,0.0,1.12690868264e-05,0.000197668850888,-2.75738584605e-05,0.0,0.0,0.0,-5.84660426739e-07,-2.75738584605e-05,0.00105345074553,0.0,0.0,0.0,0.0,0.0,0.0,6.34975731373e-05,-0.000419134623371,0.0652879029512,0.0,0.0,0.0,0.0,0.0,0.0,0.0,0.0,0.0,0.0,0.0,0.0
105352688682,76,0,honey/haz_cam,-0.000305901485262,4.96656648465e-05,0.000505876203533,nan,nan,nan,0.00104924768675,1.11779581857e-05,-6.15644182744e-07,0.0,0.0,0.0,1.11779581857e-05,0.000194738648133,-2.7392155971e-05,0.0,0.0,0.0,-6.15644182744e-07,-2.7392155971e-05,0.00104784744326,0.0,0.0,0.0,0.0,0.0,0.0,5.1986426115e-05,-0.000426685204729,0.0662189349532,0.0,0.0,0.0,0.0,0.0,0.0,0.0,0.0,0.0,0.0,0.0,0.0
106377384536,77,0,honey/haz_cam,-0.000304324028548,1.47032142195e-06,0.000506371143274,nan,nan,nan,0.00107148138341,1.13540700113e-05,-5.43705027667e-07,0.0,0.0,0.0,1.13540700113e-05,0.000198706839001,-2.78517400147e-05,0.0,0.0,0.0,-5.43705027667e-07,-2.78517400147e-05,0.0010701068677,0.0,0.0,0.0,0.0,0.0,0.0,4.76175919175e-05,-0.000431254971772,0.0671678930521,0.0,0.0,0.0,0.0,0.0,0.0,0.0,0.0,0.0,0.0,0.0,0.0
107336919951,78,0,honey/haz_cam,-0.000507984426804,6.68737484375e-05,0.000572687538806,-1.05110157165e-05,-0.000174188724486,7.79465772212e-05,0.00105502805673,1.10463652163e-05,-3.96321951257e-07,0.0,0.0,0.0,1.10463652163e-05,0.000196526059881,-2.71907028946e-05,0.0,0.0,0.0,-3.96321951257e-07,-2.71907028946e-05,0.00105375936255,0.0,0.0,0.0,0.0,0.0,0.0,4.68157231808e-05,-0.000435372348875,0.0681259259582,0.0,0.0,0.0,0.0,0.0,0.0,0.0,0.0,0.0,0.0,0.0,0.0
108375784326,79,0,honey/haz_cam,-0.000459834496723,1.94220083358e-05,0.000531801604666,nan,nan,nan,0.00106535165105,1.10062683234e-05,-3.81420477424e-07,0.0,0.0,0.0,1.10062683234e-05,0.000200673617655,-2.7197833333e-05,0.0,0.0,0.0,-3.81420477424e-07,-2.7197833333e-05,0.00106407457497,0.0,0.0,0.0,0.0,0.0,0.0,3.67416068912e-05,-0.000436996575445,0.0690657496452,0.0,0.0,0.0,0.0,0.0,0.0,0.0,0.0,0.0,0.0,0.0,0.0
109328377713,80,0,honey/haz_cam,-0.000246906041866,-7.27713559172e-05,0.00051846349379,nan,nan,nan,0.00106633105315,1.09803404484e-05,-3.98605351393e-07,0.0,0.0,0.0,1.09803404484e-05,0.000201560324058,-2.70577402262e-05,0.0,0.0,0.0,-3.98605351393e-07,-2.70577402262e-05,0.00106507458258,0.0,0.0,0.0,0.0,0.0,0.0,3.51713970304e-05,-0.000436624046415,0.0700246393681,0.0,0.0,0.0,0.0,0.0,0.0,0.0,0.0,0.0,0.0,0.0,0.0
110352429154,81,0,honey/haz_cam,-0.000173505672137,-1.92566276382e-05,0.000618332822341,nan,nan,nan,0.00102960760705,1.06032393887e-05,-1.54885370307e-07,0.0,0.0,0.0,1.06032393887e-05,0.000196076580323,-2.5930303309e-05,0.0,0.0,0.0,-1.54885370307e-07,-2.5930303309e-05,0.00102848559618,0.0,0.0,0.0,0.0,0.0,0.0,3.82531434298e-05,-0.00043222727254,0.0709774941206,0.0,0.0,0.0,0.0,0.0,0.0,0.0,0.0,0.0,0.0,0.0,0.0
111346858528,82,0,honey/haz_cam,-0.000109617903945,-7.72030034568e-05,0.000561770692002,nan,nan,nan,0.00102027191315,1.04516720967e-05,-1.55155163384e-07,0.0,0.0,0.0,1.04516720967e-05,0.000196634980966,-2.54996411968e-05,0.0,0.0,0.0,-1.55155163384e-07,-2.54996411968e-05,0.00101927423384,0.0,0.0,0.0,0.0,0.0,0.0,3.47448512912e-05,-0.000434298999608,0.0718974173069,0.0,0.0,0.0,0.0,0.0,0.0,0.0,0.0,0.0,0.0,0.0,0.0
112324608597,83,0,honey/haz_cam,-0.000126091996208,-9.13185358513e-05,0.000503408838995,nan,nan,nan,0.00103398354258,1.05346443888e-05,-2.31045049759e-07,0.0,0.0,0.0,1.05346443888e-05,0.000198663648916,-2.57487954514e-05,0.0,0.0,0.0,-2.31045049759e-07,-2.57487954514e-05,0.00103296723682,0.0,0.0,0.0,0.0,0.0,0.0,3.55672091246e-05,-0.000430977903306,0.0728230923414,0.0,0.0,0.0,0.0,0.0,0.0,0.0,0.0,0.0,0.0,0.0,0.0
113358963481,84,0,honey/haz_cam,-0.000372627429897,-7.81694761827e-05,0.000451952801086,nan,nan,nan,0.001068233978,1.08010708573e-05,-2.00339542289e-07,0.0,0.0,0.0,1.08010708573e-05,0.000200572234462,-2.65731978288e-05,0.0,0.0,0.0,-2.00339542289e-07,-2.65731978288e-05,0.00106708402745,0.0,0.0,0.0,0.0,0.0,0.0,3.99202108383e-05,-0.000421862117946,0.0737732499838,0.0,0.0,0.0,0.0,0.0,0.0,0.0,0.0,0.0,0.0,0.0,0.0
114358363475,85,0,honey/haz_cam,-0.000344428932294,-7.25243880879e-05,0.000417420465965,nan,nan,nan,0.00104217848275,1.04637083496e-05,-1.99040030679e-07,0.0,0.0,0.0,1.04637083496e-05,0.000192506442545,-2.59123062278e-05,0.0,0.0,0.0,-1.99040030679e-07,-2.59123062278e-05,0.0010410931427,0.0,0.0,0.0,0.0,0.0,0.0,4.03113663197e-05,-0.00042041670531,0.0747135132551,0.0,0.0,0.0,0.0,0.0,0.0,0.0,0.0,0.0,0.0,0.0,0.0
115375547192,86,0,honey/haz_cam,-0.000333221600158,-7.0020025305e-05,0.000454037304735,nan,nan,nan,0.0010703781154,1.06062734631e-05,-3.51956742861e-07,0.0,0.0,0.0,1.06062734631e-05,0.000198086578166,-2.64470290858e-05,0.0,0.0,0.0,-3.51956742861e-07,-2.64470290858e-05,0.00106930045877,0.0,0.0,0.0,0.0,0.0,0.0,4.80487942696e-05,-0.00041542481631,0.0756622105837,0.0,0.0,0.0,0.0,0.0,0.0,0.0,0.0,0.0,0.0,0.0,0.0
116394672676,87,0,honey/haz_cam,-0.000146210149978,-2.68411695288e-05,0.0003411230864,6.88811924192e-05,-0.000211938022403,5.21200709045e-05,0.00108219869435,1.06734851215e-05,-5.11434109285e-07,0.0,0.0,0.0,1.06734851215e-05,0.000199360976694,-2.65799262706e-05,0.0,0.0,0.0,-5.11434109285e-07,-2.65799262706e-05,0.00108108809218,0.0,0.0,0.0,0.0,0.0,0.0,5.93364238739e-05,-0.000407598912716,0.0766354650259,0.0,0.0,0.0,0.0,0.0,0.0,0.0,0.0,0.0,0.0,0.0,0.0
117328665971,88,0,honey/haz_cam,-0.000294191035209,-4.53850771009e-05,0.000458792579593,nan,nan,nan,0.00106084311847,1.04252758319e-05,-4.55833173874e-07,0.0,0.0,0.0,1.04252758319e-05,0.000197182511329,-2.58435266005e-05,0.0,0.0,0.0,-4.55833173874e-07,-2.58435266005e-05,0.00106003310066,0.0,0.0,0.0,0.0,0.0,0.0,6.6630076617e-05,-0.000402698293328,0.0776128917933,0.0,0.0,0.0,0.0,0.0,0.0,0.0,0.0,0.0,0.0,0.0,0.0
118354737887,89,0,honey/haz_cam,-0.000277161831036,-6.79070071783e-05,0.000422463170253,nan,nan,nan,0.00103818252683,1.00596716948e-05,-3.84377955243e-07,0.0,0.0,0.0,1.00596716948e-05,0.000196487337234,-2.50635621342e-05,0.0,0.0,0.0,-3.84377955243e-07,-2.50635621342e-05,0.00103749509435,0.0,0.0,0.0,0.0,0.0,0.0,7.10072927177e-05,-0.000400204211473,0.0785608738661,0.0,0.0,0.0,0.0,0.0,0.0,0.0,0.0,0.0,0.0,0.0,0.0
119401313175,90,0,honey/haz_cam,-0.000242407608312,-5.26652947883e-05,0.000420257973019,nan,nan,nan,0.00104705488775,1.00618517536e-05,-4.38891731847e-07,0.0,0.0,0.0,1.00618517536e-05,0.000200263413717,-2.50719076575e-05,0.0,0.0,0.0,-4.38891731847e-07,-2.50719076575e-05,0.00104635069147,0.0,0.0,0.0,0.0,0.0,0.0,8.06734897196e-05,-0.000397812575102,0.0795059651136,0.0,0.0,0.0,0.0,0.0,0.0,0.0,0.0,0.0,0.0,0.0,0.0
120345785562,91,0,honey/haz_cam,-0.000153542801854,-4.25645703217e-05,0.000418251642259,nan,nan,nan,0.00106374034658,1.01957457446e-05,-5.33663239821e-07,0.0,0.0,0.0,1.01957457446e-05,0.000201565067982,-2.53888065345e-05,0.0,0.0,0.0,-5.33663239821e-07,-2.53888065345e-05,0.00106286851224,0.0,0.0,0.0,0.0,0.0,0.0,9.63320489973e-05,-0.000393833965063,0.080462872982,0.0,0.0,0.0,0.0,0.0,0.0,0.0,0.0,0.0,0.0,0.0,0.0
121344659143,92,0,honey/haz_cam,-5.02260045323e-05,1.91326416825e-05,0.000400770863052,nan,nan,nan,0.00106690451503,1.02613939816e-05,-5.51557945982e-07,0.0,0.0,0.0,1.02613939816e-05,0.000199873073143,-2.53762736975e-05,0.0,0.0,0.0,-5.51557945982e-07,-2.53762736975e-05,0.00106595829129,0.0,0.0,0.0,0.0,0.0,0.0,0.00011639209697,-0.000390239059925,0.0814301595092,0.0,0.0,0.0,0.0,0.0,0.0,0.0,0.0,0.0,0.0,0.0,0.0
122351823691,93,0,honey/haz_cam,-4.32766910308e-06,2.36481828324e-05,0.000395253911847,nan,nan,nan,0.00103952712379,9.94944366539e-06,-4.95682002111e-07,0.0,0.0,0.0,9.94944366539e-06,0.000194902648218,-2.45951196121e-05,0.0,0.0,0.0,-4.95682002111e-07,-2.45951196121e-05,0.00103869498707,0.0,0.0,0.0,0.0,0.0,0.0,0.000131159991724,-0.000391991809011,0.0823860317469,0.0,0.0,0.0,0.0,0.0,0.0,0.0,0.0,0.0,0.0,0.0,0.0
123342235080,94,0,honey/haz_cam,-3.72913636966e-05,1.36234402817e-05,0.000407720770454,nan,nan,nan,0.00101534370333,9.6556113931e-06,-4.4207109795e-07,0.0,0.0,0.0,9.6556113931e-06,0.000192303341464,-2.38445281866e-05,0.0,0.0,0.0,-4.4207109795e-07,-2.38445281866e-05,0.00101450795773,0.0,0.0,0.0,0.0,0.0,0.0,0.000140170333907,-0.000397514551878,0.0833092480898,0.0,0.0,0.0,0.0,0.0,0.0,0.0,0.0,0.0,0.0,0.0,0.0
124378742065,95,0,honey/haz_cam,-3.36969205819e-05,5.23984672327e-05,0.000176673522219,nan,nan,nan,0.00106974889059,1.01090590761e-05,-7.04397962181e-07,0.0,0.0,0.0,1.01090590761e-05,0.000202139053727,-2.49927525147e-05,0.0,0.0,0.0,-7.04397962181e-07,-2.49927525147e-05,0.00106874865014,0.0,0.0,0.0,0.0,0.0,0.0,0.000161331379786,-0.000399466603994,0.0842549949884,0.0,0.0,0.0,0.0,0.0,0.0,0.0,0.0,0.0,0.0,0.0,0.0
125338170169,96,0,honey/haz_cam,-0.000198970650672,-1.12754487418e-05,0.000232862366829,nan,nan,nan,0.00105965335388,9.9336330095e-06,-6.2695073666e-07,0.0,0.0,0.0,9.9336330095e-06,0.000196439534193,-2.47757798206e-05,0.0,0.0,0.0,-6.2695073666e-07,-2.47757798206e-05,0.00105868279934,0.0,0.0,0.0,0.0,0.0,0.0,0.000167072052136,-0.000413814559579,0.0852310210466,0.0,0.0,0.0,0.0,0.0,0.0,0.0,0.0,0.0,0.0,0.0,0.0
126372643196,97,0,honey/haz_cam,-0.000162532116519,-1.7948439563e-05,0.000205681630177,nan,nan,nan,0.00105674040969,9.75178772933e-06,-6.09710411936e-07,0.0,0.0,0.0,9.75178772933e-06,0.000195939297555,-2.4601304176e-05,0.0,0.0,0.0,-6.09710411936e-07,-2.4601304176e-05,0.00105583330151,0.0,0.0,0.0,0.0,0.0,0.0,0.000180342234671,-0.00042299926281,0.0861883610487,0.0,0.0,0.0,0.0,0.0,0.0,0.0,0.0,0.0,0.0,0.0,0.0
127346234279,98,0,honey/haz_cam,-0.000114060771011,4.81758479509e-06,0.000422729819547,nan,nan,nan,0.00105374550913,9.677687558e-06,-5.89793785366e-07,0.0,0.0,0.0,9.677687558e-06,0.000196457243874,-2.43117810896e-05,0.0,0.0,0.0,-5.89793785366e-07,-2.43117810896e-05,0.00105279625859,0.0,0.0,0.0,0.0,0.0,0.0,0.00019467715174,-0.000431530177593,0.087138839066,0.0,0.0,0.0,0.0,0.0,0.0,0.0,0.0,0.0,0.0,0.0,0.0
128396202275,99,0,honey/haz_cam,-0.000237264292082,-2.03616364161e-05,0.000341477891197,nan,nan,nan,0.00106184615288,9.66358675214e-06,-5.63216303817e-07,0.0,0.0,0.0,9.66358675214e-06,0.000198731548153,-2.42833521042e-05,0.0,0.0,0.0,-5.63216303817e-07,-2.42833521042e-05,0.00106088444591,0.0,0.0,0.0,0.0,0.0,0.0,0.000201923539862,-0.000447881408036,0.0881121307611,0.0,0.0,0.0,0.0,0.0,0.0,0.0,0.0,0.0,0.0,0.0,0.0
129386889317,100,0,honey/haz_cam,-0.000256278493907,-2.42990317929e-05,0.000466186378617,nan,nan,nan,0.00103103055153,9.27179917198e-06,-4.22056785965e-07,0.0,0.0,0.0,9.27179917198e-06,0.000193686020793,-2.34089347941e-05,0.0,0.0,0.0,-4.22056785965e-07,-2.34089347941e-05,0.00103009038139,0.0,0.0,0.0,0.0,0.0,0.0,0.000209463993087,-0.000462957192212,0.0890657603741,0.0,0.0,0.0,0.0,0.0,0.0,0.0,0.0,0.0,0.0,0.0,0.0
130365491341,101,0,honey/haz_cam,-0.000217431574129,-1.5390273802e-06,0.000686428684276,nan,nan,nan,0.00102019566111,9.0796229415e-06,-4.21140612161e-07,0.0,0.0,0.0,9.0796229415e-06,0.000193838539417,-2.29191828112e-05,0.0,0.0,0.0,-4.21140612161e-07,-2.29191828112e-05,0.00101933581755,0.0,0.0,0.0,0.0,0.0,0.0,0.000223495881073,-0.000474302563816,0.0899973064661,0.0,0.0,0.0,0.0,0.0,0.0,0.0,0.0,0.0,0.0,0.0,0.0
131375114533,102,0,honey/haz_cam,-0.000133921435918,2.88896335405e-05,0.000594402139541,nan,nan,nan,0.00101825455204,9.03979525901e-06,-3.77954535224e-07,0.0,0.0,0.0,9.03979525901e-06,0.000194032472791,-2.2710986741e-05,0.0,0.0,0.0,-3.77954535224e-07,-2.2710986741e-05,0.00101739109959,0.0,0.0,0.0,0.0,0.0,0.0,0.000226462783758,-0.000490978418384,0.0909295380116,0.0,0.0,0.0,0.0,0.0,0.0,0.0,0.0,0.0,0.0,0.0,0.0
132411348016,103,0,honey/haz_cam,-6.22227817075e-05,-2.90320076601e-05,0.000658618286252,nan,nan,nan,0.00106396363117,9.44616294873e-06,-3.60972535418e-07,0.0,0.0,0.0,9.44616294873e-06,0.000199810019694,-2.35982606682e-05,0.0,0.0,0.0,-3.60972535418e-07,-2.35982606682e-05,0.00106295745354,0.0,0.0,0.0,0.0,0.0,0.0,0.000223272538278,-0.000514387094881,0.0919109284878,0.0,0.0,0.0,0.0,0.0,0.0,0.0,0.0,0.0,0.0,0.0,0.0
133356833222,104,0,honey/haz_cam,-3.45271728293e-05,-0.000108781416202,0.000616053119302,nan,nan,nan,0.00102688872721,9.10039034352e-06,-2.52925389077e-07,0.0,0.0,0.0,9.10039034352e-06,0.000189901489648,-2.26648826356e-05,0.0,0.0,0.0,-2.52925389077e-07,-2.26648826356e-05,0.00102589942981,0.0,0.0,0.0,0.0,0.0,0.0,0.000224883668125,-0.000532673439011,0.0928650945425,0.0,0.0,0.0,0.0,0.0,0.0,0.0,0.0,0.0,0.0,0.0,0.0
134380046351,105,0,honey/haz_cam,-0.000161425617989,-0.000148601568071,0.000621347280685,nan,nan,nan,0.00106245197821,9.31797421799e-06,-3.77612224156e-07,0.0,0.0,0.0,9.31797421799e-06,0.00019756812253,-2.32236361626e-05,0.0,0.0,0.0,-3.77612224156e-07,-2.32236361626e-05,0.00106148980558,0.0,0.0,0.0,0.0,0.0,0.0,0.000231385231018,-0.000548427924514,0.0938357710838,0.0,0.0,0.0,0.0,0.0,0.0,0.0,0.0,0.0,0.0,0.0,0.0
135367697814,106,0,honey/haz_cam,-0.000282524735667,-2.72041288554e-05,0.000650794710964,nan,nan,nan,0.00105486251414,9.1100755526e-06,-4.7056579433e-07,0.0,0.0,0.0,9.1100755526e-06,0.000195673375856,-2.28860953939e-05,0.0,0.0,0.0,-4.7056579433e-07,-2.28860953939e-05,0.00105384062044,0.0,0.0,0.0,0.0,0.0,0.0,0.000223357230425,-0.000567508395761,0.0948168039322,0.0,0.0,0.0,0.0,0.0,0.0,0.0,0.0,0.0,0.0,0.0,0.0
136357574803,107,0,honey/haz_cam,-0.000337099743774,-4.71402163384e-05,0.000677951378748,nan,nan,nan,0.0010089231655,8.59762258187e-06,-3.99416222763e-07,0.0,0.0,0.0,8.59762258187e-06,0.000188977108337,-2.17607139348e-05,0.0,0.0,0.0,-3.99416222763e-07,-2.17607139348e-05,0.00100803060923,0.0,0.0,0.0,0.0,0.0,0.0,0.000218410044909,-0.000586376525462,0.0957883894444,0.0,0.0,0.0,0.0,0.0,0.0,0.0,0.0,0.0,0.0,0.0,0.0
137416962412,108,0,honey/haz_cam,-0.000362314633094,3.8410507841e-06,0.000794389809016,nan,nan,nan,0.00101984245703,8.5283527369e-06,-4.39253824425e-07,0.0,0.0,0.0,8.5283527369e-06,0.000194897467736,-2.17060769501e-05,0.0,0.0,0.0,-4.39253824425e-07,-2.17060769501e-05,0.00101886468474,0.0,0.0,0.0,0.0,0.0,0.0,0.000206340104342,-0.000604510772973,0.0967308953404,0.0,0.0,0.0,0.0,0.0,0.0,0.0,0.0,0.0,0.0,0.0,0.0
138350846222,109,0,honey/haz_cam,-0.000391251669498,-2.76519513136e-05,0.000758881447837,nan,nan,nan,0.00101124402136,8.38329015096e-06,-4.8059018809e-07,0.0,0.0,0.0,8.38329015096e-06,0.000192946725292,-2.13554230868e-05,0.0,0.0,0.0,-4.8059018809e-07,-2.13554230868e-05,0.00101031770464,0.0,0.0,0.0,0.0,0.0,0.0,0.000199146568775,-0.00061871483922,0.0976861715317,0.0,0.0,0.0,0.0,0.0,0.0,0.0,0.0,0.0,0.0,0.0,0.0
139388564971,110,0,honey/haz_cam,-0.000461243907921,-5.32524354639e-05,0.000706665683538,nan,nan,nan,0.00102900597267,8.43408997753e-06,-5.30828117462e-07,0.0,0.0,0.0,8.43408997753e-06,0.000195061642444,-2.1618203391e-05,0.0,0.0,0.0,-5.30828117462e-07,-2.1618203391e-05,0.0010281840805,0.0,0.0,0.0,0.0,0.0,0.0,0.000189946964383,-0.000629466027021,0.0986577942967,0.0,0.0,0.0,0.0,0.0,0.0,0.0,0.0,0.0,0.0,0.0,0.0
140392284054,111,0,honey/haz_cam,-0.000676626921631,-0.00010024925723,0.000742569449358,nan,nan,nan,0.00102440884802,8.27350322652e-06,-4.37897853089e-07,0.0,0.0,0.0,8.27350322652e-06,0.000191786617506,-2.14462106669e-05,0.0,0.0,0.0,-4.37897853089e-07,-2.14462106669e-05,0.0010235933587,0.0,0.0,0.0,0.0,0.0,0.0,0.000177126377821,-0.000640883576125,0.0996476113796,0.0,0.0,0.0,0.0,0.0,0.0,0.0,0.0,0.0,0.0,0.0,0.0
141354151915,112,0,honey/haz_cam,-0.00052106869407,-8.30445278552e-05,0.000627721077763,nan,nan,nan,0.00105800619349,8.3955919763e-06,-5.84560154948e-07,0.0,0.0,0.0,8.3955919763e-06,0.000196330642211,-2.20071706281e-05,0.0,0.0,0.0,-5.84560154948e-07,-2.20071706281e-05,0.00105730083305,0.0,0.0,0.0,0.0,0.0,0.0,0.000168910250068,-0.000647256383672,0.100621454418,0.0,0.0,0.0,0.0,0.0,0.0,0.0,0.0,0.0,0.0,0.0,0.0
142379500304,113,0,honey/haz_cam,-0.000513865321409,-5.87608774367e-05,0.000615719123743,nan,nan,nan,0.00106514804065,8.35025730339e-06,-6.03867817972e-07,0.0,0.0,0.0,8.35025730339e-06,0.000196076929569,-2.20781403186e-05,0.0,0.0,0.0,-6.03867817972e-07,-2.20781403186e-05,0.00106457935181,0.0,0.0,0.0,0.0,0.0,0.0,0.000163402408361,-0.000649570138194,0.101656779647,0.0,0.0,0.0,0.0,0.0,0.0,0.0,0.0,0.0,0.0,0.0,0.0
143371863216,114,0,honey/haz_cam,-0.000386998552131,-4.00300668844e-05,0.000608491944149,nan,nan,nan,0.00104952708352,8.16934061731e-06,-5.63914397844e-07,0.0,0.0,0.0,8.16934061731e-06,0.000195107451873,-2.15717354877e-05,0.0,0.0,0.0,-5.63914397844e-07,-2.15717354877e-05,0.00104896607809,0.0,0.0,0.0,0.0,0.0,0.0,0.000156864523888,-0.000650645699352,0.102681472898,0.0,0.0,0.0,0.0,0.0,0.0,0.0,0.0,0.0,0.0,0.0,0.0
144366527932,115,0,honey/haz_cam,-0.000294901925372,-5.20312059962e-05,0.00053099548677,nan,nan,nan,0.00103625713382,8.03003513283e-06,-5.95974029238e-07,0.0,0.0,0.0,8.03003513283e-06,0.000196118169697,-2.11223941733e-05,0.0,0.0,0.0,-5.95974029238e-07,-2.11223941733e-05,0.00103584479075,0.0,0.0,0.0,0.0,0.0,0.0,0.000145375728607,-0.00064928480424,0.103666551411,0.0,0.0,0.0,0.0,0.0,0.0,0.0,0.0,0.0,0.0,0.0,0.0
145337668397,116,0,honey/haz_cam,-0.000247698888415,-3.63935323549e-05,0.000553167425096,nan,nan,nan,0.00105504668318,8.05920171842e-06,-5.9531299712e-07,0.0,0.0,0.0,8.05920171842e-06,0.0002010971657,-2.13486237044e-05,0.0,0.0,0.0,-5.9531299712e-07,-2.13486237044e-05,0.00105452199932,0.0,0.0,0.0,0.0,0.0,0.0,0.000142075121403,-0.00064466195181,0.104701891541,0.0,0.0,0.0,0.0,0.0,0.0,0.0,0.0,0.0,0.0,0.0,0.0
146345494102,117,0,honey/haz_cam,-0.000255479710177,-2.52953213931e-05,0.000527609721757,nan,nan,nan,0.00105049018748,8.0506742961e-06,-6.70431006711e-07,0.0,0.0,0.0,8.0506742961e-06,0.000199244401301,-2.11444366869e-05,0.0,0.0,0.0,-6.70431006711e-07,-2.11444366869e-05,0.0010498262709,0.0,0.0,0.0,0.0,0.0,0.0,0.000132651999593,-0.000643507577479,0.105716437101,0.0,0.0,0.0,0.0,0.0,0.0,0.0,0.0,0.0,0.0,0.0,0.0
147364984944,118,0,honey/haz_cam,-0.00020757659513,-1.65855053638e-05,0.000491799495649,nan,nan,nan,0.00106536678504,8.1285570559e-06,-6.44909334824e-07,0.0,0.0,0.0,8.1285570559e-06,0.000201088740141,-2.13191178773e-05,0.0,0.0,0.0,-6.44909334824e-07,-2.13191178773e-05,0.00106456782669,0.0,0.0,0.0,0.0,0.0,0.0,0.000129843130708,-0.000634531490505,0.106749668717,0.0,0.0,0.0,0.0,0.0,0.0,0.0,0.0,0.0,0.0,0.0,0.0
148334590544,119,0,honey/haz_cam,-0.000344045460224,-3.51427079295e-05,0.000506021548063,nan,nan,nan,0.00103316898458,7.79444872023e-06,-4.84285635594e-07,0.0,0.0,0.0,7.79444872023e-06,0.000194831096451,-2.05584110518e-05,0.0,0.0,0.0,-4.84285635594e-07,-2.05584110518e-05,0.00103248504456,0.0,0.0,0.0,0.0,0.0,0.0,0.000133810564876,-0.000622876919806,0.107757776976,0.0,0.0,0.0,0.0,0.0,0.0,0.0,0.0,0.0,0.0,0.0,0.0
149344850494,120,0,honey/haz_cam,-0.000248738448136,-2.62467001448e-05,0.00052480812883,nan,nan,nan,0.00102017750032,7.62592662795e-06,-4.52708746934e-07,0.0,0.0,0.0,7.62592662795e-06,0.000194206440938,-2.01397288038e-05,0.0,0.0,0.0,-4.52708746934e-07,-2.01397288038e-05,0.00101955072023,0.0,0.0,0.0,0.0,0.0,0.0,0.000132692977786,-0.000616816803813,0.108727574348,0.0,0.0,0.0,0.0,0.0,0.0,0.0,0.0,0.0,0.0,0.0,0.0
150361462943,121,0,honey/haz_cam,-0.000120980410429,2.28422977671e-05,0.00057511322666,nan,nan,nan,0.0010229194304,7.65044478612e-06,-4.05420024663e-07,0.0,0.0,0.0,7.65044478612e-06,0.000195087792235,-2.00840095204e-05,0.0,0.0,0.0,-4.05420024663e-07,-2.00840095204e-05,0.00102232873905,0.0,0.0,0.0,0.0,0.0,0.0,0.000148210674524,-0.000600708648562,0.109713822603,0.0,0.0,0.0,0.0,0.0,0.0,0.0,0.0,0.0,0.0,0.0,0.0
151348752758,122,0,honey/haz_cam,0.000126896193251,4.92239596497e-05,0.000495578802656,nan,nan,nan,0.00106098141987,8.01935857453e-06,-5.5392234799e-07,0.0,0.0,0.0,8.01935857453e-06,0.00019921202329,-2.07491102628e-05,0.0,0.0,0.0,-5.5392234799e-07,-2.07491102628e-05,0.00106029678136,0.0,0.0,0.0,0.0,0.0,0.0,0.000152129679918,-0.00059438124299,0.110713347793,0.0,0.0,0.0,0.0,0.0,0.0,0.0,0.0,0.0,0.0,0.0,0.0
152334250901,123,0,honey/haz_cam,-2.11857550312e-05,-7.02058750903e-05,0.000318289734423,nan,nan,nan,0.00107532832772,8.20052719064e-06,-7.12799646863e-07,0.0,0.0,0.0,8.20052719064e-06,0.000197250337806,-2.10856778722e-05,0.0,0.0,0.0,-7.12799646863e-07,-2.10856778722e-05,0.00107474881224,0.0,0.0,0.0,0.0,0.0,0.0,0.000164499506354,-0.000581515952945,0.111733809114,0.0,0.0,0.0,0.0,0.0,0.0,0.0,0.0,0.0,0.0,0.0,0.0
153411181617,124,0,honey/haz_cam,-7.57835659897e-05,-8.89116126928e-05,0.000285607820842,nan,nan,nan,0.00103896576911,7.84631811257e-06,-6.59381953483e-07,0.0,0.0,0.0,7.84631811257e-06,0.000190448801732,-2.03207619052e-05,0.0,0.0,0.0,-6.59381953483e-07,-2.03207619052e-05,0.00103840080556,0.0,0.0,0.0,0.0,0.0,0.0,0.000188042409718,-0.000565866008401,0.112746477127,0.0,0.0,0.0,0.0,0.0,0.0,0.0,0.0,0.0,0.0,0.0,0.0
154342413691,125,0,honey/haz_cam,-0.000187433688552,-1.23017653095e-05,0.000221955226152,nan,nan,nan,0.00103424757253,7.64944525145e-06,-7.39087226975e-07,0.0,0.0,0.0,7.64944525145e-06,0.000193245141418,-2.00327176572e-05,0.0,0.0,0.0,-7.39087226975e-07,-2.00327176572e-05,0.00103369378485,0.0,0.0,0.0,0.0,0.0,0.0,0.000192173756659,-0.000566184520721,0.113725140691,0.0,0.0,0.0,0.0,0.0,0.0,0.0,0.0,0.0,0.0,0.0,0.0
155354888848,126,0,honey/haz_cam,-0.000259041786194,-2.43394733843e-05,0.00029367240495,nan,nan,nan,0.00101671053562,7.37663958716e-06,-6.03128853527e-07,0.0,0.0,0.0,7.37663958716e-06,0.000191917657503,-1.9551236619e-05,0.0,0.0,0.0,-6.03128853527e-07,-1.9551236619e-05,0.00101616233587,0.0,0.0,0.0,0.0,0.0,0.0,0.000221855472773,-0.000553838908672,0.114717192948,0.0,0.0,0.0,0.0,0.0,0.0,0.0,0.0,0.0,0.0,0.0,0.0
156312854150,127,0,honey/haz_cam,-0.000383393955417,2.67648283625e-05,0.000503920542542,nan,nan,nan,0.00104085274506,7.37427853892e-06,-5.43357430161e-07,0.0,0.0,0.0,7.37427853892e-06,0.000197115863557,-1.97705794562e-05,0.0,0.0,0.0,-5.43357430161e-07,-1.97705794562e-05,0.00104029092472,0.0,0.0,0.0,0.0,0.0,0.0,0.000246376730502,-0.000545917078853,0.115709915757,0.0,0.0,0.0,0.0,0.0,0.0,0.0,0.0,0.0,0.0,0.0,0.0
157341679338,128,0,honey/haz_cam,-0.000346029584762,-6.71984253131e-06,0.000490473699756,nan,nan,nan,0.00107893964741,7.53250560592e-06,-6.16898660155e-07,0.0,0.0,0.0,7.53250560592e-06,0.000200111127924,-2.03669169423e-05,0.0,0.0,0.0,-6.16898660155e-07,-2.03669169423e-05,0.00107840984128,0.0,0.0,0.0,0.0,0.0,0.0,0.000259765307419,-0.000546745955944,0.116744443774,0.0,0.0,0.0,0.0,0.0,0.0,0.0,0.0,0.0,0.0,0.0,0.0
158362273791,129,0,honey/haz_cam,-0.000349465408362,-3.01873806166e-05,0.000505434640218,nan,nan,nan,0.0010466609383,7.2523007475e-06,-5.1397836387e-07,0.0,0.0,0.0,7.2523007475e-06,0.000193329135072,-1.96173732547e-05,0.0,0.0,0.0,-5.1397836387e-07,-1.96173732547e-05,0.00104614207521,0.0,0.0,0.0,0.0,0.0,0.0,0.000290412455797,-0.000541081652045,0.117775529623,0.0,0.0,0.0,0.0,0.0,0.0,0.0,0.0,0.0,0.0,0.0,0.0
159340766929,130,0,honey/haz_cam,-0.000349288602592,-7.22760305507e-05,0.000461893097963,nan,nan,nan,0.00105192582123,7.18690353096e-06,-5.57025202852e-07,0.0,0.0,0.0,7.18690353096e-06,0.000197607427253,-1.95065113076e-05,0.0,0.0,0.0,-5.57025202852e-07,-1.95065113076e-05,0.00105128437281,0.0,0.0,0.0,0.0,0.0,0.0,0.000310594215989,-0.000543678179383,0.118790797889,0.0,0.0,0.0,0.0,0.0,0.0,0.0,0.0,0.0,0.0,0.0,0.0
160347722749,131,0,honey/haz_cam,-0.000369596993551,-6.96614151821e-05,0.000573981262278,nan,nan,nan,0.00104137207381,7.03697196514e-06,-5.12319729751e-07,0.0,0.0,0.0,7.03697196514e-06,0.000197315806872,-1.91722319869e-05,0.0,0.0,0.0,-5.12319729751e-07,-1.91722319869e-05,0.00104051374365,0.0,0.0,0.0,0.0,0.0,0.0,0.000335341086611,-0.000546494498849,0.119818121195,0.0,0.0,0.0,0.0,0.0,0.0,0.0,0.0,0.0,0.0,0.0,0.0
161368642831,132,0,honey/haz_cam,-0.000360763107892,-8.47388873808e-05,0.000515245192219,nan,nan,nan,0.00104411807843,6.9185321081e-06,-7.06922776317e-07,0.0,0.0,0.0,6.9185321081e-06,0.000198678390007,-1.90063037735e-05,0.0,0.0,0.0,-7.06922776317e-07,-1.90063037735e-05,0.00104338524397,0.0,0.0,0.0,0.0,0.0,0.0,0.000341094564646,-0.00056060962379,0.120803207159,0.0,0.0,0.0,0.0,0.0,0.0,0.0,0.0,0.0,0.0,0.0,0.0
162357574079,133,0,honey/haz_cam,-0.000407076906413,-2.13726725633e-05,0.000648239161819,nan,nan,nan,0.00106238434091,6.91352488502e-06,-7.98470864538e-07,0.0,0.0,0.0,6.91352488502e-06,0.000200652677449,-1.91855542653e-05,0.0,0.0,0.0,-7.98470864538e-07,-1.91855542653e-05,0.00106153113302,0.0,0.0,0.0,0.0,0.0,0.0,0.000362637918442,-0.000573825091124,0.121838659048,0.0,0.0,0.0,0.0,0.0,0.0,0.0,0.0,0.0,0.0,0.0,0.0
163338822669,134,0,honey/haz_cam,-0.000520701345522,7.69234757172e-05,0.000700158183463,nan,nan,nan,0.00107676733751,6.8909039328e-06,-9.40393420024e-07,0.0,0.0,0.0,6.8909039328e-06,0.000200741618755,-1.9302337023e-05,0.0,0.0,0.0,-9.40393420024e-07,-1.9302337023e-05,0.00107555487193,0.0,0.0,0.0,0.0,0.0,0.0,0.000391120556742,-0.000580365769565,0.122879266739,0.0,0.0,0.0,0.0,0.0,0.0,0.0,0.0,0.0,0.0,0.0,0.0
164353181923,135,0,honey/haz_cam,-0.000487240875373,0.000162090698723,0.000739334733225,nan,nan,nan,0.00107394147199,6.7569062594e-06,-8.21390131023e-07,0.0,0.0,0.0,6.7569062594e-06,0.000199661415536,-1.89986312762e-05,0.0,0.0,0.0,-8.21390131023e-07,-1.89986312762e-05,0.00107283331454,0.0,0.0,0.0,0.0,0.0,0.0,0.000387028325349,-0.000603465363383,0.123936325312,0.0,0.0,0.0,0.0,0.0,0.0,0.0,0.0,0.0,0.0,0.0,0.0
165334528276,136,0,honey/haz_cam,-0.000400465622079,4.88947225676e-05,0.000731515523512,nan,nan,nan,0.00106273184065,6.62501315674e-06,-6.34787966192e-07,0.0,0.0,0.0,6.62501315674e-06,0.000199065980269,-1.86004235729e-05,0.0,0.0,0.0,-6.34787966192e-07,-1.86004235729e-05,0.00106184382457,0.0,0.0,0.0,0.0,0.0,0.0,0.000392955262214,-0.000621089246124,0.124970555305,0.0,0.0,0.0,0.0,0.0,0.0,0.0,0.0,0.0,0.0,0.0,0.0
166354425438,137,0,honey/haz_cam,-0.000271929777227,-8.80804509507e-05,0.000658074568491,nan,nan,nan,0.00104284298141,6.49066623737e-06,-6.55426106277e-07,0.0,0.0,0.0,6.49066623737e-06,0.000197186440346,-1.81328650797e-05,0.0,0.0,0.0,-6.55426106277e-07,-1.81328650797e-05,0.00104200770147,0.0,0.0,0.0,0.0,0.0,0.0,0.000404899707064,-0.000634502619505,0.125975757837,0.0,0.0,0.0,0.0,0.0,0.0,0.0,0.0,0.0,0.0,0.0,0.0
167335649080,138,0,honey/haz_cam,-0.000175512221176,-0.000180690549314,0.000544258917216,nan,nan,nan,0.001046052319,6.53887809676e-06,-5.98007318331e-07,0.0,0.0,0.0,6.53887809676e-06,0.000198865600396,-1.80585830094e-05,0.0,0.0,0.0,-5.98007318331e-07,-1.80585830094e-05,0.00104537419975,0.0,0.0,0.0,0.0,0.0,0.0,0.000400108285248,-0.000659310957417,0.126990571618,0.0,0.0,0.0,0.0,0.0,0.0,0.0,0.0,0.0,0.0,0.0,0.0
168316706643,139,0,honey/haz_cam,-0.000206857221201,-0.000136927395943,0.000547933857888,nan,nan,nan,0.00108144397382,6.74461762173e-06,-5.98205588176e-07,0.0,0.0,0.0,6.74461762173e-06,0.000202530733077,-1.85775916179e-05,0.0,0.0,0.0,-5.98205588176e-07,-1.85775916179e-05,0.00108098005876,0.0,0.0,0.0,0.0,0.0,0.0,0.000395913724788,-0.000681910198182,0.128037691116,0.0,0.0,0.0,0.0,0.0,0.0,0.0,0.0,0.0,0.0,0.0,0.0
169392671010,140,0,honey/haz_cam,-0.000305245543132,2.44963030127e-06,0.000654009461869,nan,nan,nan,0.00106772885192,6.55993517285e-06,-6.01958049629e-07,0.0,0.0,0.0,6.55993517285e-06,0.000197242115973,-1.82290732482e-05,0.0,0.0,0.0,-6.01958049629e-07,-1.82290732482e-05,0.00106712570414,0.0,0.0,0.0,0.0,0.0,0.0,0.00040997331962,-0.000692673493177,0.129084289074,0.0,0.0,0.0,0.0,0.0,0.0,0.0,0.0,0.0,0.0,0.0,0.0
170324573197,141,0,honey/haz_cam,-0.00031615034095,-6.90912247592e-06,0.000674481270835,nan,nan,nan,0.00102356402203,6.19895990894e-06,-5.91597768107e-07,0.0,0.0,0.0,6.19895990894e-06,0.000190150589333,-1.72938325704e-05,0.0,0.0,0.0,-5.91597768107e-07,-1.72938325704e-05,0.00102300406434,0.0,0.0,0.0,0.0,0.0,0.0,0.000399990472943,-0.000711574684829,0.130110919476,0.0,0.0,0.0,0.0,0.0,0.0,0.0,0.0,0.0,0.0,0.0,0.0
