%time,field.header.seq,field.header.stamp,field.header.frame_id,field.pose.position.x,field.pose.position.y,field.pose.position.z,field.pose.orientation.x,field.pose.orientation.y,field.pose.orientation.z,field.pose.orientation.w
27584977519,1710,27592000000,world,10.8999690439,-8.64999968524,4.89999676508,-5.0667503117e-05,2.20434754497e-05,0.707139653547,0.707073905139
27605327023,1711,27608000000,world,10.8999691644,-8.64999954502,4.89999663194,-5.08402655457e-05,2.23963429137e-05,0.707139313353,0.707074245341
27615495609,1712,27624000000,world,10.8999692847,-8.64999943026,4.89999652472,-5.1017005403e-05,2.27545586382e-05,0.707138973235,0.707074585466
27635658744,1713,27640000000,world,10.8999694003,-8.64999932743,4.89999642925,-5.12059593432e-05,2.31231133558e-05,0.707138636748,0.707074921957
27655818448,1714,27656000000,world,10.8999693233,-8.64999938776,4.8999964842,-5.12844489682e-05,2.32731971664e-05,0.707138476748,0.707075081962
27665873734,1715,27672000000,world,10.8999694204,-8.64999930187,4.8999964043,-5.14313300427e-05,2.35974441004e-05,0.707138150495,0.707075408222
27696043356,1716,27688000000,world,10.8999696776,-8.64999909911,4.89999621895,-5.16816390804e-05,2.41292068599e-05,0.707137670925,0.707075887798
27716157039,1717,27704000000,world,10.8999697163,-8.64999905856,4.89999617897,-5.18276197084e-05,2.44438102619e-05,0.707137369873,0.707076188855
27726218968,1718,27720000000,world,10.8999696883,-8.64999905512,4.89999616846,-5.19686594352e-05,2.4725319087e-05,0.707137078566,0.707076480167
27726218968,1719,27736000000,world,10.8999695783,-8.64999909637,4.89999619364,-5.21267033842e-05,2.49811580381e-05,0.707136793747,0.707076764989
27746458410,1720,27752000000,world,10.8999694012,-8.64999919161,4.89999626962,-5.22822482254e-05,2.51858879826e-05,0.70713651245,0.707077046291
27766703743,1721,27768000000,world,10.8999692526,-8.64999934004,4.89999641521,-5.24288549959e-05,2.53504681388e-05,0.707136229073,0.707077329675
27776760605,1722,27784000000,world,10.8999692059,-8.6499995465,4.89999665452,-5.24807746148e-05,2.54032565986e-05,0.707136085756,0.707077472999
27796875197,1723,27800000000,world,10.8999692282,-8.64999968586,4.89999682824,-5.26482014877e-05,2.55657285799e-05,0.70713579326,0.707077765501
27816993662,1724,27816000000,world,10.8999692697,-8.64999978783,4.89999696131,-5.28304227446e-05,2.57153446083e-05,0.707135499507,0.707078059259
27847202693,1725,27840000000,world,10.8999693129,-8.64999987837,4.8999970797,-5.31563852986e-05,2.58813680602e-05,0.707134912291,0.707078646492
27847202693,1726,27848000000,world,10.8999692056,-8.64999978328,4.89999694239,-5.32860782473e-05,2.59387450415e-05,0.707134770816,0.707078787965
27867564914,1727,27864000000,world,10.8999691754,-8.64999976977,4.89999692043,-5.34776236403e-05,2.59970057363e-05,0.707134480806,0.707079077982
27877653507,1728,27880000000,world,10.8999691378,-8.6499997399,4.89999687709,-5.36673402262e-05,2.6041178189e-05,0.707134192315,0.707079366479
27887710948,1729,27896000000,world,10.8999690866,-8.64999969594,4.89999681402,-5.38804207e-05,2.60950960748e-05,0.707133905947,0.707079652851
27907844619,1730,27912000000,world,10.8999690265,-8.64999963758,4.89999673189,-5.40839342358e-05,2.61259788696e-05,0.70713362141,0.707079937393
27927955476,1731,27928000000,world,10.8999689574,-8.64999956019,4.89999662456,-5.42857667605e-05,2.61388747426e-05,0.70713333916,0.707080219648
27948050255,1732,27944000000,world,10.8999688875,-8.64999945465,4.89999648358,-5.45111146599e-05,2.61639378669e-05,0.707133060478,0.707080498333
27958107272,1733,27960000000,world,10.899968834,-8.64999932098,4.8999963138,-5.47230791027e-05,2.61686032941e-05,0.707132785284,0.707080773531
27978192729,1734,27976000000,world,10.8999688354,-8.64999916519,4.89999612989,-5.49220481344e-05,2.61587262403e-05,0.707132511596,0.707081047224
27988252300,1735,27992000000,world,10.8999688655,-8.64999900757,4.89999594794,-5.51359237983e-05,2.61601489636e-05,0.707132240132,0.707081318691
27998480994,1736,28008000000,world,10.8999689052,-8.64999885144,4.89999576817,-5.53651470771e-05,2.61784297832e-05,0.707131971038,0.707081587786
28018622827,1737,28024000000,world,10.8999689451,-8.6499986969,4.89999559013,-5.55608439755e-05,2.61643597656e-05,0.707131703545,0.707081855283
28038839843,1738,28040000000,world,10.8999689847,-8.64999854262,4.8999954123,-5.57481152967e-05,2.61422985571e-05,0.707131437246,0.707082121587
28048921615,1739,28056000000,world,10.8999690347,-8.64999839134,4.89999523864,-5.59507559349e-05,2.61400234269e-05,0.707131171752,0.707082387082
28069103369,1740,28072000000,world,10.8999690107,-8.64999844227,4.89999529673,-5.6035441285e-05,2.61171824402e-05,0.707131041756,0.707082517082
28079163948,1741,28088000000,world,10.8999691708,-8.64999811485,4.8999949235,-5.63483663861e-05,2.61479075518e-05,0.707130643438,0.707082915401
28099298107,1742,28104000000,world,10.8999692498,-8.6499979999,4.89999479342,-5.65157612095e-05,2.61313564157e-05,0.707130380709,0.707083178135
28119414760,1743,28120000000,world,10.8999691975,-8.64999806184,4.89999486337,-5.65876599127e-05,2.61006128783e-05,0.707130254397,0.707083304451
28129500350,1744,28136000000,world,10.8999692744,-8.64999796112,4.89999474953,-5.67768829623e-05,2.61118150381e-05,0.707129995686,0.707083563163
28149653177,1745,28152000000,world,10.8999694859,-8.64999770229,4.89999445715,-5.70624461199e-05,2.61463698187e-05,0.70712960643,0.70708395242
28159738847,1746,28168000000,world,10.899969561,-8.64999761087,4.89999435385,-5.7222619007e-05,2.61329437355e-05,0.707129351072,0.707084207782
28179933089,1747,28184000000,world,10.8999696269,-8.64999753358,4.89999426671,-5.73935561654e-05,2.61348756315e-05,0.707129094397,0.707084464459
28200229762,1748,28200000000,world,10.8999696792,-8.64999747432,4.89999420046,-5.75512074309e-05,2.61286801748e-05,0.70712883586,0.707084723
28210331233,1749,28216000000,world,10.899969581,-8.64999755866,4.89999429278,-5.76092959369e-05,2.60908432825e-05,0.707128711236,0.707084847629
28230592899,1750,28232000000,world,10.8999695926,-8.64999753004,4.89999425937,-5.77586638305e-05,2.60832243534e-05,0.707128451053,0.707085107816
28240650563,1751,28248000000,world,10.8999695715,-8.64999753032,4.89999425736,-5.79115072604e-05,2.60849956495e-05,0.707128187686,0.707085371186
28271207957,1752,28264000000,world,10.8999695826,-8.6499974887,4.89999420746,-5.80897989782e-05,2.60639209243e-05,0.707127776145,0.707085782738
28271207957,1753,28280000000,world,10.8999694305,-8.64999763771,4.89999437218,-5.81307990515e-05,2.60224581034e-05,0.707127642137,0.707085916752
28291341623,1754,28296000000,world,10.8999693867,-8.649997674,4.89999441245,-5.83243785866e-05,2.60345230105e-05,0.707127217304,0.707086341594
28311520879,1755,28312000000,world,10.8999692639,-8.64999784969,4.89999461331,-5.83591180007e-05,2.59965423778e-05,0.707127080911,0.707086477993
28321577512,1756,28328000000,world,10.8999691896,-8.64999797653,4.89999475847,-5.84238386211e-05,2.59424680327e-05,0.707126801752,0.707086757165
28341931810,1757,28344000000,world,10.8999691382,-8.64999805547,4.89999484851,-5.85699319144e-05,2.5927656358e-05,0.707126386187,0.707087172742
28352204167,1758,28360000000,world,10.89996906,-8.64999825403,4.89999507561,-5.8593897705e-05,2.58939160652e-05,0.707126251357,0.707087307578
28372543372,1759,28376000000,world,10.8999690247,-8.64999836185,4.89999520005,-5.87208538052e-05,2.58918884412e-05,0.707125839998,0.707087718949
28392723081,1760,28392000000,world,10.8999690166,-8.64999852368,4.89999538885,-5.87547985359e-05,2.58585960955e-05,0.707125567886,0.707087991074
28412978814,1761,28408000000,world,10.8999690535,-8.64999867602,4.89999557142,-5.87962078354e-05,2.58519768005e-05,0.707125296965,0.707088262006
28423072482,1762,28424000000,world,10.899969124,-8.64999881343,4.89999574041,-5.88522412432e-05,2.58705204061e-05,0.707125027803,0.707088531176
28433132040,1763,28440000000,world,10.8999692462,-8.64999899231,4.89999596055,-5.88465083606e-05,2.58585854279e-05,0.707124890241,0.707088668747
28453288651,1764,28456000000,world,10.8999693397,-8.64999912195,4.8999961189,-5.88551946234e-05,2.58358835541e-05,0.70712462313,0.707088935872
28463368057,1765,28472000000,world,10.899969397,-8.649999202,4.89999621665,-5.89327011181e-05,2.58560731816e-05,0.70712422878,0.707089330234
28483548252,1766,28488000000,world,10.8999694766,-8.64999933077,4.89999637345,-5.89595661489e-05,2.58560173153e-05,0.707123967579,0.707089591445
28503868188,1767,28504000000,world,10.8999695482,-8.64999945695,4.89999652116,-5.89673378036e-05,2.58527362447e-05,0.707123707293,0.707089851743
28513923184,1768,28520000000,world,10.8999696167,-8.64999956962,4.8999966525,-5.89717287612e-05,2.58720014483e-05,0.707123442631,0.707090116417
28534065096,1769,28536000000,world,10.8999696798,-8.64999965975,4.89999675996,-5.89425198155e-05,2.58847369063e-05,0.707123168331,0.707090390732
28544289590,1770,28552000000,world,10.899969845,-8.64999977446,4.89999691794,-5.88851691169e-05,2.58780689553e-05,0.707123019936,0.707090539139
28564418940,1771,28568000000,world,10.8999697708,-8.64999976326,4.89999688833,-5.8809891326e-05,2.59256068908e-05,0.707122580098,0.707090979001
28574512598,1772,28584000000,world,10.8999698033,-8.64999978533,4.89999692036,-5.87068466254e-05,2.59439489028e-05,0.707122272066,0.707091287054
28594651442,1773,28600000000,world,10.8999698271,-8.64999980075,4.89999694296,-5.85837463709e-05,2.59617800392e-05,0.707121957955,0.707091601189
28614842745,1774,28616000000,world,10.8999699931,-8.64999986874,4.89999705353,-5.84960781608e-05,2.59730936335e-05,0.707121792739,0.707091766419
28624898312,1775,28632000000,world,10.8999698588,-8.64999981995,4.89999697315,-5.82949294649e-05,2.60233738012e-05,0.707121321648,0.707092237545
28645012120,1776,28648000000,world,10.8999700133,-8.64999989003,4.8999970826,-5.81699217833e-05,2.60278568835e-05,0.707121153461,0.707092405748
28655101412,1777,28664000000,world,10.8999698476,-8.64999983181,4.89999698498,-5.78710551666e-05,2.60955210176e-05,0.707120669295,0.707092889955
28675213292,1778,28680000000,world,10.8999698245,-8.64999983223,4.89999698032,-5.76011550043e-05,2.61320605622e-05,0.7071203282,0.707093231085
28705650711,1779,28704000000,world,10.8999699146,-8.64999989979,4.89999706711,-5.70809011691e-05,2.61749800517e-05,0.707119765496,0.70709379385
28725847272,1780,28712000000,world,10.8999697423,-8.64999982472,4.89999694958,-5.69234236727e-05,2.62036274284e-05,0.707119571618,0.707093987747
28735940917,1781,28728000000,world,10.8999698051,-8.6499998895,4.89999702597,-5.62528704212e-05,2.62231656874e-05,0.707118899232,0.70709466021
28745994657,1782,28744000000,world,10.8999696396,-8.64999980376,4.89999690121,-5.60494584587e-05,2.62361824555e-05,0.707118664748,0.707094894717
28766299700,1783,28768000000,world,10.8999697058,-8.64999986077,4.89999697227,-5.53162174861e-05,2.62451843948e-05,0.707117894144,0.707095665403
28766299700,1784,28776000000,world,10.8999697058,-8.64999986077,4.89999697227,-5.53162174861e-05,2.62451843948e-05,0.707117894144,0.707095665403
28786418005,1785,28792000000,world,10.8999696684,-8.6499998351,4.89999693839,-5.48131490252e-05,2.62271765432e-05,0.70711737437,0.707096185234
28806548340,1786,28808000000,world,10.899969484,-8.64999970465,4.89999676739,-5.41216993167e-05,2.62469107987e-05,0.707116606549,0.707096953129
28826663494,1787,28824000000,world,10.8999694485,-8.64999968337,4.89999673744,-5.36240154195e-05,2.62415455919e-05,0.707116094518,0.707097465212
28836789761,1788,28840000000,world,10.8999695569,-8.64999976887,4.89999684416,-5.33392994939e-05,2.62233328594e-05,0.707115833919,0.70709772584
28846872754,1789,28856000000,world,10.8999693972,-8.64999965947,4.89999669799,-5.26100474262e-05,2.62473662104e-05,0.707115076198,0.707098483633
28867014727,1790,28872000000,world,10.8999693886,-8.64999967252,4.89999670612,-5.20770983277e-05,2.62527049006e-05,0.70711456695,0.707098992932
28887126647,1791,28888000000,world,10.8999694009,-8.64999970218,4.89999673539,-5.15208238908e-05,2.62558858078e-05,0.707114056702,0.707099503232
28897184384,1792,28904000000,world,10.8999694327,-8.64999974913,4.89999678737,-5.09634995654e-05,2.62790659094e-05,0.707113544213,0.707100015771
28917295626,1793,28920000000,world,10.8999694908,-8.64999981893,4.89999686878,-5.03778886638e-05,2.62989239709e-05,0.707113029086,0.707100530948
28927527062,1794,28936000000,world,10.8999696679,-8.64999994971,4.89999703616,-5.00424663216e-05,2.62962030366e-05,0.707112765282,0.707100794781
28947731164,1795,28952000000,world,10.899969744,-8.65000002159,4.89999712175,-4.9134951631e-05,2.63645522563e-05,0.707111993811,0.707101566325
28968097678,1796,28968000000,world,10.8999699702,-8.6500001166,4.89999726797,-4.84839423337e-05,2.64073824035e-05,0.707111465484,0.707102094703
28978154140,1797,28984000000,world,10.8999703022,-8.65000010935,4.89999734913,-4.8143272013e-05,2.6445236776e-05,0.707111187785,0.707102372428
28998289242,1798,29000000000,world,10.8999705012,-8.65000004591,4.8999973456,-4.7176990232e-05,2.65115278817e-05,0.707110375504,0.70710318478
29008377218,1799,29016000000,world,10.8999706915,-8.64999994152,4.89999730355,-4.65401309695e-05,2.65731088209e-05,0.707109821671,0.707103738658
29038683767,1800,29032000000,world,10.8999708308,-8.64999984964,4.89999725856,-4.58778785628e-05,2.66040306292e-05,0.707109262087,0.707104298289
29048740072,1801,29048000000,world,10.8999709252,-8.6499997842,4.89999722483,-4.5226714948e-05,2.66422107398e-05,0.707108697309,0.707104863111
29058797862,1802,29064000000,world,10.8999710812,-8.64999963454,4.89999713179,-4.49164045916e-05,2.66921314657e-05,0.707108407372,0.707105153067
29088964183,1803,29080000000,world,10.8999710025,-8.64999972637,4.89999719399,-4.38992118049e-05,2.66836178771e-05,0.70710755306,0.707106007446
29099018240,1804,29096000000,world,10.8999710192,-8.64999970844,4.89999718288,-4.32364521731e-05,2.67030683558e-05,0.707106978477,0.70710658207
29119159435,1805,29112000000,world,10.8999710333,-8.64999969445,4.89999717585,-4.25854937013e-05,2.67345791928e-05,0.707106408408,0.707107152177
29119159435,1806,29128000000,world,10.8999710352,-8.64999969852,4.89999718257,-4.19066279229e-05,2.67380137832e-05,0.707105849056,0.707107711569
29139273311,1807,29144000000,world,10.899971011,-8.6499997341,4.8999972113,-4.12475798727e-05,2.67603554325e-05,0.707105306138,0.707108254522
29159425619,1808,29160000000,world,10.8999709541,-8.64999980076,4.89999725899,-4.0602243045e-05,2.67947085449e-05,0.707104778872,0.707108781822
29169518925,1809,29176000000,world,10.8999708614,-8.64999989751,4.89999732296,-3.99314957653e-05,2.68014486879e-05,0.707104264668,0.707109296061
29189671362,1810,29192000000,world,10.8999707261,-8.65000002175,4.89999739785,-3.9282140803e-05,2.68261554135e-05,0.707103763443,0.707109797317
29199775831,1811,29208000000,world,10.8999705326,-8.65000016453,4.8999974659,-3.86542854469e-05,2.68588351025e-05,0.707103277082,0.707110283707
29219962319,1812,29224000000,world,10.8999702838,-8.65000029936,4.89999749587,-3.80277292329e-05,2.68738823143e-05,0.70710280242,0.707110758398
29240149016,1813,29240000000,world,10.899970001,-8.65000039285,4.89999746088,-3.74250726342e-05,2.68985710659e-05,0.707102337681,0.707111223162
29250206008,1814,29256000000,world,10.8999700439,-8.65000039033,4.89999747941,-3.71173220135e-05,2.6926815925e-05,0.707102100134,0.707111460721
29270318069,1815,29272000000,world,10.8999694848,-8.65000040699,4.89999722191,-3.62678330923e-05,2.69895295621e-05,0.707101431058,0.70711212983
29280372367,1816,29288000000,world,10.899969537,-8.65000041392,4.89999725595,-3.5960338105e-05,2.70184328329e-05,0.707101199868,0.70711236103
29300519567,1817,29304000000,world,10.8999690593,-8.65000034427,4.89999693852,-3.51036447555e-05,2.70886400733e-05,0.707100537865,0.707113023062
29320634054,1818,29320000000,world,10.8999688871,-8.65000029656,4.89999679875,-3.45194158296e-05,2.71460662453e-05,0.707100097355,0.707113463591
29340747675,1819,29336000000,world,10.8999687449,-8.65000024551,4.89999667067,-3.39321468025e-05,2.72080419325e-05,0.707099663467,0.707113897496
29350802843,1820,29352000000,world,10.8999686212,-8.65000019505,4.89999655249,-3.33611607547e-05,2.72907708974e-05,0.70709923421,0.707114326769
29360895663,1821,29368000000,world,10.8999685045,-8.65000014514,4.89999643814,-3.27692487973e-05,2.73547215048e-05,0.707098807469,0.707114753525
29381203884,1822,29384000000,world,10.899968398,-8.6500000975,4.89999633052,-3.21811408829e-05,2.74140916364e-05,0.707098384999,0.70711517601
29391261699,1823,29400000000,world,10.8999684774,-8.65000014073,4.8999964221,-3.18740047818e-05,2.74387973234e-05,0.70709817174,0.707115389277
29411410008,1824,29416000000,world,10.8999682605,-8.65000003315,4.89999618859,-3.10912106124e-05,2.75422699141e-05,0.707097571118,0.707115989916
29431520582,1825,29432000000,world,10.8999682354,-8.65000002534,4.89999616835,-3.05715440988e-05,2.75855991358e-05,0.707097183274,0.707116377769
29441623231,1826,29448000000,world,10.8999682454,-8.6500000444,4.89999619585,-3.0098300286e-05,2.76372688826e-05,0.70709680661,0.707116754442
29461781681,1827,29464000000,world,10.899968299,-8.65000009873,4.89999628398,-2.96428225881e-05,2.76625906301e-05,0.707096435215,0.707117125844
29471869462,1828,29480000000,world,10.8999684105,-8.65000018624,4.89999643788,-2.92010781517e-05,2.76636671306e-05,0.70709606326,0.707117497806
29491991435,1829,29496000000,world,10.8999686016,-8.65000028203,4.89999664559,-2.87852345995e-05,2.76677564732e-05,0.707095685599,0.707117875472
29502103544,1830,29512000000,world,10.8999689249,-8.65000025894,4.89999680069,-2.85734387567e-05,2.76878802043e-05,0.707095485012,0.707118076062
29522537140,1831,29528000000,world,10.8999691494,-8.65000007679,4.89999672246,-2.81842952628e-05,2.76951835807e-05,0.707095099739,0.707118461337
29542735601,1832,29544000000,world,10.8999692426,-8.64999998287,4.89999667432,-2.75948480054e-05,2.76557710668e-05,0.707094523251,0.70711903783
29562951908,1833,29560000000,world,10.8999693308,-8.64999987525,4.89999660763,-2.71831610679e-05,2.76093274153e-05,0.707094128284,0.707119432801
29583118760,1834,29576000000,world,10.8999693878,-8.64999980606,4.89999656726,-2.6777384574e-05,2.75592913533e-05,0.707093723963,0.707119837125
29583118760,1835,29592000000,world,10.8999694164,-8.64999977985,4.89999656183,-2.63767841344e-05,2.75027066855e-05,0.707093308867,0.707120252223
29603861347,1836,29608000000,world,10.8999694984,-8.64999964897,4.89999645497,-2.61973638473e-05,2.75007992233e-05,0.707093094444,0.707120466644
29613937618,1837,29624000000,world,10.8999693884,-8.64999985888,4.89999665885,-2.55295086349e-05,2.73038747897e-05,0.707092458956,0.707121102139
29634345465,1838,29640000000,world,10.8999694474,-8.64999976002,4.89999657792,-2.53319360379e-05,2.72730236692e-05,0.707092242577,0.707121318517
29654460530,1839,29656000000,world,10.8999694008,-8.64999984445,4.89999665928,-2.49132751885e-05,2.71612498584e-05,0.707091818768,0.707121742328
29664706862,1840,29672000000,world,10.8999692294,-8.65000013643,4.89999689947,-2.42580237462e-05,2.69431730519e-05,0.707091195464,0.707122365636
29684817653,1841,29688000000,world,10.8999691646,-8.65000024636,4.89999698651,-2.3842610219e-05,2.68228512177e-05,0.707090780864,0.707122780236
29694876940,1842,29704000000,world,10.8999691,-8.65000035686,4.89999707394,-2.3440385704e-05,2.67159341483e-05,0.707090367767,0.707123193332
29715014383,1843,29720000000,world,10.899969152,-8.65000027352,4.89999701177,-2.32397532309e-05,2.66714480359e-05,0.70709015831,0.707123402787
29735180781,1844,29736000000,world,10.8999690879,-8.65000039315,4.89999711148,-2.28274708645e-05,2.65356337171e-05,0.707089749752,0.707123811345
29745284845,1845,29752000000,world,10.899969012,-8.65000052696,4.89999721923,-2.24605813607e-05,2.64126157864e-05,0.707089348107,0.707124212986
29765530069,1846,29768000000,world,10.8999687101,-8.65000087962,4.89999740857,-2.19415559121e-05,2.61607762372e-05,0.707088770754,0.707124790336
29775626878,1847,29784000000,world,10.8999685614,-8.65000101103,4.89999744814,-2.16483896706e-05,2.60165867898e-05,0.707088394257,0.707125166828
29795743490,1848,29800000000,world,10.8999686431,-8.65000095468,4.89999744635,-2.15010577225e-05,2.59592869053e-05,0.707088202127,0.707125358955
29826039877,1849,29824000000,world,10.8999683666,-8.65000116438,4.89999747949,-2.09408766984e-05,2.56605882509e-05,0.707087470251,0.707126090819
29846241635,1850,29832000000,world,10.8999681392,-8.65000131302,4.89999747355,-2.08037185445e-05,2.55636880587e-05,0.707087293246,0.707126267822
29846241635,1851,29848000000,world,10.8999680205,-8.65000138947,4.89999746968,-2.05287728442e-05,2.54057754775e-05,0.707086924243,0.707126636818
29856330120,1852,29864000000,world,10.8999681293,-8.65000132155,4.89999747854,-2.03904067931e-05,2.53444587485e-05,0.70708673276,0.707126828296
29876566845,1853,29880000000,world,10.8999680208,-8.6500013921,4.89999747624,-2.01305520023e-05,2.51831145669e-05,0.707086366648,0.7071271944
29886643986,1854,29896000000,world,10.8999677207,-8.65000157729,4.89999745266,-1.97879526181e-05,2.49061094548e-05,0.707085831254,0.707127729783
29906924136,1855,29912000000,world,10.8999678579,-8.65000150232,4.8999974797,-1.96803710611e-05,2.48301667457e-05,0.707085643581,0.70712791745
29927068425,1856,29928000000,world,10.8999678172,-8.65000153217,4.89999748421,-1.9493238951e-05,2.46357599186e-05,0.707085284476,0.707128276546
29937177158,1857,29944000000,world,10.8999676663,-8.65000162534,4.89999747372,-1.92438201934e-05,2.43193052693e-05,0.707084759424,0.707128801583
29967508231,1858,29960000000,world,10.8999677553,-8.65000158912,4.8999975056,-1.90796252883e-05,2.41188710832e-05,0.707084410789,0.707129150208
29967508231,1859,29976000000,world,10.899967997,-8.65000146058,4.89999754644,-1.89924360083e-05,2.40366217977e-05,0.707084231043,0.707129329948
29987739349,1860,29992000000,world,10.8999681911,-8.6500013459,4.89999756248,-1.88309105493e-05,2.38406493101e-05,0.707083891557,0.707129669423
30007907925,1861,30008000000,world,10.8999683974,-8.6500011462,4.89999749355,-1.86938074313e-05,2.36652330046e-05,0.70708356006,0.707130000908
30017973237,1862,30024000000,world,10.8999684838,-8.65000091429,4.8999973057,-1.85495534878e-05,2.34639516684e-05,0.707083239818,0.707130321139
30038087769,1863,30040000000,world,10.899968506,-8.65000073745,4.89999713472,-1.83112201209e-05,2.31220805292e-05,0.707082771364,0.707130789578
30048303435,1864,30056000000,world,10.8999684885,-8.65000056334,4.89999694278,-1.81943642421e-05,2.29218816434e-05,0.707082467929,0.707131093002
30068574725,1865,30072000000,world,10.8999684374,-8.6500004334,4.89999677807,-1.80469327326e-05,2.26744559724e-05,0.707082173281,0.707131387642
30088783393,1866,30088000000,world,10.8999683733,-8.65000033248,4.89999663559,-1.7920015826e-05,2.24351799525e-05,0.707081884861,0.707131676053
30129191431,1867,30120000000,world,10.8999682762,-8.65000018819,4.89999642974,-1.77174465505e-05,2.19696710017e-05,0.707081329934,0.70713223096
30129191431,1868,30120000000,world,10.8999682762,-8.65000018819,4.89999642974,-1.77174465505e-05,2.19696710017e-05,0.707081329934,0.70713223096
30149387009,1869,30136000000,world,10.8999682375,-8.65000014349,4.89999636103,-1.75806927174e-05,2.1684950407e-05,0.707081061482,0.707132499404
30159448040,1870,30160000000,world,10.8999680855,-8.64999999399,4.89999611991,-1.74435251738e-05,2.13027045658e-05,0.707080668957,0.707132891916
30159448040,1871,30168000000,world,10.8999681588,-8.65000006616,4.89999623572,-1.73691629231e-05,2.11620354402e-05,0.707080533173,0.707133027696
30179631761,1872,30184000000,world,10.8999680464,-8.64999995559,4.89999605885,-1.73317415443e-05,2.10336978041e-05,0.707080405669,0.707133155195
30199750701,1873,30200000000,world,10.8999680807,-8.64999998985,4.89999611324,-1.71332445049e-05,2.06125267318e-05,0.70708000684,0.707133554012
30209829004,1874,30216000000,world,10.8999680564,-8.64999995599,4.899996065,-1.70416553267e-05,2.03598197506e-05,0.707079747518,0.707133813323
30231840742,1875,30232000000,world,10.8999680648,-8.64999994409,4.89999605643,-1.6920178028e-05,2.00624996123e-05,0.70707949382,0.707134067013
30241898125,1876,30248000000,world,10.8999681121,-8.64999997119,4.8999961089,-1.68310799187e-05,1.97698150013e-05,0.707079245873,0.707134314951
30262008990,1877,30264000000,world,10.8999681848,-8.65000005459,4.89999623565,-1.67817932716e-05,1.94775755435e-05,0.707079003499,0.707134557315
30272080698,1878,30280000000,world,10.8999682354,-8.65000019605,4.89999641773,-1.67655984214e-05,1.91776639655e-05,0.707078766502,0.707134794303
30302252283,1879,30296000000,world,10.8999682073,-8.65000038264,4.89999661395,-1.67347518105e-05,1.88188800708e-05,0.707078535719,0.707135025077
30322367593,1880,30312000000,world,10.8999681448,-8.65000051558,4.89999673585,-1.6810740778e-05,1.83385257547e-05,0.70707819502,0.70713536576
30342533059,1881,30328000000,world,10.89996803,-8.65000064016,4.89999682685,-1.68838457459e-05,1.79879301124e-05,0.707077973787,0.707135586982
30342533059,1882,30344000000,world,10.8999678255,-8.65000079454,4.89999691319,-1.69246823528e-05,1.77862404577e-05,0.707077870457,0.707135690308
30352625665,1883,30360000000,world,10.8999677308,-8.65000086624,4.89999695406,-1.7041454285e-05,1.74479292775e-05,0.707077651182,0.70713590957
30372937559,1884,30376000000,world,10.8999676437,-8.65000092873,4.89999698787,-1.71482603757e-05,1.70919698736e-05,0.707077433169,0.707136127572
30382993537,1885,30392000000,world,10.899967571,-8.65000098184,4.89999701755,-1.72823305188e-05,1.67501933909e-05,0.707077218978,0.70713634175
30403108322,1886,30408000000,world,10.8999675339,-8.65000101454,4.899997039,-1.74229330207e-05,1.63880600128e-05,0.707077011384,0.707136549332
30413162622,1887,30424000000,world,10.8999677029,-8.65000092075,4.89999700219,-1.75133039185e-05,1.62368581181e-05,0.707076903285,0.707136657423
30443476989,1888,30440000000,world,10.8999676528,-8.65000097604,4.89999704635,-1.7792101352e-05,1.56593298331e-05,0.707076622064,0.707136938626
30463683728,1889,30456000000,world,10.8999679906,-8.65000074974,4.89999692498,-1.81193002841e-05,1.5130510241e-05,0.707076342572,0.707137218097
30463683728,1890,30472000000,world,10.8999679123,-8.6500008111,4.89999696397,-1.8220388007e-05,1.49140863753e-05,0.707076260416,0.707137300247
30483897210,1891,30488000000,world,10.8999680433,-8.65000070814,4.89999689844,-1.84514146794e-05,1.4549097361e-05,0.707076083577,0.707137477074
30493976075,1892,30504000000,world,10.899968252,-8.65000054439,4.89999679339,-1.85628555544e-05,1.43820363887e-05,0.707075989078,0.707137571565
30514370558,1893,30520000000,world,10.899968382,-8.65000044197,4.89999672685,-1.87838168502e-05,1.40077649637e-05,0.707075813707,0.707137746921
30534519034,1894,30536000000,world,10.8999684583,-8.65000039534,4.89999670438,-1.91063851268e-05,1.34190210695e-05,0.707075557643,0.707138002966
30544759674,1895,30552000000,world,10.8999686265,-8.65000026736,4.89999662264,-1.93435862087e-05,1.30587588172e-05,0.70707538326,0.707138177334
30565095693,1896,30568000000,world,10.8999688179,-8.65000011212,4.89999651422,-1.95637876943e-05,1.26785983353e-05,0.707075208128,0.707138352451
30575180717,1897,30584000000,world,10.8999689579,-8.64999988452,4.89999630577,-1.97085436425e-05,1.25273067227e-05,0.707075118226,0.707138442344
30595427825,1898,30600000000,world,10.8999689834,-8.64999973021,4.89999614028,-2.00578719098e-05,1.19294216207e-05,0.707074865857,0.707138694691
30625878099,1899,30616000000,world,10.8999689617,-8.64999956219,4.89999594603,-2.03178525677e-05,1.15484741101e-05,0.707074700658,0.707138859873
30656124392,1900,30632000000,world,10.8999689208,-8.64999943211,4.89999579243,-2.05953570005e-05,1.11778916995e-05,0.707074534393,0.707139026121
30656124392,1901,30656000000,world,10.8999687945,-8.64999925563,4.89999556881,-2.1021566587e-05,1.06113272037e-05,0.70707427494,0.707139285547
30656124392,1902,30664000000,world,10.8999689264,-8.64999934912,4.89999570542,-2.11128985538e-05,1.03923948518e-05,0.707074176898,0.707139383581
30676261369,1903,30680000000,world,10.8999689792,-8.64999937714,4.89999574979,-2.13635266548e-05,9.99229902281e-06,0.7070739878,0.707139572659
30686349547,1904,30696000000,world,10.8999690418,-8.64999942314,4.89999581597,-2.16298410228e-05,9.60736755637e-06,0.707073799314,0.707139761125
30706467046,1905,30712000000,world,10.8999689579,-8.64999935645,4.89999572094,-2.17979044321e-05,9.43435890149e-06,0.707073710959,0.707139849469
30726635441,1906,30728000000,world,10.8999691774,-8.64999953122,4.89999596961,-2.21336688119e-05,8.8098599071e-06,0.707073428411,0.707140131988
30736691106,1907,30744000000,world,10.899969269,-8.6499996182,4.89999608706,-2.2375671628e-05,8.40199738636e-06,0.707073249985,0.707140310394
30767125657,1908,30760000000,world,10.8999693519,-8.64999974691,4.89999624262,-2.26284907201e-05,8.0008153032e-06,0.707073079963,0.707140480397
30787297806,1909,30776000000,world,10.8999694081,-8.64999985938,4.89999637427,-2.3024651445e-05,7.40226107393e-06,0.70707283396,0.70714072637
30797393859,1910,30792000000,world,10.8999694081,-8.64999985938,4.89999637427,-2.3024651445e-05,7.40226107393e-06,0.70707283396,0.70714072637
30817530611,1911,30816000000,world,10.8999693923,-8.6500002234,4.89999673941,-2.35130577922e-05,6.54175154936e-06,0.707072514382,0.707141045909
30817530611,1912,30824000000,world,10.8999692601,-8.65000043993,4.8999969278,-2.36346288853e-05,6.30715873624e-06,0.707072440562,0.70714111972
30837869053,1913,30840000000,world,10.8999691553,-8.65000060007,4.89999706651,-2.38801030884e-05,5.86094926842e-06,0.707072286811,0.707141273452
30847925401,1914,30856000000,world,10.8999690523,-8.65000075825,4.89999720481,-2.41445406851e-05,5.43401044764e-06,0.707072133597,0.707141426646
30868059983,1915,30872000000,world,10.8999690983,-8.65000070352,4.89999715979,-2.43012919375e-05,5.25650896946e-06,0.707072053827,0.707141506404
30888175449,1916,30896000000,world,10.8999689053,-8.65000095893,4.89999737609,-2.48334738679e-05,4.37995778487e-06,0.707071765846,0.707141794343
30898233304,1917,30904000000,world,10.8999689053,-8.65000095893,4.89999737609,-2.48334738679e-05,4.37995778487e-06,0.707071765846,0.707141794343
30918368993,1918,30920000000,world,10.8999688451,-8.65000104046,4.89999744526,-2.51327368206e-05,3.96075080197e-06,0.707071625889,0.707141934278
30928424627,1919,30936000000,world,10.8999686741,-8.65000120703,4.8999975757,-2.55579234335e-05,3.27331168047e-06,0.707071418862,0.707142141273
30948611504,1920,30952000000,world,10.8999688167,-8.6500010964,4.89999749358,-2.57208370232e-05,3.08849952508e-06,0.707071337974,0.707142222148
30958670815,1921,30968000000,world,10.899968798,-8.65000114809,4.89999754238,-2.6175712849e-05,2.43524597026e-06,0.707071098327,0.707142461756
30978983885,1922,30984000000,world,10.8999689883,-8.65000101946,4.89999745632,-2.65090635366e-05,2.05737772087e-06,0.70707091122,0.707142648834
30999119914,1923,31000000000,world,10.8999691681,-8.65000080037,4.89999727227,-2.68304113111e-05,1.66807781694e-06,0.707070709584,0.707142850438
31009375943,1924,31016000000,world,10.8999690951,-8.65000069695,4.89999713981,-2.71799330779e-05,1.27370406543e-06,0.70707050296,0.707143057028
31029560841,1925,31032000000,world,10.8999689347,-8.6500006317,4.89999702265,-2.73790266525e-05,1.0846146343e-06,0.707070399706,0.707143160265
31039618075,1926,31048000000,world,10.8999693083,-8.65000072862,4.89999723708,-2.78714038894e-05,5.28474449106e-07,0.707070030664,0.70714352925
31059773759,1927,31064000000,world,10.8999694391,-8.65000090536,4.89999745729,-2.8173590324e-05,1.17351507628e-07,0.707069775642,0.707143784233
31069792711,1928,31080000000,world,10.8999694451,-8.65000088205,4.89999743372,-2.83608081054e-05,-5.97892700746e-08,0.707069647825,0.707143912029
31090133548,1929,31096000000,world,10.8999694251,-8.65000109864,4.89999766059,-2.87041525021e-05,-4.49826808326e-07,0.707069388304,0.707144171509
31110464079,1930,31112000000,world,10.899969109,-8.65000147217,4.899997998,-2.9215856299e-05,-1.0768612118e-06,0.707069000381,0.707144559369
31120520031,1931,31128000000,world,10.8999689682,-8.65000158472,4.89999809382,-2.95900988259e-05,-1.45326853967e-06,0.707068730384,0.707144829321
31140729488,1932,31144000000,world,10.8999690589,-8.65000152674,4.89999804713,-2.97946074965e-05,-1.60249845254e-06,0.707068585207,0.707144974473
31150807890,1933,31160000000,world,10.8999689905,-8.65000158756,4.89999810376,-3.01574550577e-05,-1.98052954868e-06,0.707068302252,0.707145257381
31170962565,1934,31176000000,world,10.8999688977,-8.65000166604,4.89999817988,-3.06927211676e-05,-2.55988277103e-06,0.7070678894,0.707145670164
31191075785,1935,31192000000,world,10.8999691126,-8.65000155342,4.89999811497,-3.10677081296e-05,-2.9045565777e-06,0.707067632165,0.707145927352
31201132322,1936,31208000000,world,10.8999693361,-8.65000135298,4.89999790963,-3.14243117221e-05,-3.27939108094e-06,0.707067402613,0.707146156862
31221320430,1937,31224000000,world,10.8999691946,-8.65000130155,4.89999773468,-3.18031184724e-05,-3.69138337388e-06,0.707067213058,0.707146346376
31231415994,1938,31240000000,world,10.899969111,-8.65000129269,4.89999766644,-3.21777819098e-05,-4.10294327705e-06,0.707067035815,0.70714652358
31251559447,1939,31256000000,world,10.89996908,-8.65000129218,4.89999764241,-3.25510148385e-05,-4.50695710846e-06,0.707066860977,0.707146698379
31271671960,1940,31272000000,world,10.8999689119,-8.65000129912,4.89999755018,-3.27438870439e-05,-4.72362623712e-06,0.707066779313,0.707146780023
31281728682,1941,31288000000,world,10.8999689643,-8.65000129561,4.89999756824,-3.31040424692e-05,-5.13361659052e-06,0.707066594666,0.70714696463
31302055000,1942,31304000000,world,10.8999693257,-8.65000128179,4.89999775439,-3.36184841301e-05,-5.74338144938e-06,0.707066288503,0.707147270729
31312126380,1943,31320000000,world,10.8999695262,-8.65000128069,4.89999789133,-3.39835501569e-05,-6.13399373444e-06,0.707066071039,0.707147488147
31332239846,1944,31336000000,world,10.8999695053,-8.65000127661,4.89999785417,-3.41753758151e-05,-6.33516411105e-06,0.707065962405,0.707147596757
31342299325,1945,31352000000,world,10.8999697389,-8.65000129647,4.89999813503,-3.45231043746e-05,-6.73354229527e-06,0.707065720835,0.707147838279
31362412985,1946,31368000000,world,10.8999694364,-8.65000140463,4.89999839184,-3.51213969857e-05,-7.32938317015e-06,0.707065354114,0.707148204922
31382566701,1947,31384000000,world,10.8999695663,-8.6500013758,4.89999836521,-3.54934555198e-05,-7.69708456433e-06,0.707065073019,0.707148485961
31392621833,1948,31400000000,world,10.8999698394,-8.65000129746,4.89999823293,-3.5864675982e-05,-8.03722713722e-06,0.707064771772,0.70714878715
31423052607,1949,31424000000,world,10.8999697106,-8.65000117644,4.89999763963,-3.65033624848e-05,-8.52708059878e-06,0.707064326122,0.707149232708
31423052607,1950,31432000000,world,10.8999697491,-8.6500011817,4.89999767878,-3.66782741982e-05,-8.71597347238e-06,0.707064172172,0.707149386629
31443355890,1951,31448000000,world,10.8999695516,-8.65000115453,4.89999747782,-3.70898178668e-05,-9.06790574568e-06,0.707063879522,0.707149679218
31463513174,1952,31464000000,world,10.8999693828,-8.65000112266,4.89999728287,-3.75172694332e-05,-9.40318819259e-06,0.707063586343,0.707149972334
31483763884,1953,31480000000,world,10.899969271,-8.65000109525,4.89999714257,-3.79179992573e-05,-9.76521467804e-06,0.707063288477,0.707150270137
31493782385,1954,31496000000,world,10.8999690956,-8.65000107287,4.89999699333,-3.8146453202e-05,-9.93898684471e-06,0.707063143163,0.707150415418
31503838235,1955,31512000000,world,10.8999694161,-8.65000108474,4.89999717793,-3.87591549443e-05,-1.04446392147e-05,0.707062660583,0.707150897898
31524120595,1956,31528000000,world,10.8999694159,-8.65000106543,4.89999712545,-3.89817474439e-05,-1.06188074113e-05,0.70706250107,0.707151057376
31534179724,1957,31544000000,world,10.8999693886,-8.65000125547,4.89999761764,-3.96203464987e-05,-1.12002964669e-05,0.707062011139,0.707151547202
31554334505,1958,31560000000,world,10.8999694828,-8.6500012068,4.89999753689,-3.98750042031e-05,-1.13438080704e-05,0.707061838811,0.707151719491
31574534663,1959,31576000000,world,10.8999693802,-8.6500012856,4.89999769545,-4.05627789978e-05,-1.19131112765e-05,0.707061332715,0.707152225474
31584609929,1960,31592000000,world,10.8999695446,-8.65000119104,4.89999753904,-4.08123555282e-05,-1.20578279187e-05,0.707061156332,0.707152401817
31604770346,1961,31608000000,world,10.8999696069,-8.65000116301,4.89999750884,-4.15044753436e-05,-1.26097819211e-05,0.707060659763,0.707152898271
31625101484,1962,31624000000,world,10.8999697742,-8.65000105042,4.89999730828,-4.19847086983e-05,-1.29445849615e-05,0.707060346074,0.707153211886
31655495295,1963,31648000000,world,10.8999696921,-8.65000089823,4.89999670456,-4.27320650779e-05,-1.34672491599e-05,0.707059928824,0.707153629026
31655495295,1964,31656000000,world,10.899969741,-8.65000089464,4.89999674342,-4.29359402249e-05,-1.36776677104e-05,0.707059796235,0.70715376158
31665550539,1965,31672000000,world,10.8999695049,-8.65000090538,4.89999653597,-4.31843036914e-05,-1.38821485732e-05,0.707059679836,0.707153877945
31685663737,1966,31688000000,world,10.8999694757,-8.65000090096,4.89999648955,-4.38564351369e-05,-1.44801530075e-05,0.707059322075,0.707154235605
31695729813,1967,31704000000,world,10.8999694553,-8.65000089574,4.8999964522,-4.43231579355e-05,-1.4864157136e-05,0.707059104366,0.707154453247
31716015506,1968,31720000000,world,10.8999695206,-8.65000088232,4.89999647127,-4.47560656902e-05,-1.52728499328e-05,0.707058898998,0.707154658552
31726096634,1969,31736000000,world,10.8999696695,-8.65000086336,4.89999654872,-4.51917565664e-05,-1.56702042845e-05,0.707058705967,0.70715485152
31746256282,1970,31752000000,world,10.8999696209,-8.65000085978,4.89999649576,-4.54150421008e-05,-1.5881165956e-05,0.707058622545,0.707154934912
31766411195,1971,31768000000,world,10.8999698668,-8.65000096251,4.89999700818,-4.60055559404e-05,-1.65423886601e-05,0.707058380638,0.707155176732
31776903251,1972,31784000000,world,10.8999699021,-8.65000093341,4.89999695293,-4.62399731643e-05,-1.67296368997e-05,0.707058305274,0.707155252067
31797064047,1973,31800000000,world,10.8999698349,-8.6500010117,4.89999711889,-4.66586547776e-05,-1.71694287281e-05,0.707058159764,0.707155397518
31817278145,1974,31816000000,world,10.8999696377,-8.65000117112,4.89999741843,-4.72830229158e-05,-1.78404148525e-05,0.707057933488,0.707155623705
31837391819,1975,31840000000,world,10.8999697,-8.65000113798,4.89999736255,-4.79550575142e-05,-1.84336354942e-05,0.707057677821,0.707155879276
31847601502,1976,31848000000,world,10.8999695817,-8.65000122404,4.89999751531,-4.81572208252e-05,-1.86715862021e-05,0.707057595011,0.707155962055
31857660788,1977,31864000000,world,10.8999696176,-8.650001213,4.8999975009,-4.86134162106e-05,-1.90467877102e-05,0.707057411583,0.707156145415
31877774158,1978,31880000000,world,10.8999697005,-8.65000116881,4.8999974292,-4.9089250537e-05,-1.93779486162e-05,0.70705721987,0.70715633706
31897889632,1979,31896000000,world,10.8999698477,-8.65000105446,4.89999722774,-4.93211853063e-05,-1.95292548411e-05,0.707057117717,0.707156439179
31918031252,1980,31912000000,world,10.8999699136,-8.65000101032,4.89999715112,-5.00022356344e-05,-2.00325826942e-05,0.707056820923,0.707156735869
31928336234,1981,31928000000,world,10.899970019,-8.65000089815,4.89999695005,-5.04967822551e-05,-2.0311929668e-05,0.707056613161,0.707156943558
31938496606,1982,31944000000,world,10.8999701068,-8.65000074487,4.89999667241,-5.07442381158e-05,-2.04459602329e-05,0.707056506517,0.707157050165
31958784318,1983,31960000000,world,10.8999701482,-8.65000064163,4.89999648862,-5.14372543979e-05,-2.09297842793e-05,0.707056196481,0.707157360093
31968855532,1984,31976000000,world,10.8999701953,-8.65000050609,4.89999625238,-5.19378769088e-05,-2.12119898961e-05,0.707055992011,0.707157564489
31989006475,1985,31992000000,world,10.8999702423,-8.65000036897,4.89999601656,-5.24448847898e-05,-2.14871521354e-05,0.707055789868,0.707157766557
31999080385,1986,32008000000,world,10.8999703053,-8.65000022498,4.8999957737,-5.29052960348e-05,-2.18056723501e-05,0.7070555845,0.707157971851
32019259106,1987,32024000000,world,10.8999703544,-8.65000005893,4.89999549694,-5.33962415836e-05,-2.20936099907e-05,0.707055371332,0.707158184943
32039457367,1988,32040000000,world,10.899970255,-8.64999990729,4.89999522621,-5.39239344081e-05,-2.23671191041e-05,0.707055154141,0.707158402054
32049523030,1989,32056000000,world,10.8999699734,-8.64999985252,4.89999509033,-5.4198646594e-05,-2.25273365642e-05,0.707055052496,0.707158503657
32069650046,1990,32072000000,world,10.8999700113,-8.64999983389,4.89999506665,-5.4964582148e-05,-2.29682191562e-05,0.707054698473,0.707158857555
32099820509,1991,32088000000,world,10.8999700888,-8.64999982291,4.89999506153,-5.54955965763e-05,-2.32582581601e-05,0.707054454827,0.707159101114
32119943392,1992,32104000000,world,10.8999703008,-8.64999983084,4.89999510761,-5.60318898305e-05,-2.35453718198e-05,0.707054203121,0.707159352731
32150112477,1993,32128000000,world,10.8999705455,-8.64999990425,4.89999525947,-5.68799621726e-05,-2.39809442982e-05,0.707053829268,0.707159726446
32150112477,1994,32152000000,world,10.8999704085,-8.65000016636,4.89999563426,-5.77603787799e-05,-2.44830894832e-05,0.707053471955,0.707160083617
32150112477,1995,32152000000,world,10.8999704933,-8.65000008735,4.89999552787,-5.8100025573e-05,-2.45951778503e-05,0.707053347193,0.707160208328
32160202347,1996,32168000000,world,10.8999703913,-8.65000019855,4.89999567936,-5.84040859149e-05,-2.47713774587e-05,0.707053230911,0.707160324561
32180349256,1997,32184000000,world,10.8999704151,-8.65000019096,4.89999567023,-5.90196816147e-05,-2.50940122997e-05,0.707052987361,0.707160568011
32190405532,1998,32200000000,world,10.899970542,-8.65000007038,4.89999550816,-5.93571168674e-05,-2.52132556288e-05,0.707052859226,0.707160696095
32200459901,1999,32216000000,world,10.8999705974,-8.65000004381,4.89999547482,-6.03506113827e-05,-2.56412277031e-05,0.707052477575,0.707161077588
32230584549,2000,32232000000,world,10.8999707289,-8.64999988463,4.89999526513,-6.10008375228e-05,-2.59291127691e-05,0.70705221648,0.707161338577
32250693510,2001,32248000000,world,10.8999707341,-8.64999968331,4.8999949768,-6.16903939776e-05,-2.61966644622e-05,0.707051973972,0.707161580978
32260749477,2002,32264000000,world,10.8999704321,-8.64999965646,4.89999485594,-6.20530686194e-05,-2.63543766484e-05,0.707051871882,0.707161683014
32291881612,2003,32280000000,world,10.8999704106,-8.64999964281,4.89999483403,-6.30470059514e-05,-2.67999011701e-05,0.707051563322,0.707161991421
32291881612,2004,32296000000,world,10.8999703577,-8.649999645,4.89999482251,-6.369659428e-05,-2.71107902072e-05,0.707051382057,0.707162172588
32311995146,2005,32312000000,world,10.8999703275,-8.64999964965,4.89999481946,-6.43423930447e-05,-2.7420892569e-05,0.707051204773,0.707162349774
32322050460,2006,32328000000,world,10.8999703179,-8.64999965038,4.89999481481,-6.49859577456e-05,-2.77288777905e-05,0.70705102984,0.707162524608
32342204346,2007,32344000000,world,10.8999703315,-8.64999964731,4.89999481187,-6.56269142154e-05,-2.80348070448e-05,0.707050856438,0.707162697912
32382647663,2008,32368000000,world,10.8999702448,-8.64999965528,4.89999479013,-6.65901047926e-05,-2.85004294856e-05,0.707050614482,0.707162939721
32382647663,2009,32384000000,world,10.8999703789,-8.64999963089,4.89999479325,-6.72165702699e-05,-2.87957356064e-05,0.707050455097,0.707163099009
32392901506,2010,32392000000,world,10.8999706618,-8.64999958963,4.89999482625,-6.75147013683e-05,-2.89279339779e-05,0.707050369634,0.707163184425
32403035653,2011,32408000000,world,10.8999708842,-8.64999956522,4.89999486692,-6.81274263153e-05,-2.92183855414e-05,0.707050222353,0.707163331611
32423145158,2012,32424000000,world,10.8999708295,-8.64999956324,4.89999484176,-6.84438343602e-05,-2.93738519515e-05,0.707050161206,0.707163392712
32433240455,2013,32440000000,world,10.8999711325,-8.64999955155,4.89999493792,-6.90444460938e-05,-2.96568151158e-05,0.707050032261,0.707163521566
32453523551,2014,32456000000,world,10.8999713338,-8.64999979147,4.8999954585,-6.99159429633e-05,-3.01289301132e-05,0.707049881634,0.707163672063
32463757165,2015,32472000000,world,10.8999713118,-8.64999990614,4.89999566067,-7.04776582204e-05,-3.0474780573e-05,0.707049801378,0.707163752236
32494061064,2016,32488000000,world,10.8999712772,-8.64999999796,4.89999581689,-7.10603428142e-05,-3.07945100006e-05,0.707049729003,0.707163824526
32494061064,2017,32504000000,world,10.8999712552,-8.65000005212,4.89999590773,-7.16595801622e-05,-3.10860676092e-05,0.707049667077,0.70716388637
32514333554,2018,32520000000,world,10.8999712775,-8.65000005127,4.89999591226,-7.22173067516e-05,-3.14038508546e-05,0.707049622493,0.707163930875
32534685160,2019,32536000000,world,10.899971341,-8.64999999461,4.89999582937,-7.27959649573e-05,-3.16889602418e-05,0.70704959571,0.707163957582
32544917275,2020,32552000000,world,10.8999714355,-8.64999984719,4.89999559484,-7.31147765688e-05,-3.17926938981e-05,0.707049587429,0.707163965824
32565151052,2021,32568000000,world,10.8999714776,-8.64999971549,4.89999537543,-7.36848101364e-05,-3.20871546155e-05,0.707049594013,0.707163959168
32575239471,2022,32584000000,world,10.899971375,-8.64999960631,4.89999515854,-7.4510426598e-05,-3.25754126334e-05,0.70704964934,0.707163903741
32595435426,2023,32600000000,world,10.8999711796,-8.64999955601,4.89999502159,-7.50834046279e-05,-3.28929704866e-05,0.707049712732,0.707163840285
32615623254,2024,32616000000,world,10.8999710175,-8.64999954364,4.89999495841,-7.56587628646e-05,-3.32035584976e-05,0.707049787039,0.707163765914
32635830757,2025,32632000000,world,10.8999709234,-8.64999953718,4.89999492261,-7.62093735646e-05,-3.35314354819e-05,0.707049872373,0.707163680519
32656242751,2026,32656000000,world,10.8999707064,-8.64999954026,4.89999487447,-7.70383448898e-05,-3.40348791637e-05,0.707050025085,0.707163527718
32656242751,2027,32664000000,world,10.8999707064,-8.64999954026,4.89999487447,-7.70383448898e-05,-3.40348791637e-05,0.707050025085,0.707163527718
32676465970,2028,32680000000,world,10.8999710292,-8.64999951517,4.899994907,-7.78289007441e-05,-3.45104119087e-05,0.707050183886,0.707163368833
32686548954,2029,32696000000,world,10.8999709155,-8.64999951608,4.89999487936,-7.81084329098e-05,-3.46841468198e-05,0.707050251861,0.707163300829
32706684027,2030,32712000000,world,10.8999714387,-8.64999950759,4.8999949991,-7.88861544878e-05,-3.51551591711e-05,0.707050422953,0.707163129655
32726843079,2031,32728000000,world,10.8999716998,-8.64999951809,4.89999510453,-7.94238829946e-05,-3.54639195139e-05,0.707050537892,0.707163014659
32736939222,2032,32744000000,world,10.8999716675,-8.64999951377,4.89999507897,-7.97044067662e-05,-3.56293060683e-05,0.707050600446,0.707162952075
32777210815,2033,32768000000,world,10.8999721396,-8.64999969835,4.89999588356,-8.10564585528e-05,-3.6431591868e-05,0.707050861215,0.707162691152
32787268733,2034,32784000000,world,10.8999721573,-8.6499996846,4.89999583969,-8.13447365143e-05,-3.65861100543e-05,0.707050911929,0.707162640405
32797323272,2035,32792000000,world,10.8999720631,-8.6499997738,4.8999961319,-8.16065936784e-05,-3.67821665546e-05,0.707050965147,0.707162587156
32807380054,2036,32816000000,world,10.8999720675,-8.64999978366,4.89999617177,-8.25123771054e-05,-3.72037918851e-05,0.707051098717,0.707162453479
32817473789,2037,32824000000,world,10.8999719501,-8.6499998536,4.89999636156,-8.28004101289e-05,-3.73720642507e-05,0.707051144745,0.707162407416
32837635992,2038,32840000000,world,10.8999720452,-8.64999980215,4.8999962248,-8.30949086593e-05,-3.75005634908e-05,0.707051179503,0.707162372622
32847758274,2039,32856000000,world,10.899972051,-8.64999980139,4.89999622512,-8.36768956731e-05,-3.77758666805e-05,0.707051252316,0.707162299737
32867941469,2040,32872000000,world,10.8999719965,-8.64999983771,4.89999631751,-8.45711480769e-05,-3.8142833084e-05,0.707051354591,0.707162197352
32888164255,2041,32888000000,world,10.8999720321,-8.64999981643,4.89999626072,-8.51394167112e-05,-3.83924177148e-05,0.707051418511,0.707162133361
32898219031,2042,32904000000,world,10.8999720802,-8.64999978523,4.89999618878,-8.57200731057e-05,-3.86165440215e-05,0.707051488252,0.707162063548
32918331341,2043,32920000000,world,10.8999721419,-8.64999974459,4.89999609424,-8.63090387413e-05,-3.88188393543e-05,0.707051565705,0.707161986025
32928385287,2044,32936000000,world,10.8999722785,-8.64999965252,4.89999587608,-8.65932518878e-05,-3.89092982989e-05,0.707051601843,0.707161949853
32948659429,2045,32952000000,world,10.8999723597,-8.64999959293,4.89999576426,-8.73916893249e-05,-3.9236549617e-05,0.707051729863,0.707161821736
32958845035,2046,32968000000,world,10.8999725036,-8.64999950646,4.89999544387,-8.76763797699e-05,-3.92897957114e-05,0.707051767132,0.707161784434
32979075772,2047,32984000000,world,10.8999723841,-8.64999965185,4.89999523241,-8.8384203932e-05,-3.95910791605e-05,0.707051897702,0.70716165378
32999419365,2048,33000000000,world,10.8999722766,-8.6499997619,4.89999517888,-8.8813244588e-05,-3.9764723145e-05,0.707051979444,0.707161571987
33009476099,2049,33016000000,world,10.8999721189,-8.64999991568,4.89999516409,-8.90114577779e-05,-3.98588434265e-05,0.707052023489,0.707161527919
33029746506,2050,33032000000,world,10.8999723654,-8.64999968045,4.89999514539,-8.95540588263e-05,-4.0003864175e-05,0.707052117439,0.707161433906
33039804341,2051,33048000000,world,10.8999723109,-8.64999973415,4.8999951283,-8.97115620353e-05,-4.00633646904e-05,0.707052153472,0.707161397856
33059916173,2052,33064000000,world,10.8999726816,-8.6499993436,4.89999545617,-9.01026364116e-05,-4.01599789728e-05,0.707052241148,0.707161310138
33080134592,2053,33080000000,world,10.89997269,-8.6499993396,4.89999542436,-9.0231659773e-05,-4.01842899274e-05,0.707052278397,0.707161272877
33100442342,2054,33096000000,world,10.8999725641,-8.64999939867,4.89999593952,-9.06589355422e-05,-4.03314519254e-05,0.707052449115,0.707161102123
33110500065,2055,33120000000,world,10.8999724906,-8.64999944064,4.89999613637,-9.08442254397e-05,-4.04127642836e-05,0.707052546679,0.707161004545
33120557434,2056,33128000000,world,10.8999723805,-8.64999950828,4.8999963891,-9.09234146768e-05,-4.04695844294e-05,0.707052603307,0.707160947913
33140673490,2057,33144000000,world,10.8999723276,-8.64999954239,4.89999650755,-9.11127049557e-05,-4.05134912373e-05,0.707052718683,0.707160832527
33170886704,2058,33168000000,world,10.8999723606,-8.64999952164,4.89999645546,-9.13449055737e-05,-4.05901889074e-05,0.707052901863,0.707160649341
33191040113,2059,33176000000,world,10.8999722603,-8.64999958797,4.89999664918,-9.140990123e-05,-4.06399953262e-05,0.707052969516,0.707160581687
33191040113,2060,33192000000,world,10.8999722482,-8.64999959707,4.89999667858,-9.15843379964e-05,-4.0669178837e-05,0.707053095588,0.707160455609
33211190681,2061,33208000000,world,10.8999722726,-8.6499995795,4.89999664739,-9.17278440666e-05,-4.07243447558e-05,0.707053219993,0.707160331202
33231351018,2062,33224000000,world,10.8999723578,-8.64999951702,4.89999651471,-9.19049312231e-05,-4.07366712292e-05,0.707053345224,0.707160205966
33241408809,2063,33240000000,world,10.8999724911,-8.64999942204,4.89999626361,-9.21014004151e-05,-4.0721381316e-05,0.707053472723,0.707160078461
33251464404,2064,33256000000,world,10.8999725866,-8.64999936821,4.89999588738,-9.22557666242e-05,-4.07480141494e-05,0.707053608565,0.707159942618
33271578884,2065,33272000000,world,10.8999723295,-8.64999957189,4.89999597358,-9.23106908638e-05,-4.0820467408e-05,0.707053693664,0.70715985752
33281634702,2066,33288000000,world,10.8999722978,-8.64999959793,4.89999598015,-9.25161143051e-05,-4.0870467061e-05,0.707053937782,0.70715961341
33301749296,2067,33304000000,world,10.8999722844,-8.64999960945,4.8999959834,-9.26569979707e-05,-4.08734760965e-05,0.707054121956,0.707159429244
33311807340,2068,33320000000,world,10.8999723405,-8.64999956528,4.89999594867,-9.28051450709e-05,-4.08405597383e-05,0.707054317312,0.707159233899
33331926184,2069,33336000000,world,10.8999724723,-8.64999946207,4.89999587463,-9.29236186073e-05,-4.0808003017e-05,0.707054514257,0.707159036971
33352075033,2070,33352000000,world,10.8999726981,-8.64999929191,4.89999576187,-9.30163260416e-05,-4.07685485071e-05,0.707054705443,0.707158845802
33372270306,2071,33376000000,world,10.8999725348,-8.64999948506,4.89999595814,-9.31199702406e-05,-4.07816422601e-05,0.707055005078,0.707158546198
33392510577,2072,33392000000,world,10.8999724179,-8.6499996151,4.89999608854,-9.32020946557e-05,-4.07593848453e-05,0.707055202337,0.707158348957
33402566543,2073,33400000000,world,10.899972483,-8.64999954633,4.89999601953,-9.32644402118e-05,-4.0705517688e-05,0.707055296682,0.707158254621
33412648260,2074,33416000000,world,10.8999724277,-8.64999961156,4.89999608414,-9.33235804831e-05,-4.06799893493e-05,0.707055499516,0.707158051811
33432904524,2075,33432000000,world,10.8999724201,-8.64999962609,4.89999609659,-9.33720251645e-05,-4.06447071061e-05,0.707055714549,0.707157836804
33442961310,2076,33448000000,world,10.8999724745,-8.6499995738,4.8999960424,-9.34298726816e-05,-4.05733507714e-05,0.707055947834,0.707157603549
33463113649,2077,33464000000,world,10.8999725806,-8.64999945812,4.89999592614,-9.3455672003e-05,-4.05095587351e-05,0.707056198513,0.707157352906
33473302903,2078,33480000000,world,10.8999727221,-8.64999927505,4.89999574671,-9.34699002949e-05,-4.0435786085e-05,0.707056466232,0.707157085228
33493455047,2079,33496000000,world,10.8999728274,-8.64999901577,4.89999550875,-9.35056609396e-05,-4.03319420026e-05,0.707056748722,0.707156802779
33503518188,2080,33512000000,world,10.899972546,-8.64999914554,4.89999566011,-9.34863065464e-05,-4.03240868635e-05,0.707057057988,0.707156493559
33523857844,2081,33528000000,world,10.8999723464,-8.64999924871,4.89999578424,-9.34621428366e-05,-4.02958677014e-05,0.707057366291,0.707156185305
33543971083,2082,33544000000,world,10.8999724273,-8.64999920607,4.89999573095,-9.34621879056e-05,-4.02395465047e-05,0.707057512395,0.707156039224
33553990876,2083,33560000000,world,10.8999721747,-8.64999933979,4.89999589503,-9.34129329432e-05,-4.01657697746e-05,0.707057972102,0.707155579592
33574184216,2084,33576000000,world,10.89997218,-8.64999933851,4.89999589121,-9.33912243026e-05,-4.00686153027e-05,0.707058270084,0.707155281659
33584238563,2085,33592000000,world,10.8999723483,-8.64999925094,4.89999578061,-9.33727321896e-05,-4.00027464142e-05,0.707058411667,0.707155140101
33604604261,2086,33608000000,world,10.8999723057,-8.64999927662,4.8999958086,-9.33177582344e-05,-3.98704314323e-05,0.707058862576,0.707154689269
33614663111,2087,33624000000,world,10.8999724288,-8.64999921425,4.89999572877,-9.32685016879e-05,-3.97722106154e-05,0.707059164395,0.707154387503
33644903581,2088,33640000000,world,10.8999726582,-8.64999908565,4.89999557619,-9.32605399307e-05,-3.96856544958e-05,0.707059311345,0.707154240579
33654961027,2089,33656000000,world,10.8999728539,-8.6499989697,4.89999544431,-9.32064095662e-05,-3.95364788341e-05,0.707059787267,0.707153764736
33665022278,2090,33672000000,world,10.8999731193,-8.64999874948,4.89999520941,-9.32078440579e-05,-3.93939212872e-05,0.707060105114,0.707153446938
33695330011,2091,33688000000,world,10.8999728416,-8.64999890181,4.89999537502,-9.31939290336e-05,-3.93956088971e-05,0.707060282051,0.707153270026
33725809118,2092,33704000000,world,10.8999725079,-8.64999908721,4.89999557665,-9.32032402648e-05,-3.92080603953e-05,0.707061112832,0.707152439363
33725809118,2093,33720000000,world,10.8999722892,-8.64999921022,4.89999570928,-9.32082429145e-05,-3.91913618026e-05,0.707061285369,0.707152266848
33725809118,2094,33736000000,world,10.8999723823,-8.64999915895,4.89999565298,-9.32116336934e-05,-3.91338500327e-05,0.707061443919,0.707152108322
33746290092,2095,33752000000,world,10.899972281,-8.64999921605,4.89999571345,-9.32209039312e-05,-3.90535557347e-05,0.707061773456,0.70715177883
33766581017,2096,33768000000,world,10.8999721898,-8.64999926767,4.89999576973,-9.32290119226e-05,-3.89708556857e-05,0.707062103396,0.707151448935
33776652344,2097,33784000000,world,10.8999720987,-8.64999931705,4.89999582467,-9.32367586549e-05,-3.88878919167e-05,0.707062433387,0.707151118989
33796829666,2098,33800000000,world,10.8999719065,-8.64999942427,4.89999594337,-9.32407252553e-05,-3.88659236337e-05,0.707062605573,0.707150946825
33806886973,2099,33816000000,world,10.8999718355,-8.6499994654,4.89999598849,-9.32622798898e-05,-3.87638576698e-05,0.707062938386,0.707150614056
33826996911,2100,33832000000,world,10.8999719207,-8.64999942015,4.89999593443,-9.32588837736e-05,-3.86151851449e-05,0.707063435098,0.707150117414
33847352465,2101,33848000000,world,10.8999719189,-8.64999942301,4.89999593558,-9.3254917634e-05,-3.85191948358e-05,0.70706377495,0.70714977761
33857408505,2102,33864000000,world,10.8999719527,-8.64999940479,4.89999591261,-9.32509164932e-05,-3.84142482659e-05,0.707064119231,0.707149433377
33877561178,2103,33880000000,world,10.8999718322,-8.64999947285,4.89999598766,-9.32487560788e-05,-3.83793355091e-05,0.707064299742,0.707149252889
33897676372,2104,33904000000,world,10.8999720051,-8.64999937625,4.89999587672,-9.32346035979e-05,-3.81523878329e-05,0.707065002868,0.707148549861
33907734304,2105,33912000000,world,10.8999722087,-8.64999926055,4.89999574955,-9.32504832805e-05,-3.80545414695e-05,0.707065172013,0.707148380739
33928051797,2106,33928000000,world,10.8999723233,-8.64999919463,4.89999567721,-9.32410134117e-05,-3.7940545366e-05,0.707065521488,0.707148031313
33938106729,2107,33944000000,world,10.899972443,-8.64999912397,4.89999559962,-9.32335058653e-05,-3.78255528467e-05,0.707065870365,0.707147682483
33958399531,2108,33960000000,world,10.8999723564,-8.64999917543,4.89999565615,-9.32295091037e-05,-3.77883306612e-05,0.70706605198,0.707147500892
33968494309,2109,33976000000,world,10.8999726846,-8.64999897981,4.89999544145,-9.32271183669e-05,-3.75882088032e-05,0.70706657286,0.707146980082
33988685497,2110,33992000000,world,10.8999728051,-8.64999890705,4.89999536152,-9.32432352128e-05,-3.74497508435e-05,0.707066926427,0.707146626561
33998743205,2111,34008000000,world,10.8999729246,-8.64999883457,4.89999528195,-9.32366557036e-05,-3.73335697983e-05,0.707067281539,0.707146271495
34018931773,2112,34024000000,world,10.899972841,-8.64999888634,4.89999533843,-9.32225670009e-05,-3.73043244749e-05,0.707067464702,0.707146088357
34039206413,2113,34040000000,world,10.8999731866,-8.6499986708,4.89999510439,-9.32238307955e-05,-3.70863154454e-05,0.707067982832,0.707145570295
34049262364,2114,34056000000,world,10.899973338,-8.64999856983,4.89999499971,-9.32223514879e-05,-3.69500147083e-05,0.707068328695,0.707145224477
34069376167,2115,34072000000,world,10.8999732781,-8.64999861245,4.89999504148,-9.32202124481e-05,-3.69011201869e-05,0.707068507549,0.707145045645
34079510860,2116,34088000000,world,10.8999736671,-8.64999833244,4.89999476687,-9.3236664251e-05,-3.66561715598e-05,0.707069021526,0.707144531734
34099661498,2117,34104000000,world,10.8999738399,-8.64999819777,4.89999464216,-9.32339064107e-05,-3.65227162007e-05,0.707069373014,0.707144180291
34119820616,2118,34120000000,world,10.8999737954,-8.64999823452,4.89999467384,-9.32304403415e-05,-3.64773180779e-05,0.707069556141,0.707143997186
34140121924,2119,34136000000,world,10.8999742027,-8.64999789091,4.89999438425,-9.32559468179e-05,-3.62331363352e-05,0.707070085556,0.707143467836
34150218868,2120,34152000000,world,10.8999743929,-8.64999771332,4.89999425591,-9.32563253014e-05,-3.60922274633e-05,0.707070442413,0.707143111022
34170337105,2121,34168000000,world,10.8999745872,-8.64999752443,4.89999412887,-9.32732748158e-05,-3.59285010413e-05,0.707070798498,0.70714275498
