%time,field.header.seq,field.header.stamp,field.header.frame_id,field.twist.linear.x,field.twist.linear.y,field.twist.linear.z,field.twist.angular.x,field.twist.angular.y,field.twist.angular.z
27605327023,1724,27608000000,world,-1.97549102009e-05,-1.56169712292e-05,-3.61077413674e-07,0.059877099611,0.00779057578963,0.0626149582351
27615495609,1725,27624000000,world,-1.80666756188e-05,-1.4316506096e-05,-3.30311222804e-07,0.0598756006231,0.00779640967472,0.06261638159
27635658744,1726,27640000000,world,-1.65903426914e-05,-1.32300455647e-05,-1.92463066854e-07,0.0598742075318,0.00780363117801,0.0626188194072
27655818448,1727,27656000000,world,-1.61545042606e-05,-1.24342963448e-05,-1.14761865586e-06,0.0598737059012,0.00780781378367,0.0626202650756
27665873734,1728,27672000000,world,-1.51209068861e-05,-1.13417332026e-05,-1.75364070973e-06,0.0598725827991,0.0078164681638,0.0626233667544
27696043356,1729,27688000000,world,-1.19024160204e-05,-1.12571328342e-05,4.98940954771e-06,0.0598699443296,0.00782956364619,0.0626279168516
27716157039,1730,27704000000,world,-1.46376319295e-05,-1.57213764058e-05,1.52171626689e-05,0.0598650692711,0.00783483737012,0.0626279194853
27726218968,1731,27720000000,world,-2.12326814808e-05,-2.01717665519e-05,7.58781744275e-06,0.0598685708592,0.00784304647591,0.0626265672794
27726218968,1732,27736000000,world,-1.76398462625e-05,-1.64325291382e-05,3.45554587627e-06,0.059867610167,0.00784981115368,0.0626265329028
27746458410,1733,27752000000,world,-1.28784802615e-05,-1.21771094678e-05,4.96875144544e-06,0.0598655459929,0.00785580050725,0.0626262623283
27766703743,1734,27768000000,world,-1.02467764294e-05,-6.69764102066e-06,5.8527544507e-06,0.059861608707,0.00786203216952,0.0626244302
27776760605,1735,27784000000,world,-2.03085787733e-06,-1.77105113361e-05,1.03838890552e-05,0.0598590677057,0.00786597869586,0.0626234487779
27796875197,1736,27800000000,world,-2.60918643242e-05,-3.67701904741e-05,3.78223447396e-05,0.0598412059441,0.00787181211114,0.0626127752256
27816993662,1737,27816000000,world,-3.58141819122e-05,-5.86508895754e-05,6.80372949408e-05,0.0598236004044,0.00787795294274,0.0626066820691
27847202693,1738,27840000000,world,-5.57235019364e-05,-9.58682099305e-05,0.000114467224726,0.0597969884212,0.00788925733421,0.0625966619181
27847202693,1739,27848000000,world,-7.10305677475e-05,-0.000121373119347,0.000144661784677,0.0597791525008,0.00789988952845,0.0625911324898
27867564914,1740,27864000000,world,-7.88211599603e-05,-0.000133870152609,0.000159012512684,0.0597704288062,0.00790570071539,0.0625890143684
27877653507,1741,27880000000,world,-9.52096851279e-05,-0.000157599779186,0.000184264384534,0.0597532965205,0.0079186155505,0.0625872198318
27887710948,1742,27896000000,world,-0.000111542171285,-0.000180360664252,0.000207261715508,0.0597364980751,0.00793243347197,0.0625874396091
27907844619,1743,27912000000,world,-0.000127435700852,-0.00020258654461,0.000229304348002,0.059719996651,0.00794671756437,0.0625888884867
27927955476,1744,27928000000,world,-0.000142952230968,-0.000224158816558,0.000250882049285,0.0597045805379,0.00796096094141,0.0625919913153
27948050255,1745,27944000000,world,-0.00015796196466,-0.000245171504832,0.000272672889453,0.0596916605982,0.00797435585108,0.0625959374295
27958107272,1746,27960000000,world,-0.000172408833178,-0.000265928426103,0.000295049357138,0.0596816841613,0.00798655575401,0.0625993823775
27978192729,1747,27976000000,world,-0.000186473346906,-0.000286735760193,0.000317728143439,0.059672909755,0.00799835554292,0.0626023734775
27988252300,1748,27992000000,world,-0.000200148961757,-0.000307634157393,0.000341053433523,0.0596664909198,0.0080090216968,0.0626041342764
27998480994,1749,28008000000,world,-0.000213624753219,-0.000328832700925,0.000364700064739,0.0596603261389,0.00801947437578,0.0626054041427
28018622827,1750,28024000000,world,-0.000226527737182,-0.000349861269196,0.000387305651797,0.0596537880694,0.00803011288411,0.0626064826155
28038839843,1751,28040000000,world,-0.000238338587328,-0.000370145195504,0.000408012663479,0.0596469339936,0.00804298744717,0.0626085084861
28048921615,1752,28056000000,world,-0.000245459528058,-0.000387929547737,0.000424648418626,0.0596408169309,0.00805556996768,0.0626115709798
28069103369,1753,28072000000,world,-0.000246519584743,-0.000395477021523,0.000430780069319,0.0596385192782,0.00806174325647,0.0626142850915
28079163948,1754,28088000000,world,-0.000247070172614,-0.0004151693012,0.000446180067672,0.0596336006927,0.00807915624205,0.0626268833164
28099298107,1755,28104000000,world,-0.000244981303526,-0.000424956957433,0.00045378865306,0.0596308554572,0.00808811109766,0.0626377480493
28119414760,1756,28120000000,world,-0.000243683123689,-0.000429217003224,0.000457227208641,0.0596290741264,0.00809123956342,0.0626430245659
28129500350,1757,28136000000,world,-0.000241501206021,-0.000437405985014,0.000463961042091,0.0596247487035,0.00809620405064,0.0626532606447
28149653177,1758,28152000000,world,-0.000239384456775,-0.000449053236601,0.000474052676381,0.0595946715775,0.00808628125767,0.0626652212885
28159738847,1759,28168000000,world,-0.000239180679065,-0.000452941245717,0.000477076138851,0.0595927891237,0.0080863166576,0.0626696755137
28179933089,1760,28184000000,world,-0.000239500041624,-0.00046440269987,0.000486152780955,0.0595880591465,0.00808540483699,0.0626805349844
28189989222,1761,28200000000,world,-0.000240549144037,-0.000471712111776,0.000492291706111,0.0595849912814,0.00808464526865,0.0626842980737
28210331233,1762,28216000000,world,-0.000241236364198,-0.000475201873382,0.000495422950482,0.0595832782237,0.00808444972195,0.062685082448
28230592899,1763,28232000000,world,-0.000242781779666,-0.000481984449005,0.000501752834326,0.059579963728,0.00808396836797,0.062686394476
28240650563,1764,28248000000,world,-0.000244538960335,-0.000488468848699,0.000508208790032,0.059576975154,0.00808325475879,0.0626875438633
28271207957,1765,28264000000,world,-0.00024743468877,-0.000497980668633,0.000517978772648,0.059573231058,0.00808174553763,0.0626900506602
28271207957,1766,28280000000,world,-0.000249218961805,-0.000503558023448,0.000523453762375,0.0595713502048,0.00808258502829,0.0626914302382
28291341623,1767,28296000000,world,-0.000250606246902,-0.000508347016145,0.000527430763721,0.0595697984873,0.00808530600142,0.0626916656964
28311520879,1768,28312000000,world,-0.000251131884071,-0.000510404279085,0.000528809867348,0.0595694292191,0.0080866871342,0.0626925952196
28321577512,1769,28328000000,world,-0.000252527356979,-0.000516103442212,0.000532270674454,0.0595685092004,0.00809064440408,0.0626962176984
28341931810,1770,28344000000,world,-0.000253345086327,-0.000519537236759,0.000534127691464,0.0595679091506,0.00809315042373,0.0626990225616
28352204167,1771,28360000000,world,-0.000252065893997,-0.000519924470411,0.000534126877719,0.0595672273445,0.00809476882434,0.0627018828639
28372543372,1772,28376000000,world,-0.000247609319436,-0.000519247170824,0.000532909781335,0.0595653979952,0.0080983836582,0.0627094443066
28392723081,1773,28392000000,world,-0.000235267237983,-0.00051369556513,0.000527206284262,0.0595616626057,0.0081041168603,0.0627267699088
28412978814,1774,28408000000,world,-0.000224670901935,-0.000507809320963,0.000521422853606,0.0595590759093,0.00810735238223,0.0627413453716
28423072482,1775,28424000000,world,-0.000214008913467,-0.000501313137219,0.000514993017664,0.0595567753642,0.0081098580389,0.0627565883057
28433132040,1776,28440000000,world,-0.000208932344916,-0.000497997572037,0.000511683602072,0.0595557606493,0.00811089765739,0.0627640451075
28453288651,1777,28456000000,world,-0.00019956327775,-0.000491269561447,0.00050507736877,0.059553689998,0.00811362268095,0.0627783596174
28463368057,1778,28472000000,world,-0.000187562064117,-0.0004809020992,0.000495651841119,0.0595507327171,0.00812036463703,0.0627979032194
28483548252,1779,28488000000,world,-0.00018088179988,-0.000473867652738,0.000489813226867,0.0595488377513,0.00812720044671,0.0628093516597
28503868188,1780,28504000000,world,-0.000175104913215,-0.000466923857702,0.000484062501434,0.0595472001645,0.00813485959868,0.0628192730988
28513923184,1781,28520000000,world,-0.000170093370772,-0.000460199284544,0.000478211105713,0.0595459778374,0.00814260032013,0.0628274566268
28534065096,1782,28536000000,world,-0.00016562514143,-0.00045370783463,0.000472159511813,0.0595451162148,0.00815003213002,0.0628344153554
28544289590,1783,28552000000,world,-0.00016156473788,-0.000447400534735,0.000465946521707,0.0595444492941,0.00815732244781,0.06284058748
28564418940,1784,28568000000,world,-0.000157466396818,-0.000440931348867,0.000458236103866,0.0595436891021,0.0081639329707,0.0628484030855
28574512598,1785,28584000000,world,-0.000155270230592,-0.000437506414391,0.000453642541779,0.0595430054354,0.00816564567146,0.0628536992208
28594651442,1786,28600000000,world,-0.000151052224994,-0.000430354371788,0.000444062947789,0.0595415701824,0.00816791404711,0.0628641162048
28614842745,1787,28616000000,world,-0.00014510565738,-0.000418951672929,0.000429162528742,0.0595396389158,0.00816930929419,0.0628795445947
28624898312,1788,28632000000,world,-0.000141511409989,-0.0004109178755,0.000419547329778,0.0595387168955,0.00817146000753,0.0628885984269
28645012120,1789,28648000000,world,-0.000139869530242,-0.000406929149195,0.000415012221088,0.0595384057218,0.00817361731095,0.0628927423665
28655101412,1790,28664000000,world,-0.000135076706489,-0.000395043286212,0.000401889398223,0.059537731243,0.00818148092687,0.0629047478049
28675213292,1791,28680000000,world,-0.000132000610629,-0.000387359647281,0.000393639600836,0.059537468268,0.00818802065558,0.062912319304
28705650711,1792,28704000000,world,-0.000123362479092,-0.000373395760048,0.000377984876949,0.0595374503306,0.00819551688264,0.0629219944893
28725847272,1793,28712000000,world,-0.000118865728562,-0.000367833605556,0.000371262459345,0.0595375323482,0.00819686452916,0.0629249229584
28735940917,1794,28728000000,world,-0.000101670998292,-0.00034816281541,0.000346501639288,0.0595377768381,0.00819736306189,0.0629335783352
28745994657,1795,28744000000,world,-9.6015919195e-05,-0.000341137597024,0.000337749535335,0.0595377505476,0.00819714402528,0.0629366093322
28766299700,1796,28768000000,world,-8.01841548415e-05,-0.000319060639094,0.000310665582726,0.059537076732,0.00819597080338,0.0629468772708
28766299700,1797,28776000000,world,-8.01841548415e-05,-0.000319060639094,0.000310665582726,0.059537076732,0.00819597080338,0.0629468772708
28786418005,1798,28792000000,world,-6.739842283e-05,-0.000296617315424,0.000284306570585,0.0595356773463,0.00819664585297,0.0629595664425
28806548340,1799,28808000000,world,-6.04078282507e-05,-0.000281786834929,0.000268023676797,0.0595344365962,0.00819819405028,0.0629689141056
28826663494,1800,28832000000,world,-5.18646996988e-05,-0.000260231045195,0.000245717485996,0.0595324835872,0.00819976250795,0.0629813138862
28836789761,1801,28840000000,world,-5.18646996988e-05,-0.000260231045195,0.000245717485996,0.0595324835872,0.00819976250795,0.0629813138862
28846872754,1802,28856000000,world,-4.50460320669e-05,-0.000239226306332,0.000224763240828,0.0595301332714,0.00820225904026,0.0629915955224
28867014727,1803,28872000000,world,-4.12002398168e-05,-0.000225513748933,0.000211252009727,0.0595268863805,0.00820735203376,0.0629992160784
28887126647,1804,28888000000,world,-3.75928415272e-05,-0.000211751226364,0.000197842496166,0.0595224751744,0.00821437711397,0.0630082361133
28897184384,1805,28904000000,world,-3.58322923284e-05,-0.00020473419959,0.000191053299612,0.0595199152411,0.00821767190329,0.0630129674112
28917295626,1806,28920000000,world,-3.08413713704e-05,-0.00018342361474,0.000170563610933,0.0595115879429,0.00822734454694,0.0630277971081
28927527062,1807,28936000000,world,-2.93976700973e-05,-0.000176316612559,0.000163652364391,0.0595089447668,0.00823084530492,0.0630330140294
28947731164,1808,28952000000,world,-2.56180544847e-05,-0.000155273795736,0.000143109033851,0.0595010888122,0.00824016101819,0.063048152575
28968097678,1809,28968000000,world,-2.35190069576e-05,-0.000141722391158,0.000129846088755,0.0594959050383,0.00824407321932,0.063056759005
28978154140,1810,28984000000,world,-2.25120677006e-05,-0.000135109923641,0.00012341311818,0.0594933115023,0.00824524926619,0.0630605782294
28998289242,1811,29000000000,world,-1.9246529946e-05,-0.000115539405796,0.000104845926707,0.0594856195999,0.0082493295891,0.0630723952224
29008377218,1812,29016000000,world,-1.51494324109e-05,-0.00010194902385,9.21462853867e-05,0.0594818274888,0.00825380120345,0.063080836695
29038683767,1813,29032000000,world,-8.12448585887e-06,-7.95236636807e-05,7.1362594013e-05,0.0594783105212,0.00826276620325,0.063093810627
29048740072,1814,29048000000,world,-5.79605698468e-06,-7.14781638912e-05,6.3817369664e-05,0.059477466972,0.00826634857041,0.0630977115233
29058797862,1815,29064000000,world,-3.71344064431e-06,-6.30557789001e-05,5.58822860606e-05,0.0594768071519,0.00827020604299,0.0631009856748
29088964183,1816,29080000000,world,-6.70185302922e-07,-2.83362164895e-05,2.47577133042e-05,0.0594742213872,0.0082823844099,0.0631097360895
29099018240,1817,29096000000,world,-4.55829830336e-07,-1.96425904637e-05,1.71313686717e-05,0.0594735401856,0.00828450642969,0.0631109449212
29119159435,1818,29112000000,world,1.10251381363e-07,-2.83698265353e-06,2.45755343239e-06,0.0594720171601,0.00828802379127,0.0631134027547
29119159435,1819,29128000000,world,1.15843959382e-05,-5.81475859792e-05,5.06560843597e-05,0.059459159548,0.00828101519266,0.0631103490653
29139273311,1820,29144000000,world,-5.10853082423e-07,-4.17705910873e-05,3.58312589031e-05,0.0594618709791,0.00828458403236,0.063112791272
29159425619,1821,29160000000,world,-1.28779595886e-06,-2.4279855747e-05,2.05972864999e-05,0.0594644776731,0.00828879568367,0.0631177327208
29169518925,1822,29176000000,world,-8.97373634505e-07,-1.53349062466e-05,1.28945986291e-05,0.0594656562446,0.00829088210851,0.0631204017265
29189671362,1823,29192000000,world,5.02944607772e-07,-6.13786537179e-05,5.54160043138e-05,0.0594543953655,0.00828362682224,0.0631193230371
29199775831,1824,29208000000,world,-1.80018305174e-06,-4.54054741247e-05,3.8917882726e-05,0.0594571703782,0.00828739866989,0.063124264523
29219962319,1825,29224000000,world,-1.38782517652e-06,-2.87541135346e-05,2.45659424299e-05,0.0594525400098,0.00828667493746,0.0631274444859
29240149016,1826,29240000000,world,-5.8071197993e-07,-1.24761656504e-05,1.06226416521e-05,0.0594509490533,0.00828772098391,0.0631296365583
29250206008,1827,29256000000,world,-2.96330018182e-07,-4.47654822986e-06,3.7445530491e-06,0.0594503235971,0.00828814634505,0.0631300985023
29270318069,1828,29272000000,world,-4.92641138705e-06,-5.55106942731e-05,4.5552373521e-05,0.0594398884787,0.00827874860491,0.0631212991455
29280372367,1829,29288000000,world,-2.95207121726e-06,-4.7276024432e-05,3.95857629237e-05,0.0594414853093,0.00828058736287,0.0631219308039
29300519567,1830,29304000000,world,-1.01818726762e-06,-2.41565448513e-05,2.05132208034e-05,0.0594464684782,0.00828619404217,0.0631226363755
29320634054,1831,29320000000,world,-4.02463227846e-07,-9.50108196818e-06,8.02380949672e-06,0.0594494864856,0.00828965920368,0.0631227409349
29340747675,1832,29336000000,world,-2.26754136894e-06,3.09647908583e-06,-6.2636140776e-06,0.0594527612058,0.00829295302646,0.0631220892778
29350802843,1833,29352000000,world,4.6739486514e-06,-4.59730696996e-05,4.66649979547e-05,0.0594367940173,0.00827992193706,0.0631159706574
29360895663,1834,29368000000,world,1.77816196009e-07,-3.32272253077e-05,2.83714482018e-05,0.0594373451048,0.00827979863217,0.0631159474599
29381203884,1835,29384000000,world,8.57771981945e-07,-1.15447128338e-05,9.71324884548e-06,0.0594341264562,0.00828288949303,0.0631254663532
29391261699,1836,29400000000,world,1.29081676872e-06,9.92768760462e-08,-1.71790379117e-07,0.0594318517203,0.00828516515693,0.0631318347622
29411410008,1837,29416000000,world,4.30639379091e-06,-1.89768712732e-05,1.54840778143e-05,0.0594224371203,0.00828889360363,0.0631461332294
29431520582,1838,29432000000,world,7.4652660174e-06,5.28942866719e-06,-4.44619042458e-06,0.0594220294277,0.00829684553925,0.0631589729425
29441623231,1839,29448000000,world,-3.1663670574e-06,-3.65831593911e-05,2.98046412616e-05,0.0594100698559,0.00829022442461,0.0631588065849
29461781681,1840,29464000000,world,1.19558790985e-06,-1.23134717576e-05,9.88541445966e-06,0.0594096643574,0.00829476516845,0.063167443984
29471869462,1841,29480000000,world,2.68562490658e-06,-2.62306185868e-05,2.13050628639e-05,0.059395216901,0.00828590501579,0.0631679344103
29491991435,1842,29496000000,world,3.24639030699e-07,-2.32389024302e-06,2.02196706076e-06,0.0593947585129,0.00828734492974,0.0631730456056
29502103544,1843,29512000000,world,-2.19763370429e-06,8.11084142125e-06,-8.69302844762e-06,0.0593956276332,0.00828883685619,0.063175320367
29522537140,1844,29528000000,world,5.56210494949e-06,-4.21365763559e-05,3.62476480086e-05,0.0593837373643,0.00828020015444,0.0631733897157
29542735601,1845,29544000000,world,1.01841250564e-06,-9.40356899119e-06,7.67037585618e-06,0.0593889469795,0.008289302739,0.0631830267563
29562951908,1846,29560000000,world,6.56528899869e-06,-6.28562116225e-05,5.12926394203e-05,0.0593788461155,0.008284301253,0.0631824810358
29583118760,1847,29576000000,world,4.56554924918e-06,-4.0746951219e-05,3.31313021523e-05,0.0593785781686,0.00829040154898,0.0631896807291
29583118760,1848,29592000000,world,2.13019594563e-06,-1.84276277361e-05,1.48797548545e-05,0.0593769528389,0.00829474327527,0.0631959166985
29603861347,1849,29608000000,world,8.38997819958e-07,-7.16618029588e-06,5.76099509018e-06,0.0593761341508,0.00829665753492,0.0631989458298
29613937618,1850,29624000000,world,5.80876879854e-06,-4.92936118432e-05,3.95453308039e-05,0.0593661681342,0.0082937015459,0.0632011133243
29634345465,1851,29640000000,world,4.45856951306e-06,-3.79034790308e-05,3.04612068846e-05,0.0593681456226,0.00829728173118,0.0632049763195
29654460530,1852,29656000000,world,1.86363394426e-06,-1.50559272597e-05,1.21602786941e-05,0.0593717176406,0.00830389222562,0.0632130171367
29664706862,1853,29672000000,world,4.70544521904e-06,-5.75598000513e-05,4.41905249018e-05,0.0593630869462,0.00829848967074,0.0632173727046
29684817653,1854,29688000000,world,4.85703996194e-06,-3.20489065103e-05,2.52863549538e-05,0.059365480156,0.00830116594684,0.0632263110638
29694876940,1855,29704000000,world,9.76006390543e-07,-6.27145160619e-06,4.8182902538e-06,0.059358797392,0.00829665966207,0.0632309302167
29715014383,1856,29720000000,world,6.16526755764e-07,7.28979668685e-06,-6.0677356582e-06,0.0593580092207,0.0082963337582,0.0632332226279
29735180781,1857,29736000000,world,7.0062086669e-06,-4.17355031381e-05,3.17119462071e-05,0.0593492982425,0.00828714340754,0.0632297087435
29745284845,1858,29752000000,world,3.66649131507e-06,-1.39089268408e-05,1.00131287657e-05,0.0593533283659,0.00829061353474,0.0632334955961
29765530069,1859,29768000000,world,2.89546488198e-06,-1.0642403589e-05,7.55298426969e-06,0.0593527164294,0.00828984245109,0.0632343453957
29775626878,1860,29784000000,world,2.12900554188e-05,-6.06636383236e-05,4.0019093497e-05,0.0593456384732,0.00828380719268,0.063231696802
29795743490,1861,29800000000,world,1.36990500806e-05,-4.64093911428e-05,3.22302760745e-05,0.0593465600483,0.00828454186762,0.063232662124
29826039877,1862,29824000000,world,-2.61536224606e-06,8.88701122747e-06,-6.96347046398e-06,0.0593416595622,0.00828234314047,0.0632375924983
29846241635,1863,29832000000,world,1.4760327844e-05,-5.34472604674e-05,4.09546423675e-05,0.0593311107559,0.00827308402006,0.0632333368042
29846241635,1864,29848000000,world,7.18799196646e-06,-2.67954000273e-05,1.99846808456e-05,0.0593346528245,0.00827805019141,0.0632388959431
29856330120,1865,29864000000,world,-2.02533887796e-07,2.49119763216e-07,-3.11129859217e-07,0.0593368362136,0.00828505024307,0.0632460159189
29876566845,1866,29880000000,world,6.64868638042e-06,-2.44516886733e-05,1.83865646137e-05,0.059331375342,0.00828392545032,0.0632470245616
29886643986,1867,29896000000,world,1.99896705e-05,-5.98196400961e-05,4.49940890374e-05,0.0593204796804,0.00828694951542,0.0632548267771
29906924136,1868,29912000000,world,1.43436580531e-05,-4.67496123809e-05,3.51360690333e-05,0.0593205790863,0.00829145544992,0.0632592783592
29927068425,1869,29928000000,world,5.61614961406e-06,-2.00259913457e-05,1.50799141194e-05,0.0593141192133,0.0082966793597,0.063267880147
29937177158,1870,29944000000,world,1.6843823526e-05,-5.59318650032e-05,4.06997763165e-05,0.0592975617914,0.00830073819421,0.0632775915325
29967508231,1871,29960000000,world,8.03373332628e-06,-2.79571728268e-05,2.06042661559e-05,0.0592982907558,0.00831545049678,0.0632909954432
29967508231,1872,29976000000,world,4.13693117964e-06,-1.38290254257e-05,1.02076559729e-05,0.0592991716093,0.00832248541289,0.0632975775372
29987739349,1873,29992000000,world,2.88198984804e-06,-9.42988789916e-06,6.8048497979e-06,0.0592970818214,0.0083360630248,0.0633122419117
30007907925,1874,30008000000,world,-1.96846368859e-06,5.22171606546e-06,-3.68498216754e-06,0.0592894266829,0.00833410584334,0.0633152439672
30017973237,1875,30024000000,world,1.3040558272e-05,-4.21294701478e-05,2.98640856594e-05,0.0592820521099,0.00833370262436,0.0633182547424
30038087769,1876,30040000000,world,-1.34879248728e-06,4.24762781498e-06,-2.15689915586e-06,0.059287595941,0.00834628482834,0.0633309158932
30048303435,1877,30056000000,world,1.36493175106e-05,-4.3910025478e-05,2.69440734704e-05,0.0592811448932,0.00834372172029,0.0633340706054
30068574725,1878,30072000000,world,3.55626960144e-06,-1.09246096621e-05,6.96935127151e-06,0.059283618918,0.00834957163323,0.0633443543432
30088783393,1879,30088000000,world,1.810750509e-05,-5.8264839964e-05,3.74746837761e-05,0.0592663160219,0.00833847837935,0.06334709419
30129191431,1880,30120000000,world,-2.38976847589e-06,6.78019232027e-06,-4.18494686942e-06,0.0592725421977,0.00835040738329,0.0633680918093
30129191431,1881,30120000000,world,-2.38976847589e-06,6.78019232027e-06,-4.18494686942e-06,0.0592725421977,0.00835040738329,0.0633680918093
30149387009,1882,30136000000,world,1.42375188206e-05,-4.03477005163e-05,2.52881111616e-05,0.0592661146391,0.0083472962683,0.0633712033458
30159448040,1883,30160000000,world,-2.93124285397e-06,8.0900339089e-06,-4.88016615582e-06,0.0592615913629,0.00834926091096,0.0633819605663
30159448040,1884,30168000000,world,1.98828914119e-05,-5.54361160639e-05,3.4333657514e-05,0.0592536800659,0.00834337988967,0.0633803782217
30179631761,1885,30184000000,world,1.39745706278e-05,-3.91411945571e-05,2.46083688722e-05,0.0592553822335,0.00834644719755,0.0633843740968
30199750701,1886,30200000000,world,-3.16962165328e-06,9.12133872213e-06,-5.8728110832e-06,0.0592606589188,0.00835588269863,0.0633960928078
30209829004,1887,30216000000,world,1.33996367882e-05,-3.79209492078e-05,2.41729069299e-05,0.0592541725617,0.00835274805535,0.0633981310199
30231840742,1888,30232000000,world,2.19207658657e-06,-6.1253815306e-06,3.86438483267e-06,0.0592574796098,0.00835811764692,0.0634043858087
30241898125,1889,30248000000,world,1.90356648548e-05,-5.3958234913e-05,3.38471241987e-05,0.0592410674461,0.00834788810379,0.063402348775
30262008990,1890,30264000000,world,8.30549429526e-06,-2.21404335534e-05,1.3717358663e-05,0.0592446609592,0.00835598436102,0.063408750727
30272080698,1891,30280000000,world,-4.29754962762e-06,9.55973885705e-06,-5.61634049467e-06,0.0592476833063,0.00836512073744,0.0634156573046
30302252283,1892,30296000000,world,1.52274172942e-05,-3.7802966511e-05,2.3164404587e-05,0.0592413867029,0.00836543703203,0.0634171696643
30322367593,1893,30312000000,world,-3.74774069458e-06,9.24735134615e-06,-5.41885453949e-06,0.0592359463271,0.00836904889216,0.0634226111611
30342533059,1894,30328000000,world,1.56346627376e-05,-3.85247032891e-05,2.3915785306e-05,0.0592298004215,0.0083658766636,0.0634202103858
30342533059,1895,30344000000,world,9.36314462278e-06,-2.29600644811e-05,1.4437281034e-05,0.0592315145143,0.00836844343601,0.0634212895603
30352625665,1896,30360000000,world,-2.36455582489e-06,8.39418775339e-06,-5.16513326243e-06,0.0592343237241,0.00837302169891,0.0634253363485
30372937559,1897,30376000000,world,1.78680928655e-05,-5.58253693058e-05,3.46760662392e-05,0.0592251985414,0.00836579034595,0.0634226295059
30382993537,1898,30392000000,world,2.65460566421e-06,-7.15105772078e-06,4.37628540911e-06,0.0592267559425,0.00837623032913,0.0634375467691
30403108322,1899,30408000000,world,1.97284352087e-05,-5.46023742041e-05,3.40008813144e-05,0.0592145996439,0.00837730364175,0.0634424465299
30423252246,1900,30424000000,world,1.47943072475e-05,-3.87259498734e-05,2.36125506114e-05,0.0592120164703,0.00838360049347,0.063447291885
30443476989,1901,30440000000,world,-4.81495237926e-06,8.5449945103e-06,-4.00907848759e-06,0.0592032861726,0.00840297584096,0.0634607623674
30463683728,1902,30456000000,world,1.03251682024e-05,-2.41114154673e-05,1.37290038207e-05,0.059195028183,0.0084209890964,0.0634724878692
30463683728,1903,30472000000,world,3.89697269858e-06,-8.62410779382e-06,4.65624354166e-06,0.0591949982706,0.00842898030014,0.0634784485201
30483897210,1904,30488000000,world,2.7146746538e-05,-5.76874716023e-05,2.9981639309e-05,0.0591864419418,0.00843579238491,0.0634863348642
30493976075,1905,30504000000,world,1.91104049864e-05,-4.21376318757e-05,2.27585502339e-05,0.0591832139711,0.00844011687243,0.0634918830929
30514370558,1906,30520000000,world,4.95455222914e-06,-1.12509539594e-05,6.26361281938e-06,0.0591771364247,0.00844885652123,0.0635031764914
30534519034,1907,30536000000,world,1.98027043736e-05,-4.48672992235e-05,2.51908152986e-05,0.0591665708528,0.00845735139504,0.0635170118735
30544759674,1908,30552000000,world,6.46635711793e-06,-1.4264158372e-05,7.99832675026e-06,0.0591686797903,0.00846912527792,0.0635308961231
30565095693,1909,30568000000,world,2.51795729282e-05,-6.49508591863e-05,3.4124339979e-05,0.0591625433877,0.00847114180518,0.063538210386
30575180717,1910,30584000000,world,2.05129980147e-05,-4.8010005791e-05,2.61639795104e-05,0.0591633290188,0.00847536119167,0.0635444660949
30595427825,1911,30600000000,world,1.84295206449e-07,-7.22260934809e-07,3.570093739e-07,0.0591560133782,0.00847866090022,0.0635575677252
30625878099,1912,30616000000,world,4.33453307389e-06,-8.83672366179e-06,4.93159340025e-06,0.0591540011564,0.00848117678763,0.0635635765446
30656124392,1913,30632000000,world,2.85630517345e-05,-5.59428913534e-05,3.10796744353e-05,0.0591477866674,0.00847957629295,0.0635671364177
30656124392,1914,30656000000,world,4.56522664028e-06,-9.55571221581e-06,5.46163729002e-06,0.0591456253307,0.00848407141396,0.063577244652
30656124392,1915,30664000000,world,-2.78029868708e-06,5.90198579874e-06,-3.6232745866e-06,0.0591442834501,0.00848510985165,0.0635804919801
30676261369,1916,30680000000,world,1.948766021e-05,-4.1456430868e-05,2.35312843547e-05,0.0591382065368,0.00848225795471,0.0635825341273
30686349547,1917,30696000000,world,4.60981679473e-06,-1.00715641972e-05,5.4055120299e-06,0.0591410461658,0.00848612568935,0.0635878833947
30706467046,1918,30712000000,world,-2.92499303774e-06,5.89701471597e-06,-3.28116596327e-06,0.0591422238916,0.00848726470766,0.0635899719718
30726635441,1919,30728000000,world,1.15376353187e-05,-2.55560939875e-05,1.34388133672e-05,0.0591377690339,0.00848356423308,0.0635921837205
30736691106,1920,30744000000,world,-3.88285819396e-06,7.35599794835e-06,-3.57231294925e-06,0.0591318098987,0.00848143420447,0.0635965022837
30767125657,1921,30760000000,world,1.91099483025e-05,-3.93628513837e-05,2.03020320134e-05,0.059126629921,0.00848012769556,0.0635995190985
30787297806,1922,30776000000,world,-5.1507361833e-06,1.05749800126e-05,-5.47970757646e-06,0.0591301303785,0.00849048874343,0.0636119595492
30797393859,1923,30792000000,world,-5.1507361833e-06,1.05749800126e-05,-5.47970757646e-06,0.0591301303785,0.00849048874343,0.0636119595492
30807475121,1924,30816000000,world,1.16015262719e-06,-2.42220641553e-06,1.4324536934e-06,0.0591187874703,0.00848928142193,0.0636221844993
30817530611,1925,30824000000,world,-6.18071411548e-06,1.34876995696e-05,-9.65022716157e-06,0.0591178656596,0.00848990972841,0.0636252048164
30837869053,1926,30840000000,world,1.51746744016e-05,-3.11168791935e-05,1.68096950052e-05,0.0591115398155,0.00848485387983,0.0636267981856
30847925401,1927,30856000000,world,-1.37242000671e-06,2.54999504954e-06,-9.19540986917e-07,0.0591141347596,0.00848795813239,0.0636323663908
30868059983,1928,30872000000,world,3.21774768735e-05,-6.16265041911e-05,2.58118257928e-05,0.0591092019954,0.00848467014104,0.0636308793369
30888175449,1929,30896000000,world,-3.09330741581e-06,6.24173476875e-06,-3.30576515723e-06,0.0591105624292,0.00849874293971,0.0636410611314
30898233304,1930,30904000000,world,-3.09330741581e-06,6.24173476875e-06,-3.30576515723e-06,0.0591105624292,0.00849874293971,0.0636410611314
30918368993,1931,30920000000,world,2.05232553665e-05,-4.09783226275e-05,2.08966800349e-05,0.0591025325832,0.00850320061277,0.0636428344961
30928424627,1932,30936000000,world,-2.95781667072e-06,7.28412350998e-06,-3.946406948e-06,0.0590889495262,0.00851363184232,0.0636506227977
30948611504,1933,30952000000,world,2.50174776746e-05,-5.72502947242e-05,2.98360924913e-05,0.0590804557321,0.0085124490592,0.0636487286568
30958670815,1934,30968000000,world,1.15626356452e-05,-2.43687030167e-05,1.15878411493e-05,0.0590804834634,0.00852672065656,0.0636561753457
30978983885,1935,30984000000,world,2.66131658404e-05,-5.53825048169e-05,2.6631749933e-05,0.0590718072838,0.00853833309085,0.0636606659765
30999119914,1936,31000000000,world,1.03572229499e-05,-2.20844279214e-05,1.0248466431e-05,0.0590710243805,0.00854984748876,0.0636665175695
31009375943,1937,31016000000,world,-5.1372538385e-06,1.13594674095e-05,-6.38671638965e-06,0.0590602850545,0.00855270560665,0.0636700385643
31029560841,1938,31032000000,world,2.40474470872e-05,-5.19387138358e-05,2.69897810703e-05,0.0590519693358,0.00855009773911,0.0636678598202
31039618075,1939,31048000000,world,2.71230020583e-07,-8.40653584866e-07,5.65630073007e-07,0.0590518557512,0.00856507191679,0.0636792029124
31059773759,1940,31064000000,world,1.24185395591e-05,-4.20237891088e-05,2.98246336896e-05,0.0590412177501,0.00856185095582,0.0636831560226
31080045503,1941,31080000000,world,1.31707148555e-05,-2.64248152163e-05,1.22061582134e-05,0.0590442153257,0.00856689019458,0.0636906284419
31090133548,1942,31096000000,world,-5.36003663297e-06,7.96966077121e-06,-1.65430724471e-06,0.0590372803195,0.00856438417294,0.0636998269484
31110464079,1943,31112000000,world,1.13299060688e-05,-2.09752767014e-05,9.06632368024e-06,0.0590341037709,0.00856302066008,0.0637111538695
31120520031,1944,31128000000,world,-8.19830770651e-06,1.28804670745e-05,-4.67489304061e-06,0.0590354639994,0.00856558318466,0.0637197886077
31140729488,1945,31144000000,world,2.95963481388e-05,-4.97670552491e-05,1.97143968607e-05,0.0590309624745,0.00856178461475,0.063720650888
31150807890,1946,31160000000,world,8.82820910059e-06,-1.62861763497e-05,7.12719938842e-06,0.0590283137301,0.00856102985111,0.0637274658962
31170962565,1947,31176000000,world,3.01419419656e-06,-5.66937277688e-06,2.50299341219e-06,0.0590253997428,0.00856093134728,0.0637363611764
31191075785,1948,31192000000,world,2.73513489376e-05,-5.19839705722e-05,2.37700876079e-05,0.0590205959261,0.00855697533302,0.06373815409
31201132322,1949,31208000000,world,9.50374758702e-06,-1.80721906509e-05,7.44354569678e-06,0.0590205102083,0.00855641864542,0.0637422914822
31221320430,1950,31224000000,world,1.78381868049e-07,-7.99566192771e-07,2.27002315358e-07,0.0590192089424,0.00855435349538,0.0637434221552
31231415994,1951,31240000000,world,-6.09545889099e-06,1.10104869745e-05,-3.97651999125e-06,0.0590189096497,0.00854970442412,0.0637456098022
31251559447,1952,31256000000,world,2.84841956088e-05,-5.33366092457e-05,2.01026517859e-05,0.0590146615045,0.00854384399029,0.0637419645979
31271671960,1953,31272000000,world,9.47838294821e-06,-1.84219687347e-05,7.02668741484e-06,0.0590163731185,0.00854386741185,0.0637427663851
31281728682,1954,31288000000,world,-8.60156151156e-06,1.47468043245e-05,-1.04447446895e-05,0.0590127927827,0.00854052135128,0.0637409392484
31302055000,1955,31304000000,world,6.69099891737e-06,-1.28883955599e-05,4.41442902276e-06,0.0590099079416,0.00853790305323,0.0637356809597
31312126380,1956,31320000000,world,3.10765336452e-05,-6.20616212915e-05,1.67786672255e-05,0.0590087257502,0.00853649855365,0.0637303633502
31332239846,1957,31336000000,world,2.24859972307e-05,-4.30983453917e-05,1.4138415185e-05,0.0590087789319,0.0085373459291,0.0637306196754
31342299325,1958,31352000000,world,4.28416193015e-06,-7.53667053955e-06,3.07827390393e-06,0.05900981536,0.00854112826491,0.0637316404267
31362412985,1959,31368000000,world,2.08517616709e-05,-3.67911117638e-05,1.51053058779e-05,0.0590033350643,0.00854455420556,0.0637316563855
31382566701,1960,31384000000,world,1.67307709088e-06,-2.88497528253e-06,1.08585768092e-06,0.0589919369653,0.00854601356293,0.0637342050236
31392621833,1961,31400000000,world,2.89481574068e-05,-4.9077977014e-05,1.79683705431e-05,0.0589801168238,0.00854816635137,0.0637353047303
31423052607,1962,31424000000,world,-1.10452991799e-06,2.25427332238e-06,-1.06907944853e-06,0.0589722116439,0.00856247627175,0.0637440911692
31423052607,1963,31432000000,world,3.14800767207e-05,-6.13832774606e-05,2.76211856034e-05,0.0589629314074,0.00856029056672,0.0637423603574
31443355890,1964,31448000000,world,1.48448226478e-05,-2.69433131182e-05,1.08901069255e-05,0.0589587939819,0.00857095262617,0.0637493194377
31463513174,1965,31464000000,world,-4.21675191362e-06,7.48481488174e-06,-2.80592912365e-06,0.0589534668951,0.00858045580007,0.0637553086349
31483763884,1966,31480000000,world,2.13890001871e-05,-3.90144500904e-05,1.51515382289e-05,0.0589395193354,0.00858239289832,0.0637564298488
31493782385,1967,31496000000,world,1.15919907852e-05,-2.17301476809e-05,8.04226661616e-06,0.0589351699041,0.00858562937105,0.0637593462896
31503838235,1968,31512000000,world,2.74080597137e-05,-4.99349269644e-05,1.93381733682e-05,0.0589200342178,0.00859042711216,0.0637651735366
31524120595,1969,31528000000,world,7.74117834576e-06,-1.48784916527e-05,4.8471997591e-06,0.0589189540968,0.00859963078167,0.0637736636515
31534179724,1970,31544000000,world,3.20130589694e-05,-6.19256832766e-05,1.92319702296e-05,0.0589128347212,0.00860271363768,0.0637767845924
31554334505,1971,31560000000,world,2.27591821945e-05,-4.32146200036e-05,1.39320145977e-05,0.0589116644723,0.00860648818357,0.0637810152088
31574534663,1972,31576000000,world,-7.39400554586e-06,1.09745489109e-05,-3.91394443204e-06,0.0589012381912,0.00861201641136,0.0637914036757
31584609929,1973,31592000000,world,3.16286880185e-05,-5.07708519591e-05,1.78361708798e-05,0.0588967865795,0.00861233401873,0.0637926170727
31604770346,1974,31608000000,world,-1.25992649478e-06,2.40195583042e-06,-7.49240452023e-07,0.0588981256032,0.00862840141636,0.0638067966288
31625101484,1975,31624000000,world,2.40663226483e-05,-4.28275784881e-05,1.39482884186e-05,0.0588945494762,0.00863343090616,0.0638118387062
31655495295,1976,31648000000,world,-7.1884751725e-06,1.24339913474e-05,-5.0110467125e-06,0.0588859260618,0.00863837186945,0.0638223227076
31655495295,1977,31656000000,world,2.8835636349e-05,-4.98415535718e-05,1.84223135168e-05,0.0588811675461,0.00863683273355,0.0638221213177
31665550539,1978,31672000000,world,1.84491014171e-05,-3.1739268059e-05,1.06189269736e-05,0.0588822390136,0.00864125742102,0.063826170572
31685663737,1979,31688000000,world,3.45509642523e-05,-5.89272677891e-05,1.6293204407e-05,0.0588801373925,0.0086482611924,0.0638315131233
31695729813,1980,31704000000,world,1.35021138098e-05,-2.30998416572e-05,7.60987390131e-06,0.0588803122948,0.00865447607777,0.0638344356677
31716015506,1981,31720000000,world,-7.02129197334e-06,1.11487459797e-05,-3.85872000301e-06,0.0588725947007,0.008654839338,0.0638334416201
31736155987,1982,31736000000,world,2.12055921153e-05,-3.52222312885e-05,1.18368180673e-05,0.0588695422296,0.00865995937973,0.0638303236959
31746256282,1983,31752000000,world,1.08953591231e-05,-1.81795770578e-05,6.12899024408e-06,0.0588703915636,0.00866518798883,0.0638308657166
31766411195,1984,31768000000,world,2.95355104191e-05,-4.68373505748e-05,1.5086376408e-05,0.0588679168261,0.00867460207952,0.0638300290774
31776903251,1985,31784000000,world,1.81255810844e-05,-2.97972372317e-05,1.02101413195e-05,0.0588661859529,0.00867660199434,0.0638311883308
31797064047,1986,31800000000,world,3.41602088254e-05,-5.8397340195e-05,2.0941889582e-05,0.0588587483963,0.00867932288502,0.0638327740726
31817278145,1987,31816000000,world,1.40703414664e-05,-2.3290839312e-05,8.00669641283e-06,0.0588609991922,0.00868860524982,0.0638380911082
31837391819,1988,31840000000,world,3.21012235742e-05,-5.1623379849e-05,1.55795510934e-05,0.058857523023,0.00869735052664,0.0638393348327
31847601502,1989,31848000000,world,2.11452441106e-05,-3.42057697138e-05,1.10120135367e-05,0.0588555800713,0.00870056353176,0.0638403760368
31857660788,1990,31864000000,world,-2.29662886396e-07,2.90906721396e-07,-1.53793394343e-07,0.0588511148102,0.00870823582712,0.0638431886682
31877774158,1991,31880000000,world,3.11276381291e-06,-4.90510057125e-06,1.53775357641e-06,0.0588479859453,0.00871858087552,0.0638487406221
31897889632,1992,31896000000,world,-8.51601793469e-06,1.25155094423e-05,-3.91857844836e-06,0.05884265879,0.00872038845678,0.0638523650258
31918031252,1993,31912000000,world,8.09167350839e-06,-1.36235643146e-05,4.07396464171e-06,0.0588347199654,0.00873120678944,0.0638644062887
31928336234,1994,31928000000,world,3.41008030779e-05,-5.79440518188e-05,1.77031870747e-05,0.0588273362321,0.0087344638409,0.063870903192
31938496606,1995,31944000000,world,2.31846356936e-05,-3.91938711328e-05,1.17346479371e-05,0.0588259272338,0.00873815060634,0.0638762731968
31958784318,1996,31960000000,world,-9.0021256251e-06,1.67542361017e-05,-7.77224422396e-06,0.0588136374926,0.00874175880832,0.0638893442082
31968855532,1997,31976000000,world,1.58109117791e-05,-2.67258176809e-05,8.23592716637e-06,0.058805864836,0.00874311927812,0.0638944548113
31989006475,1998,31992000000,world,-6.91588385125e-06,1.06327868339e-05,-1.83216275734e-06,0.0588026783311,0.0087511894136,0.0639029119447
31999080385,1999,32008000000,world,2.06541585671e-05,-3.35900977332e-05,8.70555484316e-06,0.0587966437658,0.00875704348928,0.0639058061891
32019259106,2000,32024000000,world,-1.96107364726e-06,3.38269521439e-06,-1.20263479379e-06,0.0587936057963,0.00876685762318,0.0639124533803
32039457367,2001,32040000000,world,2.4030618857e-05,-4.01679600717e-05,1.26407939169e-05,0.0587830231657,0.00876686633282,0.063914048625
32049523030,2002,32056000000,world,1.24916034366e-05,-2.07804384777e-05,6.62666926894e-06,0.0587796951471,0.0087683927536,0.0639171799594
32069650046,2003,32072000000,world,2.58990149395e-05,-4.27165072318e-05,1.32124869605e-05,0.0587676312428,0.00876888197813,0.063924096711
32099820509,2004,32088000000,world,1.42438754711e-06,-2.30627484331e-06,8.74144309259e-07,0.0587656861483,0.00877433180323,0.0639347298234
32119943392,2005,32104000000,world,2.5708803548e-05,-4.17037096953e-05,1.60619223987e-05,0.058758233065,0.00877346603352,0.0639419734572
32150112477,2006,32128000000,world,-1.14334007012e-05,1.78962026032e-05,-5.47497609049e-06,0.0587512562111,0.00877613116891,0.0639577139447
32150112477,2007,32152000000,world,1.38899289375e-06,-2.21960719354e-06,8.39800225125e-07,0.0587472764791,0.00877896060503,0.0639703910167
32150112477,2008,32152000000,world,-1.09485673275e-05,1.71825085892e-05,-7.0760418739e-06,0.0587481205668,0.0087818926674,0.0639752025064
32160202347,2009,32168000000,world,2.62262414199e-05,-4.19195199594e-05,1.61671498334e-05,0.0587426628011,0.00877810244293,0.0639756771118
32180349256,2010,32184000000,world,1.64915871263e-06,-2.78782163359e-06,8.37061094483e-07,0.0587443690774,0.00878220192331,0.0639836736729
32190405532,2011,32200000000,world,-1.04131829992e-05,1.76928514257e-05,-4.67732386698e-06,0.0587378338314,0.0087771589879,0.0639848976344
32210471137,2012,32216000000,world,1.47446012934e-06,-2.45144428138e-06,7.94117557907e-07,0.0587355948181,0.00877779699843,0.0639897086887
32230584549,2013,32232000000,world,2.54860831424e-05,-4.23554090829e-05,1.38203032087e-05,0.0587322217496,0.00877692169936,0.0639910707714
32250693510,2014,32248000000,world,-1.21660676188e-05,1.95852466921e-05,-4.34099449498e-06,0.0587280673437,0.00878010387885,0.0639985325562
32260749477,2015,32264000000,world,-1.21660676188e-05,1.95852466921e-05,-4.34099449498e-06,0.0587280673437,0.00878010387885,0.0639985325562
32291881612,2016,32280000000,world,-2.93571821958e-07,4.97404369387e-07,-1.49455019083e-07,0.0587266452508,0.00878527453433,0.0640033875795
32291881612,2017,32296000000,world,-7.80397496273e-07,1.34603331129e-06,-4.93076096507e-07,0.0587260514849,0.00878937823704,0.0640076530111
32311995146,2018,32312000000,world,2.30250378238e-05,-3.81879268345e-05,1.23635277818e-05,0.0587229388017,0.00879053838668,0.0640099468861
32322050460,2019,32328000000,world,-1.87548902066e-06,2.92704989196e-06,-6.64105164497e-07,0.0587174527206,0.00879047229106,0.064014990109
32342204346,2020,32344000000,world,2.28938484334e-05,-3.66705607639e-05,1.03261608115e-05,0.0587149752505,0.00879178018065,0.0640177830429
32382647663,2021,32368000000,world,3.28836460749e-05,-5.71351229683e-05,2.02262904178e-05,0.0587100244117,0.00879453849254,0.0640240199396
32382647663,2022,32384000000,world,1.02636662113e-05,-1.76129231446e-05,5.69015652093e-06,0.0587089110286,0.00880243273877,0.0640312931241
32392901506,2023,32392000000,world,-1.2725962493e-06,1.78367597076e-06,-2.40408594642e-07,0.0587006308376,0.0088009424884,0.0640326760374
32403035653,2024,32408000000,world,2.47050288924e-05,-4.05850651816e-05,1.12982933235e-05,0.0586910544946,0.0088047605762,0.0640345338444
32423145158,2025,32424000000,world,1.20114031858e-05,-2.15102089914e-05,7.33578527394e-06,0.0586876328903,0.00880866232371,0.0640375304356
32433240455,2026,32440000000,world,-1.00237216847e-05,1.73843823158e-05,-5.54454180534e-06,0.0586819256058,0.00881742560841,0.0640443652223
32453523551,2027,32456000000,world,2.82392532264e-06,-5.15294171593e-06,1.69792557198e-06,0.0586640669735,0.00881854160716,0.0640481076762
32463757165,2028,32472000000,world,2.556911145e-05,-4.68688925522e-05,1.56458824407e-05,0.05865089468,0.0088168923864,0.0640487514317
32494061064,2029,32488000000,world,3.18962253539e-06,-5.6625594405e-06,1.69179304802e-06,0.0586461788394,0.00882422969175,0.0640564546959
32494061064,2030,32504000000,world,2.63910604274e-05,-4.68048878393e-05,1.39763498357e-05,0.0586363915354,0.00882506255014,0.0640580436928
32514333554,2031,32520000000,world,2.79518914765e-06,-5.00537488353e-06,1.48386668453e-06,0.0586317258643,0.00883188567999,0.0640655140369
32534685160,2032,32536000000,world,2.52527441352e-05,-4.53952823564e-05,1.36911626205e-05,0.0586217994845,0.00883212961357,0.064066920769
32544917275,2033,32552000000,world,1.59385809787e-06,-2.7899705734e-06,7.33972002898e-07,0.0586124978613,0.00883427895033,0.0640729545985
32565151052,2034,32568000000,world,-1.07448520214e-05,1.8687930081e-05,-4.54857639958e-06,0.0586076252417,0.00883531877364,0.0640754900896
32575239471,2035,32584000000,world,-1.26448814343e-07,2.48305278357e-07,-6.08415158763e-08,0.0585968325665,0.00884052576332,0.0640790082156
32595435426,2036,32600000000,world,-8.81406708827e-07,1.53948979431e-06,-5.25950992897e-07,0.0585921747616,0.00884477729021,0.0640827749703
32615623254,2037,32616000000,world,3.44359541294e-05,-5.90305939538e-05,1.9068533571e-05,0.0585870464959,0.00884179064397,0.0640812219138
32635830757,2038,32632000000,world,-2.1491686342e-06,3.33781874615e-06,-8.56828292606e-07,0.0585887383398,0.00885178666671,0.0640951727692
32656242751,2039,32656000000,world,9.86867151344e-06,-1.57773459163e-05,4.47445216951e-06,0.0585789009236,0.0088486234486,0.0641030056952
32656242751,2040,32664000000,world,9.86867151344e-06,-1.57773459163e-05,4.47445216951e-06,0.0585789009236,0.0088486234486,0.0641030056952
32676465970,2041,32680000000,world,2.16240820768e-05,-3.5024256621e-05,9.71803459875e-06,0.0585734187057,0.00884880917036,0.0641116770825
32686548954,2042,32696000000,world,8.51022632547e-06,-1.43734430702e-05,3.84635095726e-06,0.0585739865015,0.00885167541855,0.0641149122522
32706684027,2043,32712000000,world,1.90471412587e-05,-3.29862100586e-05,8.88227116945e-06,0.058571178925,0.00885572852463,0.0641162786968
32726843079,2044,32728000000,world,-5.57808580093e-06,1.01663169427e-05,-2.69422047469e-06,0.0585648781078,0.00885654248006,0.0641152597627
32736939222,2045,32744000000,world,2.836744593e-05,-5.13975523478e-05,1.39557822392e-05,0.0585610766379,0.00885526224103,0.0641091376213
32777210815,2046,32768000000,world,1.42403197538e-05,-2.52653627567e-05,6.98543468353e-06,0.0585598397724,0.00887305976152,0.0641035068691
32787268733,2047,32784000000,world,2.10101130919e-06,-3.58839356354e-06,8.06667233824e-07,0.0585605490979,0.00887695200341,0.0641041469831
32797323272,2048,32792000000,world,-1.07226123729e-05,1.79092018799e-05,-3.24928335827e-06,0.0585536324234,0.00887162850796,0.0641030160422
32807380054,2049,32816000000,world,4.44459829918e-07,-7.75622649319e-07,2.28707949764e-07,0.0585522864607,0.00886988365107,0.0641043656074
32817473789,2050,32824000000,world,1.22913849155e-05,-2.08321212382e-05,5.0514692002e-06,0.0585511143072,0.00886760179305,0.0641044579544
32837635992,2051,32840000000,world,-8.13460438119e-08,3.59152708397e-07,-2.5201323722e-07,0.0585518841033,0.0088676558667,0.0641078070196
32847758274,2052,32856000000,world,-8.8756729713e-07,1.36560466348e-06,-2.16136217135e-07,0.0585512598862,0.00886489448896,0.0641115151831
32867941469,2053,32872000000,world,1.06122301926e-05,-1.77137713813e-05,4.22451879159e-06,0.0585488322172,0.00886091076435,0.0641170980398
32888164255,2054,32888000000,world,3.47093279839e-05,-5.84040774031e-05,1.2775918552e-05,0.0585393327801,0.00885346146116,0.0641190208582
32898219031,2055,32904000000,world,9.74399473475e-06,-1.61095510582e-05,3.89212744362e-06,0.0585379801624,0.00885691370575,0.0641293126353
32918331341,2056,32920000000,world,3.4149552729e-05,-5.62098572671e-05,1.38521941261e-05,0.0585313145331,0.00885724961239,0.0641348035249
32928385287,2057,32936000000,world,2.14185625456e-05,-3.537461558e-05,8.59990749509e-06,0.0585298342357,0.00886043803246,0.0641404844062
32948659429,2058,32952000000,world,3.32827962995e-05,-5.44159809159e-05,1.27333125526e-05,0.0585148398015,0.00885976270104,0.0641514108262
32958845035,2059,32968000000,world,2.01620336561e-05,-3.34621097809e-05,7.6604488365e-06,0.0585130448991,0.0088644011007,0.0641591700683
32979075772,2060,32984000000,world,3.0797181121e-05,-5.18851510266e-05,1.2117724094e-05,0.0585033063093,0.008872518687,0.0641774997957
32999419365,2061,33000000000,world,5.10360168008e-06,-8.69385312319e-06,1.76987617628e-06,0.0584947194832,0.00887535836396,0.0641919963424
33009476099,2062,33016000000,world,-7.7792431379e-06,1.29206126452e-05,-2.63349850417e-06,0.0584903226974,0.00887621738357,0.0641987796027
33029746506,2063,33032000000,world,3.01050962109e-06,-5.47991082722e-06,1.08051525635e-06,0.0584817282395,0.00888031496175,0.0642143717067
33039804341,2064,33048000000,world,-8.73945784526e-06,1.62766284105e-05,-3.01871013649e-06,0.0584799948835,0.00888278338442,0.0642206266257
33059916173,2065,33064000000,world,2.13834859727e-06,-3.72258749547e-06,8.21749388292e-07,0.0584721918616,0.00888511568505,0.0642312619891
33080134592,2066,33080000000,world,-1.01321180458e-05,1.720216631e-05,-3.74110475966e-06,0.0584643773695,0.00888100504409,0.0642338170808
33100442342,2067,33096000000,world,1.69507073641e-06,-2.98897369429e-06,6.48426188707e-07,0.058458450592,0.00888415383317,0.064241667544
33110500065,2068,33120000000,world,1.34553948327e-05,-2.35375631304e-05,5.2922115696e-06,0.0584546078023,0.00888784716517,0.0642468552432
33120557434,2069,33128000000,world,1.43026652105e-06,-2.53203232353e-06,7.3271732436e-07,0.058454315574,0.00889105098756,0.06425001564
33140673490,2070,33144000000,world,2.45111666301e-05,-4.35111977035e-05,1.28615517381e-05,0.0584422064627,0.00888654239998,0.0642462272176
33170886704,2071,33168000000,world,-1.16853427415e-05,1.90856379523e-05,-1.72224848577e-06,0.0584392913116,0.00890183119465,0.0642523011785
33191040113,2072,33176000000,world,2.57483023994e-05,-4.3220482313e-05,6.70186674051e-06,0.058435670104,0.00890357058534,0.0642477590479
33191040113,2073,33192000000,world,7.83928589001e-07,-1.34840998989e-06,3.54040162891e-07,0.0584322877554,0.00891497432505,0.0642502889014
33211190681,2074,33208000000,world,2.46750057419e-05,-4.24965073057e-05,1.12488885323e-05,0.0584183640234,0.00891427225852,0.0642436834914
33231351018,2075,33224000000,world,6.5187662929e-07,-1.08484694059e-06,1.62775106513e-07,0.0584164646328,0.00892722953748,0.0642466229532
33241408809,2076,33240000000,world,2.53638776112e-05,-4.22721205466e-05,6.13408937646e-06,0.0584109710291,0.00893482338948,0.0642431940924
33251464404,2077,33256000000,world,-1.20376764541e-07,1.86077636346e-07,-2.80205177408e-08,0.0584078937529,0.00894482868813,0.0642449563398
33271578884,2078,33272000000,world,1.17793863928e-05,-2.00992271898e-05,3.88498390071e-06,0.058401346402,0.00894343599696,0.0642412938193
33281634702,2079,33288000000,world,2.22024734601e-05,-3.89459220395e-05,8.34151778397e-06,0.0583923681465,0.00895105872447,0.0642374674091
33301749296,2080,33304000000,world,-2.63362226269e-06,4.32617699046e-06,-6.20135169317e-07,0.0583903374358,0.0089610156118,0.0642399161387
33311807340,2081,33320000000,world,2.15970815104e-05,-3.60273221438e-05,6.0329468944e-06,0.0583862380938,0.00896434222966,0.0642359269498
33331926184,2082,33336000000,world,-3.09461642367e-06,5.25096168652e-06,-8.83762164314e-07,0.0583786761565,0.00896271468779,0.0642348950459
33352075033,2083,33352000000,world,2.27007191565e-05,-3.85506409243e-05,6.85186768959e-06,0.05837425892,0.00896281158691,0.064231468799
33372270306,2084,33376000000,world,1.34703967735e-05,-2.31248064785e-05,4.21535206384e-06,0.0583675990676,0.00896851492074,0.0642357099706
33392510577,2085,33392000000,world,-7.70295368955e-06,1.45325230091e-05,-2.58574139673e-06,0.0583623046964,0.00897475265909,0.0642426762588
33402566543,2086,33400000000,world,2.8307393528e-05,-5.15606662036e-05,9.41492546076e-06,0.0583548900594,0.00897211506027,0.0642390167589
33412648260,2087,33416000000,world,8.04597446438e-06,-1.38526874312e-05,2.53487685588e-06,0.0583441821215,0.00897564431463,0.0642461419843
33432904524,2088,33432000000,world,3.55779111611e-05,-5.9977604282e-05,1.12748513677e-05,0.0583317709133,0.00897652092208,0.0642471283604
33442961310,2089,33448000000,world,2.43228427379e-05,-4.15880290903e-05,7.52811835455e-06,0.0583283911787,0.00898066761895,0.0642512551324
33463113649,2090,33464000000,world,-8.71085008985e-06,1.46006914421e-05,-2.43421546944e-06,0.0583176623126,0.00899270228105,0.0642634430826
33473302903,2091,33480000000,world,1.83123495173e-05,-3.12060014451e-05,5.30597062966e-06,0.0583083837449,0.00899528028177,0.0642654518199
33493455047,2092,33496000000,world,-3.76334269275e-06,6.29022983921e-06,-1.07970392195e-06,0.058297739701,0.00899594209997,0.0642730658222
33503518188,2093,33512000000,world,2.36078271657e-05,-3.96246106146e-05,6.4602838597e-06,0.0582912411924,0.00899774751606,0.064277397321
33523857844,2094,33528000000,world,1.36687970366e-06,-2.28253106869e-06,3.58752344225e-07,0.0582877234503,0.00900412427348,0.064288480305
33543971083,2095,33544000000,world,-9.82444214385e-06,1.63600801706e-05,-2.56419949202e-06,0.058285834217,0.00900718772692,0.0642939662164
33553990876,2096,33560000000,world,6.57166518877e-06,-1.09447294468e-05,1.72692707391e-06,0.0582727899216,0.00900642350049,0.0643019298596
33574184216,2097,33576000000,world,3.41308934846e-05,-5.68570173706e-05,9.02041607644e-06,0.0582643145191,0.00900580663067,0.0643054455437
33584238563,2098,33592000000,world,2.29861917437e-05,-3.82100899208e-05,5.9791934088e-06,0.0582627181842,0.00900895354004,0.0643111192955
33604604261,2099,33608000000,world,-1.07108838218e-05,1.75250488921e-05,-3.08929309038e-06,0.0582573532551,0.00901849430311,0.0643276887094
33614663111,2100,33624000000,world,1.71620579468e-05,-2.82251523143e-05,4.50086895654e-06,0.0582481589,0.00901702930104,0.0643304280514
33644903581,2101,33640000000,world,-5.59712059277e-06,8.7268532051e-06,-1.36969871894e-06,0.0582407371317,0.00901904779681,0.0643382133341
33654961027,2102,33656000000,world,2.28663266287e-05,-3.66124782239e-05,5.76772665031e-06,0.0582348271582,0.0090213068617,0.0643404380223
33665022278,2103,33672000000,world,-9.1905602261e-08,1.6960173456e-07,-4.81466063948e-08,0.0582328277039,0.00902843474787,0.0643480953685
33695330011,2104,33688000000,world,1.4162988497e-05,-2.26688111836e-05,3.71189520398e-06,0.0582309672879,0.00902978318515,0.0643481975605
33725809118,2105,33704000000,world,6.792683766e-06,-1.07940025379e-05,2.007814022e-06,0.0582211558018,0.00903932693727,0.0643562511328
33725809118,2106,33720000000,world,-5.62059479012e-06,9.16456916058e-06,-1.42605019514e-06,0.0582209694034,0.00904473015158,0.0643597144411
33725809118,2107,33736000000,world,3.25517318634e-05,-5.22428680521e-05,9.57446196873e-06,0.0582173319744,0.00904571209752,0.0643564099751
33746290092,2108,33752000000,world,6.13998163941e-06,-9.402652277e-06,2.59817568041e-06,0.0582124613942,0.00905240969346,0.0643620146172
33766581017,2109,33768000000,world,3.09378410081e-05,-4.71144353755e-05,1.35680708248e-05,0.0582050918283,0.00905388106768,0.0643623481291
33776652344,2110,33784000000,world,3.33412978914e-06,-5.23090008343e-06,1.25537126354e-06,0.0582065180678,0.00906441854715,0.0643710928434
33796829666,2111,33800000000,world,-1.02776241969e-05,1.63187766843e-05,-3.54586021244e-06,0.0582068547703,0.00906860311186,0.0643752045313
33806886973,2112,33816000000,world,1.3930911646e-05,-2.16643660657e-05,5.37185433662e-06,0.0582032630528,0.00906997883541,0.0643765649195
33826996911,2113,33832000000,world,-1.55664547803e-06,2.51668497752e-06,-8.1784035371e-07,0.058195852575,0.00906987861311,0.0643824404064
33847352465,2114,33848000000,world,2.21336694127e-05,-3.47963621572e-05,8.90696546353e-06,0.058192343205,0.00907070454386,0.0643845367051
33857408505,2115,33864000000,world,-5.66968968676e-06,8.5951902918e-06,-1.4295570235e-06,0.058192716613,0.00907965375193,0.0643947189886
33877561178,2116,33880000000,world,3.31022940683e-05,-5.06550981317e-05,9.49509973739e-06,0.0581882203566,0.00907932957756,0.0643943171936
33897676372,2117,33904000000,world,2.85401271027e-05,-4.45525228864e-05,1.13428692673e-05,0.0581704993038,0.00908427578875,0.0644091321761
33907734304,2118,33912000000,world,1.4870601288e-05,-2.28703209873e-05,4.96015151251e-06,0.0581694919373,0.00908997082157,0.0644157603781
33928051797,2119,33928000000,world,-1.50012393896e-05,2.06661437104e-05,3.82060256797e-06,0.058164027759,0.00909739947573,0.0644274003883
33938106729,2120,33944000000,world,9.81931716602e-06,-1.51781869185e-05,3.70756346284e-06,0.0581583685307,0.00910233787891,0.0644328527051
33958399531,2121,33960000000,world,-4.13333882696e-06,6.56261630342e-06,-2.30737130996e-06,0.0581520931079,0.00910111499801,0.064436188447
33968494309,2122,33976000000,world,5.46641214478e-06,-8.20013165225e-06,1.21103697794e-06,0.0581431790758,0.00910697711494,0.0644455342517
33988685497,2123,33992000000,world,3.01359740609e-05,-4.50763467928e-05,5.90321004262e-06,0.0581364876204,0.00910948809793,0.0644492385054
33998743205,2124,34008000000,world,7.16087055994e-07,-1.12423685732e-06,4.42657968955e-07,0.058132554228,0.00911605903053,0.0644592093663
34018931773,2125,34024000000,world,-1.20592757417e-05,1.92566264119e-05,-1.09893468449e-05,0.0581250657423,0.00911280553208,0.0644609028208
34039206413,2126,34040000000,world,-3.1965439619e-06,5.01774653947e-06,-3.86303063292e-07,0.0581152195423,0.00911656747684,0.0644684794855
34049262364,2127,34056000000,world,2.1341129282e-05,-3.39424075573e-05,5.91564788909e-06,0.0581091370119,0.0091189694211,0.0644711317624
34069376167,2128,34072000000,world,7.79625525226e-06,-1.25428823849e-05,2.95610497036e-06,0.05810752997,0.00912267338242,0.064476330119
34079510860,2129,34088000000,world,1.9077373419e-05,-3.04112225209e-05,7.0890513664e-06,0.0580990789286,0.00912800965773,0.0644861992177
34099661498,2130,34104000000,world,-7.83170964366e-06,1.15679559439e-05,-2.17376531988e-06,0.0580971332917,0.00913564061828,0.0644985206131
34119820616,2131,34120000000,world,3.18485371141e-05,-4.81014244516e-05,1.00281957522e-05,0.0580888745996,0.00912922441322,0.0644963395195
34140121924,2132,34136000000,world,-9.04861805944e-06,1.39723718254e-05,-3.76204017624e-06,0.0580816070537,0.00913273752483,0.0645122389238
34150218868,2133,34152000000,world,1.63211319202e-05,-2.47882299894e-05,5.79385267609e-06,0.0580771017714,0.00913421720148,0.0645173148997
34170337105,2134,34168000000,world,-1.23619593957e-05,1.6509942866e-05,-2.48075881567e-06,0.0580774430472,0.0091411732052,0.0645266758719
34180393863,2135,34184000000,world,1.42069645181e-05,-2.09446686504e-05,4.55050743106e-06,0.0580741229598,0.00914107099035,0.0645273486231
34190473671,2136,34200000000,world,-6.40815269323e-08,9.09630990189e-08,-2.90502856991e-08,0.0580746377646,0.00914345754904,0.0645300006519
34220730407,2137,34224000000,world,2.35937096505e-05,-3.52719049793e-05,8.39401628934e-06,0.0580647248896,0.00913597683044,0.064526434143
34230787990,2138,34232000000,world,9.65892153136e-06,-1.41064451086e-05,2.84446393327e-06,0.0580657615225,0.00913838281719,0.0645285553824
34240844981,2139,34248000000,world,3.5548864746e-05,-5.16176956146e-05,9.83359135126e-06,0.0580627937214,0.00913706561285,0.0645254320347
34260956535,2140,34264000000,world,6.54244036608e-06,-9.55452017375e-06,1.96836632042e-06,0.0580637965431,0.00914221861534,0.0645285765278
34271048771,2141,34280000000,world,3.22243320692e-05,-4.72167890162e-05,1.00428409823e-05,0.0580580130814,0.00913863416231,0.0645241364326
34291161112,2142,34296000000,world,3.62183191189e-06,-5.2669496097e-06,1.046045263e-06,0.0580549013271,0.00913895903967,0.0645262271833
34311277893,2143,34312000000,world,2.95047519979e-05,-4.29257265555e-05,8.51679492066e-06,0.058049542066,0.00913529767508,0.064523049767
34321334437,2144,34328000000,world,6.23147183507e-07,-9.04280574272e-07,1.93565266443e-07,0.0580509114187,0.00914002786029,0.0645281727539
34341446312,2145,34344000000,world,-1.39027693238e-05,2.00669388665e-05,-4.52153099662e-06,0.058051513063,0.0091429199514,0.0645312658228
34351544309,2146,34360000000,world,-2.35672090497e-06,3.64305114774e-06,-6.75050601681e-07,0.0580485438822,0.00914608068921,0.0645349552111
34371702908,2147,34376000000,world,2.23799894621e-05,-3.54077811831e-05,6.69768084981e-06,0.058041642699,0.00914555226793,0.0645352720927
34391819280,2148,34392000000,world,8.51216678097e-06,-1.45603829545e-05,2.59828094584e-06,0.0580377195402,0.00914779557084,0.0645385525705
34401875881,2149,34408000000,world,1.93966014253e-05,-3.3637716966e-05,5.60341375107e-06,0.0580253129851,0.00915559448198,0.0645434572513
34421987257,2150,34424000000,world,-5.59436734479e-06,9.22236169065e-06,-1.11130424365e-06,0.0580198760191,0.00916822868167,0.0645532739253
34432084770,2151,34440000000,world,1.88770151448e-05,-3.17383991273e-05,4.40541727732e-06,0.058011252833,0.00917527921177,0.0645551210973
34452197766,2152,34456000000,world,-6.30126046205e-06,1.05802664467e-05,-1.75523976202e-06,0.0579993550629,0.00917972680132,0.064562151753
34462587042,2153,34472000000,world,3.07394433134e-05,-5.15574748508e-05,8.11861948902e-06,0.0579933062207,0.00918019971346,0.0645590022489
34502822474,2154,34488000000,world,5.59588511779e-06,-9.07074733973e-06,1.18513600131e-06,0.0579889422215,0.00919309290197,0.0645694599627
