%time,field.header.seq,field.header.stamp,field.header.frame_id,field.pose.position.x,field.pose.position.y,field.pose.position.z,field.pose.orientation.x,field.pose.orientation.y,field.pose.orientation.z,field.pose.orientation.w
93814781613,5862,93816000000,world,10.9000577631,-6.65066485283,4.90031608032,0.300751270912,0.50166314438,0.775371931446,0.238077992559
93824866066,5863,93832000000,world,10.9000579758,-6.65066432381,4.9003160417,0.300578334143,0.50148797829,0.775721262797,0.237526830313
93845068899,5864,93848000000,world,10.9000580536,-6.65066413231,4.90031602891,0.300405232107,0.501312525153,0.776070239104,0.236975594997
93855184761,5865,93864000000,world,10.9000583081,-6.65066349586,4.90031600482,0.300231973007,0.501136788661,0.776418855054,0.236424285875
93876215363,5866,93880000000,world,10.9000587431,-6.65066241761,4.90031594444,0.30005856241,0.500960771102,0.776767107223,0.235872902379
93896357007,5867,93896000000,world,10.9000590441,-6.65066167485,4.90031589683,0.299884997827,0.500784470222,0.777114998155,0.235321444209
93906435000,5868,93912000000,world,10.9000592112,-6.65066126299,4.90031587112,0.299711267967,0.500607877968,0.777462537519,0.23476991103
93926588945,5869,93928000000,world,10.9000592445,-6.65066117812,4.90031586527,0.299537358172,0.500430983773,0.777809737884,0.234218302426
93936730383,5870,93944000000,world,10.9000594601,-6.65066064186,4.90031583214,0.299363264081,0.500253784671,0.778156602763,0.233666618533
93967075226,5871,93960000000,world,10.9000595425,-6.6506604372,4.90031581998,0.299188994007,0.500076287172,0.778503124486,0.233114860185
93977151035,5872,93976000000,world,10.9000598718,-6.65065982787,4.90031584612,0.299014554185,0.499898496071,0.778849297361,0.232563028041
93987256356,5873,93992000000,world,10.9000603425,-6.65065876969,4.90031581847,0.298839954502,0.499720418858,0.779195112538,0.232011122937
94007433433,5874,94008000000,world,10.9000606381,-6.65065803348,4.90031577298,0.298665201892,0.499542059834,0.779540565228,0.23145914283
94017501263,5875,94024000000,world,10.900060798,-6.65065763452,4.9003157447,0.298490311118,0.499363427655,0.779885645396,0.230907083899
94037703950,5876,94040000000,world,10.90006082,-6.65065757186,4.90031574553,0.298315297767,0.499184531441,0.780230342351,0.230354942564
94047832512,5877,94056000000,world,10.9000614231,-6.65065646789,4.90031538529,0.298140173277,0.499005377949,0.780574648156,0.229802716502
94068016626,5878,94072000000,world,10.9000617853,-6.65065560943,4.90031528974,0.297964943776,0.498825970837,0.780918558509,0.229250404745
94078120358,5879,94088000000,world,10.9000619965,-6.65065508231,4.90031524881,0.29778961,0.49864631459,0.78126207098,0.228698005174
94098330341,5880,94104000000,world,10.9000620701,-6.6506548976,4.90031523466,0.297614169271,0.498466418506,0.78160518245,0.228145511984
94118551339,5881,94120000000,world,10.9000623376,-6.6506542872,4.90031521054,0.297438618262,0.498286292537,0.781947889856,0.227592918576
94128631804,5882,94136000000,world,10.9000627651,-6.6506532412,4.90031514378,0.297262953239,0.498105943573,0.782290191601,0.227040220521
94148782155,5883,94152000000,world,10.9000630401,-6.65065253938,4.90031509137,0.297087171196,0.497925375025,0.782632087297,0.226487415878
94158880463,5884,94168000000,world,10.900063177,-6.650652187,4.90031506537,0.296911270569,0.497744587746,0.782973577097,0.225934504552
94179155698,5885,94184000000,world,10.9000631785,-6.6506521852,4.90031506428,0.296735250962,0.497563581953,0.783314660945,0.225381487036
94199268681,5886,94200000000,world,10.9000636405,-6.65065096478,4.90031499144,0.296559109906,0.497382334531,0.783655353884,0.224828365552
94209325342,5887,94216000000,world,10.9000639721,-6.65065010206,4.90031493692,0.296382840391,0.497200804314,0.783995683457,0.224275144483
94229624685,5888,94232000000,world,10.9000641651,-6.65064959808,4.90031490676,0.296206432831,0.497018957377,0.784335674476,0.223721824821
94239681587,5889,94248000000,world,10.900064219,-6.65064945724,4.90031489838,0.296029878618,0.496836775429,0.784675342353,0.223168404239
94259938843,5890,94264000000,world,10.9000644547,-6.65064890966,4.90031484388,0.295853172991,0.496654250565,0.785014694178,0.222614881244
94270016998,5891,94280000000,world,10.9000648383,-6.65064793931,4.90031477536,0.295676314865,0.49647138113,0.785353731285,0.222061255745
94290373414,5892,94296000000,world,10.9000650685,-6.65064732883,4.90031474135,0.295499304274,0.496288167064,0.785692453483,0.221507527968
94310586804,5893,94312000000,world,10.90006516,-6.65064708465,4.90031472812,0.295322141221,0.496104608936,0.786030860129,0.220953698367
94320654828,5894,94328000000,world,10.9000654046,-6.65064641733,4.90031470163,0.295144827155,0.495920709817,0.786368948308,0.220399767958
94340907181,5895,94344000000,world,10.9000658109,-6.65064533116,4.90031464803,0.294967352332,0.495736478603,0.786706713489,0.21984574545
94351043073,5896,94360000000,world,10.9000660856,-6.65064461597,4.90031460824,0.29478969515,0.495551928383,0.787044150967,0.219291646759
94371201341,5897,94376000000,world,10.9000662208,-6.65064427092,4.90031458843,0.294611833536,0.495367070936,0.787381257181,0.218737487443
94391382999,5898,94392000000,world,10.900066193,-6.65064428748,4.90031459536,0.294433751857,0.495181913875,0.787718030141,0.218183278297
94401447063,5899,94408000000,world,10.9000667869,-6.65064321959,4.90031448563,0.294255442477,0.49499646073,0.788054468962,0.217629024687
94421625926,5900,94424000000,world,10.9000671009,-6.65064245658,4.90031443864,0.294076904076,0.494810712165,0.788390573351,0.217074727843
94431685447,5901,94440000000,world,10.9000672571,-6.65064205932,4.90031441653,0.293898136954,0.494624668129,0.788726343148,0.21652038795
94451990639,5902,94456000000,world,10.9000672681,-6.65064203318,4.90031441488,0.293719141493,0.494438328538,0.789061778201,0.215966005138
94472367772,5903,94472000000,world,10.9000677336,-6.65064080746,4.90031435245,0.293539920545,0.494251692224,0.789396878555,0.215411577933
94482452931,5904,94488000000,world,10.9000680629,-6.6506399557,4.90031430784,0.293360477766,0.494064757668,0.789731644316,0.21485710433
94502670256,5905,94504000000,world,10.9000682483,-6.65063947452,4.90031428315,0.293180816059,0.493877523685,0.790066075523,0.214302582816
94512760433,5906,94520000000,world,10.9000682871,-6.65063937288,4.90031427808,0.293090903709,0.49378379417,0.790233165657,0.214025303816
94532904165,5907,94536000000,world,10.9000685154,-6.65063884872,4.90031424356,0.292820849886,0.493502161827,0.790733926679,0.213193394228
94542974101,5908,94552000000,world,10.9000688928,-6.65063790979,4.90031419491,0.292640569448,0.493314052674,0.791067325546,0.212638728836
94563093717,5909,94568000000,world,10.9000691188,-6.65063732443,4.90031417003,0.292460110555,0.493125674167,0.791400355473,0.21208401771
94583210448,5910,94584000000,world,10.9000692071,-6.65063709486,4.90031416078,0.292279483422,0.492937034679,0.791733007276,0.211529261808
94593294277,5911,94600000000,world,10.9000694346,-6.65063642761,4.90031411244,0.292098693172,0.492748138256,0.79206527648,0.210974461693
94613506444,5912,94616000000,world,10.900069837,-6.65063533451,4.90031405714,0.291917739815,0.492558988851,0.79239716123,0.210419615433
94623624921,5913,94632000000,world,10.9000701148,-6.65063460333,4.90031402834,0.291736620331,0.492369595415,0.792728658712,0.209864717199
94643884644,5914,94648000000,world,10.9000702549,-6.65063423278,4.90031401412,0.291555331215,0.492179968023,0.793059765775,0.209309760468
94654019567,5915,94664000000,world,10.9000702596,-6.65063422652,4.90031401587,0.291373868173,0.49199011294,0.793390481485,0.208754740315
94674364296,5916,94680000000,world,10.9000706895,-6.65063300271,4.90031393725,0.291192236949,0.491800028065,0.793720807484,0.208199647702
94694486667,5917,94696000000,world,10.9000710065,-6.65063214987,4.90031389119,0.29101043195,0.491609697629,0.794050755467,0.207644483278
94704540872,5918,94712000000,world,10.9000711904,-6.65063165985,4.90031386154,0.290828448723,0.491419092875,0.794380343681,0.207089251641
94724745324,5919,94728000000,world,10.9000712382,-6.65063153094,4.90031385503,0.290646286676,0.491228188281,0.794709587746,0.206533954167
94734824882,5920,94744000000,world,10.9000713669,-6.65063104143,4.90031396792,0.290463938409,0.491036974823,0.795038495573,0.205978592087
94765084384,5921,94768000000,world,10.9000717651,-6.65062989901,4.90031396463,0.290190058043,0.490749570768,0.79553123252,0.205145429123
94775207424,5922,94776000000,world,10.9000718376,-6.65062970322,4.90031395194,0.290098669321,0.490653613367,0.795695311699,0.204867676043
94785277730,5923,94792000000,world,10.9000718809,-6.65062958507,4.90031394462,0.289915751998,0.490461463561,0.796023220189,0.204312120113
94805541814,5924,94808000000,world,10.9000720112,-6.65062903869,4.90031395618,0.289732652096,0.490268999919,0.796350794728,0.203756496249
94815640064,5925,94824000000,world,10.9000723211,-6.65062809059,4.90031392429,0.289549374782,0.490076222746,0.796678033557,0.203200802925
94835818472,5926,94840000000,world,10.9000725319,-6.65062752154,4.90031389054,0.28936592395,0.489883132889,0.79700493484,0.202645039435
94845884928,5927,94856000000,world,10.9000726073,-6.65062731771,4.90031387863,0.289182301728,0.489689731184,0.797331497219,0.202089205755
94866265921,5928,94872000000,world,10.9000728398,-6.65062669206,4.90031383151,0.288998509067,0.489496018122,0.797657719916,0.201533302104
94886490832,5929,94888000000,world,10.9000732272,-6.65062564263,4.90031376541,0.288814546246,0.48930199383,0.797983602616,0.200977328738
94896573512,5930,94904000000,world,10.9000734785,-6.65062495757,4.90031372707,0.2886304134,0.489107658343,0.798309145108,0.200421285914
94916793125,5931,94920000000,world,10.9000735952,-6.65062463787,4.90031370971,0.288446110663,0.4889130117,0.798634347182,0.199865173891
94926927236,5932,94936000000,world,10.9000735784,-6.65062468403,4.90031371218,0.288261638181,0.488718053947,0.79895920862,0.199308992926
94947121983,5933,94952000000,world,10.9000740043,-6.65062351347,4.9003136513,0.288077005396,0.488522793065,0.799283720841,0.198752743922
94967356686,5934,94968000000,world,10.9000743008,-6.65062270152,4.90031361177,0.287892227766,0.488327242202,0.799607869873,0.198196428203
94977482681,5935,94984000000,world,10.9000744665,-6.65062224639,4.90031359045,0.287707329396,0.488131422448,0.79993163362,0.197640047978
94997634735,5936,95000000000,world,10.9000745022,-6.65062214716,4.90031358561,0.28752232494,0.487935347059,0.800254998375,0.197083604918
95017867116,5937,95024000000,world,10.9000747415,-6.6506214827,4.9003135552,0.287244644248,0.487640777227,0.800739274199,0.196248825452
95027948951,5938,95032000000,world,10.9000747561,-6.65062144112,4.90031355318,0.287152041707,0.487542469154,0.800900490035,0.195970535483
95038074388,5939,95048000000,world,10.9000749597,-6.65062083655,4.9003135204,0.286966783484,0.48734568494,0.80122259816,0.195413911339
95058412819,5940,95064000000,world,10.9000753179,-6.65061980699,4.90031347017,0.286781457598,0.487148679544,0.801544272021,0.194857228727
95078677335,5941,95080000000,world,10.9000755504,-6.65061914651,4.90031344027,0.286596065401,0.486951454328,0.801865510746,0.194300486619
95088749552,5942,95096000000,world,10.9000756523,-6.65061885554,4.90031342791,0.286410608429,0.486754010783,0.802186314257,0.193743680114
95108860219,5943,95112000000,world,10.9000757628,-6.65061853917,4.90031341733,0.286225089051,0.486556351094,0.802506681994,0.193186803281
95118957107,5944,95128000000,world,10.9000758796,-6.65061820184,4.90031340389,0.286039499299,0.486358468462,0.80282662235,0.192629850859
95139108472,5945,95144000000,world,10.9000758753,-6.65061824909,4.90031341984,0.28585382389,0.486160349701,0.803146149763,0.192072819178
95159305433,5946,95160000000,world,10.9000761929,-6.65061708961,4.90031328008,0.285668048044,0.485961982014,0.803465277745,0.191515706462
95169414593,5947,95176000000,world,10.9000764434,-6.6506163335,4.9003132426,0.285482160485,0.485763360014,0.803784014262,0.190958509966
95189530415,5948,95192000000,world,10.9000765644,-6.65061597188,4.90031322749,0.285296153168,0.485564488811,0.80410236053,0.190401223691
95199588406,5949,95208000000,world,10.9000765539,-6.6506160051,4.90031322912,0.285110021774,0.485365360157,0.804420322569,0.189843849734
95219725713,5950,95224000000,world,10.9000769399,-6.65061483487,4.90031318086,0.284923765012,0.485165949232,0.804737913584,0.189286397497
95239912323,5951,95240000000,world,10.9000771971,-6.65061406062,4.9003131533,0.284737380415,0.484966228103,0.805055150618,0.188728869697
95249969279,5952,95256000000,world,10.9000773203,-6.65061368651,4.90031314097,0.284550858365,0.484766174741,0.805372050991,0.188171263252
95270082890,5953,95272000000,world,10.9000773148,-6.65061371963,4.90031314311,0.284364187613,0.484565773607,0.805688628511,0.187613575576
95280135776,5954,95288000000,world,10.9000776546,-6.65061255124,4.9003130967,0.284177359764,0.484365015979,0.806004891417,0.187055805856
95300246942,5955,95304000000,world,10.9000778934,-6.65061180414,4.90031307304,0.283990369378,0.484163903216,0.806320840142,0.186497956225
95310303298,5956,95320000000,world,10.9000780005,-6.65061147149,4.90031306441,0.283803213301,0.483962444858,0.806636468845,0.185940031237
95330620863,5957,95336000000,world,10.9000779667,-6.65061155032,4.90031302223,0.283615888969,0.483760652603,0.806951770067,0.185382036089
95350805340,5958,95352000000,world,10.9000783317,-6.6506105178,4.90031317581,0.283428394432,0.483558535573,0.807266737958,0.184823974882
95360898458,5959,95368000000,world,10.9000785358,-6.65060988226,4.90031316924,0.283240729719,0.483356099857,0.807581368187,0.184265850112
95381066652,5960,95384000000,world,10.9000786057,-6.65060966248,4.90031316509,0.283052896367,0.483153348744,0.807895657903,0.183707662869
95391181979,5961,95400000000,world,10.9000787924,-6.65060905562,4.90031313782,0.282864896043,0.482950284059,0.808209605229,0.183149413676
95411351259,5962,95416000000,world,10.9000791035,-6.65060806284,4.90031311176,0.282676729924,0.48274690675,0.80852320903,0.18259110286
95431562072,5963,95432000000,world,10.9000792834,-6.65060748865,4.90031310146,0.282488408578,0.482543224741,0.808836460699,0.182032730903
95441687750,5964,95448000000,world,10.9000793298,-6.65060733941,4.90031309918,0.282299934466,0.482339256105,0.809149346295,0.18147430785
95461939590,5965,95464000000,world,10.9000794367,-6.65060683101,4.90031315772,0.282111298607,0.48213502194,0.809461852622,0.180915850512
95472220514,5966,95480000000,world,10.9000796826,-6.65060598472,4.90031317085,0.281922489819,0.481930528631,0.809773977785,0.180357368048
95492424222,5967,95496000000,world,10.9000798123,-6.65060559576,4.90031315684,0.281733497797,0.481725766699,0.810085731193,0.179798859939
95502503418,5968,95512000000,world,10.9000797684,-6.65060565014,4.90031318592,0.281544315575,0.481520721078,0.81039712543,0.179240320896
95522728347,5969,95528000000,world,10.9000802116,-6.65060466919,4.90031302515,0.281354949425,0.481315386968,0.810708162338,0.17868174563
95542962665,5970,95544000000,world,10.9000804008,-6.65060410675,4.90031299741,0.281165410577,0.481109773243,0.811018833682,0.178123129883
95563161824,5971,95560000000,world,10.9000804298,-6.65060401802,4.90031299513,0.280975707319,0.480903898294,0.811329126915,0.177564468071
95583396246,5972,95584000000,world,10.9000809447,-6.6506024025,4.90031281601,0.280690856757,0.480594627791,0.811793837977,0.176726374078
95583396246,5973,95592000000,world,10.9000810399,-6.65060210337,4.90031280164,0.280595829095,0.480491418972,0.811948545285,0.176446980134
95603553960,5974,95608000000,world,10.9000811139,-6.65060186843,4.90031279093,0.280405659536,0.480284830128,0.812257661507,0.175888144492
95623757144,5975,95624000000,world,10.9000812927,-6.65060131807,4.90031276072,0.280215338579,0.480078015114,0.81256637825,0.175329245609
95633882581,5976,95640000000,world,10.9000815677,-6.65060044835,4.90031272017,0.280024866903,0.479870975982,0.812874693906,0.174770284471
95654127628,5977,95656000000,world,10.9000816881,-6.65060006082,4.90031270426,0.279834243366,0.479663712661,0.813182608791,0.174211261853
95664235189,5978,95672000000,world,10.9000816573,-6.65060015605,4.90031270332,0.279643466314,0.479456223717,0.813490124267,0.173652178237
95684501222,5979,95688000000,world,10.9000819847,-6.6505991175,4.90031267516,0.279452533501,0.479248509946,0.813797240159,0.173093036096
95694633193,5980,95704000000,world,10.9000821676,-6.65059853356,4.90031264675,0.279261437131,0.479040554447,0.814103967356,0.172533843817
95714839474,5981,95720000000,world,10.9000822118,-6.65059839116,4.90031263977,0.279070169608,0.478832332088,0.814410321012,0.171974612114
95735097902,5982,95736000000,world,10.9000823174,-6.65059787785,4.9003126289,0.278878720697,0.47862382577,0.814716313799,0.171415345223
95745201570,5983,95752000000,world,10.9000825579,-6.65059701166,4.90031259371,0.278687081383,0.478415026193,0.815021954197,0.170856043384
95765413059,5984,95768000000,world,10.9000826884,-6.65059659179,4.90031257284,0.278495246387,0.47820592844,0.815327246881,0.170296706484
95775534904,5985,95784000000,world,10.9000826808,-6.65059661164,4.90031257215,0.278303213074,0.477996529324,0.815632194602,0.169737334358
95795703244,5986,95800000000,world,10.9000830449,-6.65059546965,4.90031253122,0.278110982806,0.477786822835,0.815936800833,0.169177924726
95826076587,5987,95816000000,world,10.9000832612,-6.65059476681,4.90031249945,0.277918558615,0.477576806985,0.816241065887,0.168618476348
95826076587,5988,95832000000,world,10.9000833403,-6.65059450712,4.90031248778,0.27772594298,0.477366482336,0.816544988542,0.168058989122
95846290622,5989,95848000000,world,10.9000835287,-6.65059388787,4.90031245908,0.277533136688,0.477155852086,0.816848566301,0.167499464453
95856363922,5990,95864000000,world,10.9000838257,-6.6505929087,4.90031241521,0.277340140747,0.476944914982,0.81715179956,0.166939902
95876555783,5991,95880000000,world,10.9000839872,-6.65059237281,4.90031239073,0.277146957209,0.476733663456,0.817454692593,0.166380298703
95886671446,5992,95896000000,world,10.9000840149,-6.65059228008,4.90031238653,0.276953587406,0.476522095696,0.817757246078,0.165820653792
95906868206,5993,95912000000,world,10.9000844,-6.65059102134,4.90031233616,0.276760033003,0.476310210061,0.818059460487,0.165260966451
95927025439,5994,95928000000,world,10.9000846431,-6.65059020597,4.9003123001,0.276566303914,0.476098016369,0.818361326422,0.164701237898
95937099232,5995,95944000000,world,10.9000847498,-6.65058984172,4.90031228401,0.276372414,0.475885534713,0.818662826667,0.164141472104
95947179038,5996,95960000000,world,10.9000847428,-6.65058994076,4.90031228721,0.276178375181,0.475672785106,0.818963944673,0.163581673538
95967357455,5997,95976000000,world,10.9000849719,-6.65058886775,4.90031224578,0.27598420597,0.475459785836,0.819264663231,0.163021844206
95987551708,5998,95992000000,world,10.900085142,-6.65058827105,4.90031222129,0.275789915809,0.475246545821,0.819564973887,0.162461985096
96007756879,5999,96008000000,world,10.9000851829,-6.65058812994,4.90031221591,0.275595504863,0.475033071019,0.819864872771,0.161902098611
96017846952,6000,96024000000,world,10.9000853469,-6.65058769462,4.9003122874,0.275400967769,0.474819364032,0.82016435978,0.161342187409
96038095624,6001,96040000000,world,10.9000855824,-6.65058692803,4.90031228971,0.275206298143,0.47460542512,0.820463436916,0.160782252106
96048256625,6002,96056000000,world,10.9000856722,-6.65058660595,4.90031227056,0.275011491812,0.47439125424,0.82076210651,0.160222288678
96068469170,6003,96072000000,world,10.9000859015,-6.6505859485,4.9003123418,0.274816547177,0.474176851493,0.821060370265,0.159662291373
96078595550,6004,96088000000,world,10.9000862077,-6.65058493403,4.90031234287,0.274621464363,0.473962217323,0.821358228877,0.159102255536
96098806931,6005,96104000000,world,10.9000863651,-6.65058436593,4.90031231337,0.274426244071,0.473747352455,0.821655682272,0.158542178605
96118979411,6006,96120000000,world,10.9000863968,-6.6505842498,4.90031230688,0.274230886897,0.473532256694,0.821952730627,0.157982059607
96129085049,6007,96136000000,world,10.9000865265,-6.65058377591,4.90031228246,0.274035393353,0.473316929035,0.822249374496,0.157421898155
96159362959,6008,96152000000,world,10.9000867062,-6.65058310398,4.90031224593,0.273741898108,0.472993501455,0.822693582551,0.156581576281
96159362959,6009,96168000000,world,10.9000868511,-6.65058256625,4.90031221862,0.273643998485,0.472885575913,0.822841449852,0.156301447822
96179552475,6010,96184000000,world,10.9000870498,-6.65058183186,4.9003121841,0.27344809773,0.472669550512,0.823136881091,0.155741159797
96199666110,6011,96200000000,world,10.9000871253,-6.65058155194,4.90031217173,0.273252060453,0.472453280105,0.823431914824,0.15518083395
96209724708,6012,96216000000,world,10.9000872942,-6.65058091473,4.90031213727,0.273055885007,0.472236745409,0.823726561813,0.154620475076
96229833422,6013,96232000000,world,10.9000875595,-6.65057992228,4.90031209405,0.272859573724,0.472019933137,0.824020829394,0.154060080726
96239926523,6014,96248000000,world,10.9000877025,-6.65057938813,4.9003120752,0.272663129118,0.471802835671,0.824314721724,0.15349964763
96260083738,6015,96264000000,world,10.9000877222,-6.65057931867,4.90031207396,0.272466554334,0.471585451566,0.824608238804,0.152939174633
96270139956,6016,96280000000,world,10.9000879938,-6.65057809123,4.90031198595,0.272269848895,0.471367787762,0.824901376272,0.152378664742
96290306039,6017,96296000000,world,10.9000881766,-6.65057735823,4.90031195462,0.272073009953,0.471149854784,0.825194128144,0.151818122993
96310419182,6018,96312000000,world,10.9000882356,-6.65057712179,4.90031194574,0.271876034365,0.470931662431,0.825486489015,0.151257554234
96320475278,6019,96328000000,world,10.9000883784,-6.65057657136,4.90031192509,0.271678919503,0.4707132184,0.825778454703,0.150696962375
96340834630,6020,96344000000,world,10.9000885934,-6.65057570822,4.90031189222,0.271481654382,0.470494518167,0.826070031157,0.150136349139
96350928918,6021,96360000000,world,10.9000886776,-6.65057535572,4.90031187746,0.2712842331,0.470275558401,0.826361222136,0.14957571525
96371078791,6022,96376000000,world,10.9000888586,-6.65057471307,4.90031188035,0.27108665705,0.470056341364,0.826652025812,0.149015061437
96391433697,6023,96392000000,world,10.9000890911,-6.6505737758,4.90031185281,0.270888930915,0.469836871544,0.826942438042,0.148454388315
96401492696,6024,96408000000,world,10.9000891859,-6.65057336629,4.90031183252,0.270691068545,0.469617149234,0.827232455276,0.147893689836
96421893281,6025,96424000000,world,10.9000892553,-6.65057308119,4.90031181626,0.270493087918,0.469397170517,0.827522075791,0.147332955506
96431985746,6026,96440000000,world,10.9000892936,-6.65057292028,4.90031180776,0.2702950035,0.469176929933,0.827811299745,0.146772175548
96452189841,6027,96456000000,world,10.9000894,-6.65057247668,4.90031177607,0.270096825331,0.468956424326,0.828100126823,0.146211343561
96462257252,6028,96472000000,world,10.9000895746,-6.65057174935,4.90031173416,0.269898559557,0.468735653722,0.828388555516,0.145650456811
96482331122,6029,96488000000,world,10.9000896213,-6.65057155427,4.90031172436,0.269700207511,0.46851461837,0.828676585329,0.145089515024
96502490694,6030,96504000000,world,10.9000897329,-6.65057107297,4.90031169551,0.269501768768,0.46829331786,0.828964216625,0.144528518409
96512565423,6031,96520000000,world,10.9000899141,-6.65057030563,4.90031165655,0.269303243228,0.468071752509,0.829251449474,0.143967465889
96532813752,6032,96536000000,world,10.9000899697,-6.65057007065,4.90031164632,0.269104631648,0.46784992549,0.829538282534,0.143406353606
96542940642,6033,96552000000,world,10.9000900912,-6.65056955147,4.90031161588,0.268905935385,0.467627841118,0.829824713742,0.142845176993
96563099803,6034,96568000000,world,10.900090279,-6.65056874839,4.90031158038,0.268707155716,0.467405502941,0.830110741302,0.142283932551
96583311420,6035,96584000000,world,10.9000903411,-6.6505684807,4.90031157078,0.268508293466,0.467182913062,0.830396364109,0.14172261837
96593402448,6036,96600000000,world,10.9000904681,-6.6505679299,4.90031154751,0.268309349071,0.466960072067,0.830681581809,0.141161233844
96613545176,6037,96616000000,world,10.9000906602,-6.65056709589,4.90031151702,0.268110322763,0.466736979897,0.83096639437,0.140599778989
96623639334,6038,96632000000,world,10.9000907283,-6.65056679826,4.90031150729,0.267911214719,0.466513636469,0.831250801771,0.140038253955
96643789656,6039,96648000000,world,10.9000908601,-6.65056621725,4.900311488,0.26771202509,0.466290041792,0.831534803938,0.139476658936
96663973376,6040,96664000000,world,10.9000910562,-6.65056535284,4.90031146041,0.267512753737,0.4660661957,0.831818400903,0.138914994631
96674044235,6041,96680000000,world,10.900091129,-6.65056502397,4.90031145087,0.267313391783,0.465842101113,0.832101592686,0.138353268315
96704456358,6042,96696000000,world,10.900091396,-6.65056389635,4.90031141094,0.267014144116,0.465505473361,0.832525637916,0.137510593501
96714539249,6043,96712000000,world,10.9000915309,-6.65056326158,4.90031139631,0.266814491842,0.465280713386,0.832807852532,0.136948769455
96724621244,6044,96728000000,world,10.9000915547,-6.65056314519,4.90031139518,0.266714617783,0.465168227992,0.832948817277,0.136667845979
96734697446,6045,96744000000,world,10.9000916804,-6.65056249138,4.90031140854,0.266514771761,0.464943039696,0.833230466126,0.136105975588
96754881935,6046,96760000000,world,10.900091868,-6.65056155408,4.90031140812,0.266314795788,0.464717559451,0.83351174178,0.135544073264
96775080134,6047,96776000000,world,10.9000919485,-6.65056115766,4.90031140386,0.266114690229,0.464491786737,0.8337926444,0.134982138972
96785162168,6048,96792000000,world,10.9000920028,-6.65056088932,4.90031140104,0.265914455582,0.464265721683,0.834073173722,0.134420172813
96805314780,6049,96808000000,world,10.9000920309,-6.65056074925,4.90031139974,0.265714093636,0.464039364392,0.834353329213,0.133858174082
96815439848,6050,96824000000,world,10.9000921147,-6.65056032783,4.90031139483,0.265513596898,0.463812706554,0.834633118045,0.133296141592
96835632489,6051,96840000000,world,10.9000921692,-6.65056004188,4.90031138904,0.265312952241,0.463585735047,0.834912551818,0.132734074188
96855882428,6052,96856000000,world,10.9000921978,-6.6505598931,4.90031138669,0.26511215656,0.463358447206,0.835191632925,0.132171971836
96866008787,6053,96872000000,world,10.9000922802,-6.65055946701,4.9003113811,0.264911213662,0.463130847386,0.835470357552,0.131609835224
96886192342,6054,96888000000,world,10.9000922649,-6.6505595883,4.90031138823,0.26471013199,0.462902944329,0.835748717952,0.131047665353
96896243195,6055,96904000000,world,10.9000924345,-6.650558597,4.900311363,0.264508920433,0.462674747067,0.836026706111,0.130485463201
96916394899,6056,96920000000,world,10.9000925215,-6.65055815047,4.90031136047,0.264307585442,0.462446262142,0.836304316224,0.129923229537
96926517368,6057,96936000000,world,10.9000925066,-6.6505582421,4.90031137623,0.264106128046,0.462217501463,0.836581540686,0.129360968818
96956890347,6058,96960000000,world,10.9000927526,-6.65055691078,4.90031130814,0.263803706732,0.461873872084,0.836996638264,0.128517540188
96967014481,6059,96968000000,world,10.9000927863,-6.6505567335,4.90031130564,0.263702835758,0.461759203183,0.83713480462,0.128236389468
96977089274,6060,96984000000,world,10.9000927787,-6.65055677703,4.90031130888,0.263500995345,0.461529686507,0.837410832846,0.127674080988
96997332412,6061,97000000000,world,10.9000929783,-6.65055569697,4.90031127818,0.263299023125,0.461299933427,0.837686454002,0.127111764301
97007447798,6062,97016000000,world,10.9000930807,-6.65055514651,4.90031126867,0.263096919464,0.461069938047,0.837961671626,0.12654943731
97027666822,6063,97032000000,world,10.9000930833,-6.65055512434,4.90031127172,0.262894693224,0.460839685871,0.838236492512,0.125987089904
97047901217,6064,97048000000,world,10.9000933167,-6.65055398377,4.90031120556,0.262692360105,0.46060916027,0.838510923156,0.12542470716
97058027730,6065,97064000000,world,10.9000934363,-6.65055336738,4.90031118757,0.262489935542,0.460378347063,0.838784968582,0.124862275229
97078192070,6066,97080000000,world,10.9000934526,-6.65055327926,4.90031118575,0.262287430371,0.460147237299,0.839058631657,0.124299784861
97088252488,6067,97096000000,world,10.9000937172,-6.65055207747,4.90031113236,0.262084848395,0.459915830473,0.839331912345,0.123737229815
97108450442,6068,97112000000,world,10.9000938492,-6.65055140154,4.90031111263,0.261882186559,0.459684134478,0.83960480816,0.123174603663
97118505052,6069,97128000000,world,10.900093876,-6.65055126057,4.90031110895,0.261679440132,0.459452159265,0.839877315958,0.122611900309
97138654746,6070,97144000000,world,10.9000939568,-6.65055083085,4.90031109746,0.261476605163,0.459219913688,0.840149432621,0.122049115897
97158815592,6071,97160000000,world,10.9000939372,-6.65055094076,4.90031108756,0.261273677742,0.458987404144,0.840421155862,0.121486249986
97172882362,6072,97176000000,world,10.9000941197,-6.65054993807,4.90031110199,0.261070654954,0.458754633986,0.840692484465,0.120923304138
97182941840,6073,97192000000,world,10.9000942039,-6.65054947593,4.90031109138,0.26086753501,0.45852160476,0.840963417833,0.120360280044
97203051610,6074,97208000000,world,10.9000942051,-6.65054955602,4.90031108596,0.2606643037,0.458288303478,0.841233965582,0.119797190382
97223254758,6075,97224000000,world,10.9000943238,-6.65054851305,4.90031109375,0.260460940081,0.458054705832,0.841504144556,0.119234054918
97233312580,6076,97240000000,world,10.9000944041,-6.65054801807,4.90031108539,0.260257423264,0.457820793477,0.841773969019,0.118670888506
97253425646,6077,97256000000,world,10.9000944054,-6.65054806687,4.90031108545,0.260053737348,0.457586558563,0.842043447085,0.118107698039
97263479485,6078,97272000000,world,10.9000945269,-6.65054699238,4.90031107156,0.259849874791,0.457351998118,0.842312582219,0.117544486145
97283590595,6079,97288000000,world,10.9000946073,-6.65054646802,4.90031106345,0.259645834395,0.457117111612,0.842581374875,0.116981253489
97303953990,6080,97304000000,world,10.9000946055,-6.65054648958,4.90031106062,0.259441614676,0.45688190531,0.842849821553,0.116418003259
97314007809,6081,97320000000,world,10.900094764,-6.65054539447,4.90031107078,0.259237213955,0.456646389906,0.843117916227,0.115854740189
97334164080,6082,97336000000,world,10.9000948493,-6.65054484295,4.90031106548,0.259032642868,0.456410582995,0.843385645614,0.1152914673
97344305809,6083,97352000000,world,10.9000948517,-6.65054482173,4.90031106934,0.258827919331,0.456174500454,0.843652995599,0.11472818454
97364433029,6084,97368000000,world,10.9000950438,-6.65054366327,4.90031099874,0.258623059815,0.455938152337,0.843919955926,0.114164890245
97374613192,6085,97384000000,world,10.9000951457,-6.65054301312,4.90031098038,0.258418075388,0.455701543074,0.844186521093,0.113601582549
97394736136,6086,97400000000,world,10.9000951677,-6.65054287062,4.90031097706,0.258212971298,0.455464673045,0.844452689508,0.113038260093
97414925216,6087,97416000000,world,10.9000952394,-6.65054240364,4.9003109654,0.258007748894,0.455227541141,0.844718461475,0.112474922273
97424999026,6088,97432000000,world,10.9000952348,-6.65054244209,4.90031096829,0.257802406176,0.454990154755,0.844983833167,0.111911572826
97445243540,6089,97448000000,world,10.9000953965,-6.65054132158,4.90031092624,0.257596941156,0.454752516662,0.845248803487,0.111348213726
97455371064,6090,97464000000,world,10.9000954879,-6.65054070824,4.90031090988,0.257391351458,0.454514626289,0.845513373415,0.110784845807
97475531690,6091,97480000000,world,10.9000955037,-6.65054060238,4.90031090743,0.25718563388,0.454276486083,0.84577754237,0.110221471326
97495703708,6092,97496000000,world,10.900095676,-6.65053933778,4.9003108533,0.256979784398,0.454038104176,0.846041306658,0.109658094987
97505738697,6093,97512000000,world,10.900095785,-6.65053857923,4.90031083011,0.25677379956,0.453799489958,0.846304661722,0.109094721786
97525912771,6094,97528000000,world,10.9000958214,-6.65053832444,4.90031082264,0.256567677275,0.453560650634,0.846567603952,0.108531355436
97535990909,6095,97544000000,world,10.9000959052,-6.6505377407,4.90031081268,0.256361414855,0.453321593548,0.846830130318,0.107967996103
97556180181,6096,97560000000,world,10.9000960331,-6.6505368299,4.90031078853,0.256155007439,0.453082329082,0.847092237431,0.1074046392
97566294624,6097,97576000000,world,10.900096088,-6.65053642755,4.90031077583,0.255948449926,0.452842867569,0.84735392215,0.106841278962
97586366614,6098,97592000000,world,10.9000960861,-6.65053653672,4.90031079356,0.25574173833,0.452603216745,0.847615182174,0.106277911232
97606524903,6099,97608000000,world,10.9000961834,-6.65053549425,4.90031071391,0.255534870293,0.452363381002,0.847876016226,0.105714534015
97616607800,6100,97624000000,world,10.9000962538,-6.65053496721,4.90031069687,0.255327852148,0.452123358571,0.848136424175,0.10515114141
97636818351,6101,97640000000,world,10.9000962525,-6.65053495452,4.90031069874,0.255120697967,0.451883143811,0.848396406209,0.104587722701
97646935860,6102,97656000000,world,10.9000964464,-6.65053379961,4.90031063813,0.254913421955,0.45164273102,0.848655962479,0.104024267235
97667145279,6103,97672000000,world,10.9000965384,-6.65053315554,4.90031061683,0.254706027482,0.451402118175,0.84891509338,0.103460772774
97687336337,6104,97688000000,world,10.9000965565,-6.6505330263,4.90031061289,0.254498506625,0.451161306576,0.84917379976,0.102897246684
97697432392,6105,97704000000,world,10.9000966159,-6.65053257874,4.90031060268,0.254290849002,0.45092027332,0.849432095587,0.102333700264
97717680632,6106,97720000000,world,10.9000966066,-6.65053264932,4.90031059175,0.254083043589,0.450678978262,0.84969000431,0.101770143408
97727746286,6107,97736000000,world,10.9000967418,-6.65053157828,4.90031063008,0.25387507819,0.450437390423,0.849947545719,0.101206578387
97758011311,6108,97760000000,world,10.9000968165,-6.65053096028,4.90031062448,0.253562812975,0.450074424631,0.850333193098,0.100361212055
97758011311,6109,97768000000,world,10.9000968092,-6.65053101924,4.90031062353,0.253458638654,0.449953277222,0.850461567004,0.100079417748
97778510083,6110,97784000000,world,10.900096948,-6.65052986443,4.90031062495,0.253250160105,0.449710741641,0.850718053612,0.0995158204428
97798758355,6111,97800000000,world,10.9000970212,-6.65052924039,4.90031062001,0.25304150884,0.44946788495,0.850974191761,0.0989522114961
97808902075,6112,97816000000,world,10.9000970319,-6.65052914748,4.9003106193,0.252832686407,0.449224707184,0.851229980938,0.0983885902517
97829054922,6113,97832000000,world,10.9000971824,-6.65052791421,4.90031060787,0.252623695705,0.448981211117,0.851485418727,0.0978249565695
97839174881,6114,97848000000,world,10.9000972633,-6.65052721207,4.90031060157,0.25241454692,0.448737408576,0.851740495658,0.097261311443
97849243044,6115,97864000000,world,10.900097282,-6.65052704672,4.90031059999,0.252205264808,0.448493314139,0.85199519728,0.0966976493389
97879528408,6116,97880000000,world,10.9000973158,-6.65052659694,4.90031063421,0.251995877798,0.448248938935,0.852249510358,0.0961339607504
97889604765,6117,97896000000,world,10.9000973931,-6.65052586571,4.90031064108,0.251786407945,0.44800428913,0.852503426092,0.0955702369747
97909756687,6118,97912000000,world,10.9000974145,-6.65052568365,4.90031063799,0.251576867952,0.447759366951,0.852756940185,0.0950064723355
97919864351,6119,97928000000,world,10.9000974533,-6.65052521638,4.90031065178,0.25136726237,0.447514172258,0.853010051628,0.0944426643964
97940108124,6120,97944000000,world,10.9000975338,-6.65052446559,4.90031064931,0.251157591965,0.447268705001,0.853262760238,0.0938788129278
97950222332,6121,97960000000,world,10.9000975571,-6.65052426465,4.90031064616,0.250947856786,0.447022965218,0.853515065942,0.0933149181631
97970381662,6122,97976000000,world,10.9000976074,-6.65052377592,4.9003106462,0.250738054761,0.446776951618,0.853766969943,0.0927509807655
97990632647,6123,97992000000,world,10.9000976933,-6.65052299763,4.9003106371,0.250528179787,0.44653067079,0.854018469981,0.0921870061774
98000715519,6124,98008000000,world,10.9000977188,-6.65052275911,4.90031063241,0.250318216802,0.446284131816,0.854269564407,0.0916230066832
98020929665,6125,98024000000,world,10.9000977925,-6.65052221997,4.90031064028,0.250108148234,0.446037340763,0.854520253794,0.0910589956419
98030997409,6126,98040000000,world,10.9000978833,-6.65052137054,4.90031062872,0.249897960336,0.445790300308,0.854770539734,0.0904949831449
98051186681,6127,98056000000,world,10.9000979116,-6.65052104771,4.90031061992,0.249687635211,0.445543006457,0.855020428789,0.0899309767218
98071423923,6128,98072000000,world,10.9000979848,-6.6505204226,4.9003106124,0.249477153265,0.445295453332,0.855269929149,0.0893669823469
98081546229,6129,98088000000,world,10.9000980726,-6.65051949422,4.90031059306,0.24926650946,0.445047639921,0.85551904264,0.0888030018793
98101758655,6130,98104000000,world,10.9000981051,-6.65051909957,4.90031058366,0.249055707029,0.444799568583,0.855767767106,0.0882390353927
98111857140,6131,98120000000,world,10.9000981294,-6.6505188175,4.90031057775,0.248844756316,0.444551241729,0.856016098595,0.0876750801445
98132061184,6132,98136000000,world,10.9000981437,-6.6505186456,4.90031057416,0.248633667958,0.44430266417,0.856264032177,0.0871111299945
98142156911,6133,98152000000,world,10.900098184,-6.65051816485,4.90031057094,0.248422446779,0.444053845596,0.856511562366,0.08654717604
98162327711,6134,98168000000,world,10.9000982485,-6.65051737658,4.90031055695,0.248211092882,0.44380479619,0.856758684703,0.0859832101895
98182490735,6135,98184000000,world,10.9000982688,-6.6505171208,4.90031055122,0.247999604107,0.443555523335,0.85700539654,0.0854192272471
98196884134,6136,98200000000,world,10.9000983144,-6.65051655997,4.9003105446,0.247787978544,0.443306031203,0.85725169653,0.0848552248578
98206941757,6137,98216000000,world,10.9000983817,-6.6505156951,4.90031052819,0.247576211568,0.44305630548,0.857497593143,0.0842912059037
98227049319,6138,98232000000,world,10.900098406,-6.65051536607,4.90031052093,0.247364297046,0.442806316022,0.85774310299,0.0837271778467
98247198139,6139,98248000000,world,10.9000984556,-6.65051473571,4.90031051328,0.247152228347,0.442556035865,0.857988241269,0.0831631468119
98257254806,6140,98264000000,world,10.9000985232,-6.65051380625,4.90031049523,0.246939997951,0.442305452659,0.858233016329,0.0825991140589
98277368190,6141,98280000000,world,10.9000985494,-6.65051341861,4.90031048646,0.246727601533,0.442054562277,0.858477431438,0.0820350798381
98287424269,6142,98296000000,world,10.9000985968,-6.65051273412,4.90031047322,0.246515038354,0.441803364563,0.858721486751,0.0814710446628
98318019823,6143,98312000000,world,10.9000986807,-6.65051146645,4.90031044701,0.24619588411,0.441425996193,0.859086891589,0.0806249913611
98328109282,6144,98328000000,world,10.90009869,-6.65051131679,4.90031044381,0.246089421113,0.441300059229,0.859208508495,0.0803429739961
98338371862,6145,98344000000,world,10.9000986677,-6.65051142331,4.90031042761,0.245876391424,0.441047979809,0.859451453064,0.07977894129
98358734745,6146,98360000000,world,10.9000987828,-6.65051040602,4.90031046886,0.245663235638,0.440795640432,0.859694001175,0.0792149125818
98368919622,6147,98376000000,world,10.9000988161,-6.65050991721,4.90031046425,0.245449964077,0.440543053399,0.859936143477,0.0786508892435
98389071493,6148,98392000000,world,10.9000988082,-6.65050995671,4.90031045823,0.245236580385,0.440290223743,0.860177876311,0.0780868722755
98399135644,6149,98408000000,world,10.900098914,-6.65050884908,4.90031048877,0.245023083943,0.440037151567,0.860419199807,0.0775228622995
98419279091,6150,98424000000,world,10.9000989545,-6.65050826346,4.90031048774,0.244809472621,0.439783834953,0.860660115578,0.0769588596733
98439490025,6151,98440000000,world,10.9000989582,-6.65050820212,4.90031048709,0.244595745296,0.439530272852,0.860900624508,0.0763948646963
98449576162,6152,98456000000,world,10.9000990459,-6.65050698538,4.9003104943,0.244381902561,0.439276457972,0.861140730447,0.0758308745741
98469782477,6153,98472000000,world,10.9000990905,-6.65050628953,4.90031049064,0.244167945681,0.43902237688,0.861380440395,0.0752668838583
98479920011,6154,98488000000,world,10.9000991013,-6.65050611337,4.90031048939,0.243953875913,0.438768016512,0.861619761119,0.0747028872479
98500127347,6155,98504000000,world,10.9000991367,-6.65050561891,4.90031051062,0.243739694208,0.438513367895,0.861858697204,0.0741388811545
98510194647,6156,98520000000,world,10.9000991874,-6.65050480157,4.90031051362,0.243525398245,0.438258435928,0.862097246521,0.0735748685906
98530393793,6157,98536000000,world,10.9000992045,-6.65050449852,4.90031050957,0.243310987013,0.438003225303,0.862335406736,0.0730108520197
98550668041,6158,98552000000,world,10.9000992417,-6.6505038701,4.90031051345,0.243096461118,0.437747737543,0.862573176831,0.0724468320847
98580945203,6159,98568000000,world,10.90009931,-6.65050263094,4.90031050346,0.242774456648,0.437363995032,0.862929095854,0.0716008001118
98591035998,6160,98584000000,world,10.9000993182,-6.6505024749,4.90031050175,0.242667064285,0.437235945753,0.86304753862,0.0713187894911
98591035998,6161,98600000000,world,10.9000993149,-6.65050254825,4.90031050594,0.242452192219,0.436979649503,0.863284126353,0.0707547708306
98611189951,6162,98616000000,world,10.900099368,-6.65050145396,4.90031047756,0.242237201622,0.436723096845,0.863520313674,0.0701907594037
98631387614,6163,98632000000,world,10.9000993966,-6.65050087041,4.90031046921,0.242022089971,0.436466296457,0.863756096559,0.0696267597978
98641502757,6164,98648000000,world,10.9000994002,-6.65050079684,4.90031046864,0.241806856211,0.436209255491,0.863991471591,0.0690627738527
98661668891,6165,98664000000,world,10.900099456,-6.65049955314,4.90031044047,0.241591501946,0.435951980684,0.864226435245,0.0684987981476
98671752871,6166,98680000000,world,10.900099492,-6.65049881664,4.90031043485,0.241376031789,0.435694479347,0.864460983034,0.067934827266
98691990960,6167,98696000000,world,10.9000995033,-6.65049858608,4.90031043455,0.241160448968,0.435436745281,0.864695117498,0.0673708578495
98702113005,6168,98712000000,world,10.9000995253,-6.65049802004,4.90031042241,0.240944752121,0.435178768835,0.864928843563,0.0668068945105
98722369342,6169,98728000000,world,10.9000995648,-6.6504971188,4.90031041433,0.240728938478,0.434920544846,0.865162164266,0.0662429420544
98742604350,6170,98744000000,world,10.9000995819,-6.650496725,4.90031041286,0.240513006736,0.434662072348,0.865395080388,0.0656790019204
98752725070,6171,98760000000,world,10.9000995935,-6.65049642004,4.90031040989,0.240296955641,0.43440335378,0.865627590963,0.0651150758051
98772962103,6172,98776000000,world,10.9000996019,-6.65049620481,4.90031040855,0.240080784023,0.434144392581,0.865859694484,0.0645511657629
98783049898,6173,98792000000,world,10.9000996203,-6.65049565892,4.90031040439,0.239864491168,0.433885191623,0.866091389637,0.0639872734543
98803214202,6174,98808000000,world,10.9000996515,-6.65049478223,4.9003103987,0.23964807678,0.433625752637,0.866322675615,0.0634233999421
98823413627,6175,98824000000,world,10.9000996644,-6.65049441557,4.90031039686,0.239431540858,0.433366076291,0.866553552107,0.0628595457596
98833533808,6176,98840000000,world,10.900099674,-6.65049413841,4.90031039571,0.239214883549,0.433106162742,0.866784019033,0.062295711188
98853732565,6177,98856000000,world,10.9000996802,-6.65049395068,4.90031039511,0.238998105112,0.43284601178,0.867014076481,0.0617318963185
98863861204,6178,98872000000,world,10.9000996979,-6.65049343179,4.90031039418,0.23878120577,0.432585623313,0.867243724484,0.0611681013055
98884108868,6179,98888000000,world,10.9000997252,-6.65049258166,4.90031039269,0.238564185734,0.432324997356,0.867472963022,0.0606043263482
98894185193,6180,98904000000,world,10.9000997354,-6.65049224124,4.90031039249,0.238347045679,0.432064134589,0.867701791611,0.0600405717293
98914384234,6181,98920000000,world,10.9000997536,-6.65049156899,4.9003103917,0.238129786069,0.431803035511,0.867930209915,0.0594768377397
98934657067,6182,98936000000,world,10.9000997817,-6.65049056464,4.90031039224,0.237912407046,0.431541700244,0.868158217878,0.0589131246465
98944743837,6183,98952000000,world,10.9000997954,-6.65049006921,4.90031039354,0.237694908725,0.431280128375,0.868385815729,0.0583494325172
98964956423,6184,98968000000,world,10.900099795,-6.6504900827,4.90031039318,0.237477291257,0.431018319304,0.868613003787,0.0577857613337
98975060404,6185,98984000000,world,10.9000998249,-6.6504889227,4.90031040072,0.237259554833,0.430756272613,0.868839782263,0.0572221111322
98995295717,6186,99000000000,world,10.9000998409,-6.65048827173,4.90031040445,0.237041699675,0.430493988157,0.869066151215,0.0566584820441
99015521344,6187,99016000000,world,10.9000998442,-6.65048812696,4.90031040537,0.236823717494,0.430231455569,0.869292118128,0.0560948734894
99025598502,6188,99032000000,world,10.9000998125,-6.65048766751,4.90031036004,0.236605595284,0.429968658775,0.869517694584,0.0555312844892
99045838813,6189,99048000000,world,10.900099813,-6.65048687756,4.90031034729,0.236387329641,0.42970559348,0.869742883632,0.0549677149715
99055964793,6190,99064000000,world,10.9000998226,-6.6504865753,4.9003103543,0.236168926033,0.429442266301,0.86996768046,0.0544041656979
99076161626,6191,99080000000,world,10.9000998032,-6.65048591621,4.90031032978,0.235950395729,0.429178681307,0.870192080265,0.0538406325237
99086299929,6192,99096000000,world,10.9000998149,-6.65048489586,4.9003103338,0.235731751835,0.428914839433,0.870416079673,0.0532771051963
99106531139,6193,99112000000,world,10.9000998323,-6.650484353,4.9003103491,0.235513001781,0.428650746349,0.870639674323,0.0527135764462
99126710440,6194,99128000000,world,10.9000998346,-6.65048428742,4.90031035119,0.235294149752,0.428386404058,0.870862862454,0.052150040361
99136765915,6195,99144000000,world,10.9000998656,-6.65048301759,4.90031038563,0.235075200009,0.42812181215,0.871085643386,0.0515864923232
99156914754,6196,99160000000,world,10.9000998878,-6.65048222697,4.90031040983,0.234856154104,0.427856974644,0.871308014702,0.0510229325248
99167010093,6197,99176000000,world,10.9000998961,-6.65048191601,4.90031041971,0.23463701211,0.427591892809,0.871529975723,0.0504593615551
99187169839,6198,99192000000,world,10.9000999088,-6.65048124509,4.90031043705,0.234417772704,0.427326564958,0.871751527619,0.0498957795314
99201183374,6199,99208000000,world,10.9000999301,-6.65048021556,4.90031046441,0.234198424117,0.427060972715,0.871972682272,0.0493321912769
99221295897,6200,99224000000,world,10.9000999388,-6.65047967355,4.90031047573,0.233978955481,0.426795104482,0.872193447565,0.0487686088349
99231399162,6201,99240000000,world,10.9000999419,-6.65047962695,4.9003104796,0.23375936594,0.426528960073,0.872413823513,0.0482050370573
99251548798,6202,99256000000,world,10.9000999042,-6.65047840468,4.90031044132,0.233539659517,0.426262544117,0.872633806704,0.0476414768146
99271659392,6203,99272000000,world,10.9000999043,-6.65047768773,4.90031044744,0.23331983981,0.425995864872,0.872853392014,0.0470779302108
99284649437,6204,99288000000,world,10.9000999048,-6.65047748009,4.90031045072,0.233099907558,0.425728933478,0.87307257358,0.0465144016229
99294707791,6205,99304000000,world,10.9000999056,-6.65047694108,4.90031045096,0.232879862858,0.425461752978,0.873291349841,0.0459508924881
99314855423,6206,99320000000,world,10.9000999063,-6.65047606943,4.90031046088,0.232659708062,0.425194320118,0.873509721885,0.0453874008523
99335039100,6207,99336000000,world,10.9000999084,-6.65047569517,4.90031046614,0.232439453629,0.424926627874,0.873727690822,0.0448239178499
99345115829,6208,99352000000,world,10.9000999186,-6.65047538093,4.90031046663,0.232219114405,0.424658668593,0.873945257082,0.0442604306148
99365303098,6209,99368000000,world,10.9000999237,-6.65047511195,4.90031046884,0.231998703359,0.424390436555,0.874162420547,0.0436969278646
99375427339,6210,99384000000,world,10.9000999405,-6.65047445821,4.90031047244,0.231778228804,0.424121928709,0.874379180808,0.0431334024778
99395590322,6211,99400000000,world,10.9000999655,-6.65047341545,4.90031047938,0.231557694412,0.423853144254,0.874595537382,0.042569851506
99415838703,6212,99424000000,world,10.9000999811,-6.65047269804,4.90031048534,0.231226782281,0.423449448967,0.874919314791,0.0417244764078
99425914853,6213,99432000000,world,10.9000999813,-6.65047268476,4.90031048553,0.231116448785,0.423314745846,0.875027038435,0.0414426719511
99446122159,6214,99448000000,world,10.9000999922,-6.65047215695,4.90031049503,0.230895736661,0.423045134455,0.875242181722,0.040879045241
99456241245,6215,99464000000,world,10.9001000089,-6.65047124293,4.90031050775,0.230674962879,0.422775250384,0.875456919543,0.0403153964096
99476476629,6216,99480000000,world,10.9001000158,-6.65047078614,4.90031051382,0.230454125719,0.422505094286,0.875671251909,0.0397517272781
99486606117,6217,99496000000,world,10.9001000169,-6.65047078809,4.90031051339,0.230233224071,0.422234666354,0.875885178921,0.0391880391078
99506822739,6218,99512000000,world,10.9001000207,-6.65046956677,4.90031053581,0.230012257488,0.421963966533,0.876098700653,0.0386243325884
99526978178,6219,99528000000,world,10.9001000284,-6.65046880503,4.90031054839,0.229791225945,0.421692994859,0.876311817036,0.0380606080907
99537054540,6220,99544000000,world,10.9001000301,-6.65046850203,4.90031055415,0.229570120486,0.42142175395,0.876524528789,0.0374968733232
99557290060,6221,99560000000,world,10.9001000804,-6.6504678189,4.90031054783,0.229348927229,0.421150247785,0.876736837104,0.0369331400442
99567414869,6222,99576000000,world,10.9001001051,-6.65046675211,4.90031056101,0.229127633823,0.420878479921,0.87694874305,0.0363694187736
99587632894,6223,99592000000,world,10.9001001012,-6.65046613873,4.90031057499,0.228906229667,0.42060646042,0.87716024411,0.0358057205712
99607855868,6224,99608000000,world,10.9001000997,-6.65046597484,4.90031057905,0.228684706421,0.420334204834,0.877371334589,0.0352420563658
99617941057,6225,99624000000,world,10.9001001069,-6.65046543013,4.90031065026,0.228463056874,0.420061730745,0.877582007746,0.0346784326012
99638195346,6226,99640000000,world,10.9001001013,-6.65046449609,4.9003106984,0.22824127242,0.419789056649,0.877792257037,0.0341148496571
99648266295,6227,99656000000,world,10.9001000929,-6.65046400856,4.9003107045,0.228019345976,0.419516196809,0.87800207771,0.0335513042054
99668466441,6228,99672000000,world,10.9001000924,-6.65046397039,4.90031070636,0.227797274504,0.419243158867,0.878211467187,0.0329877912543
99678589626,6229,99688000000,world,10.900100063,-6.65046269917,4.90031069499,0.227575060605,0.41896993971,0.878420426721,0.0324243015229
99698752372,6230,99704000000,world,10.9001000462,-6.65046187918,4.90031070342,0.227352708107,0.418696512152,0.878628968579,0.0318608286331
99719016100,6231,99720000000,world,10.9001000386,-6.65046151452,4.90031071007,0.227130219721,0.41842282837,0.878837114906,0.0312973713421
99729143448,6232,99736000000,world,10.9001000371,-6.65046160358,4.90031064313,0.22690759503,0.418148848294,0.879044884866,0.0307339288047
99749339489,6233,99752000000,world,10.9001000249,-6.6504605986,4.90031087778,0.226684831131,0.417874546834,0.87925229123,0.0301704956916
99759461635,6234,99768000000,world,10.9001000108,-6.65046003471,4.90031089441,0.22646192575,0.417599912856,0.879459339845,0.029607068876
99779683036,6235,99784000000,world,10.9001000082,-6.65045993774,4.90031089581,0.226238879604,0.417324940266,0.879666033343,0.0290436459583
99799896642,6236,99800000000,world,10.9000999709,-6.6504586336,4.9003110108,0.226015695146,0.417049621471,0.879872374646,0.0284802232138
99810035192,6237,99816000000,world,10.9000999458,-6.65045778621,4.9003110356,0.225792371399,0.416773959292,0.880078362428,0.02791680245
99830226097,6238,99832000000,world,10.9000999347,-6.65045739412,4.9003110405,0.225568913779,0.41649796506,0.880283989766,0.0273533837052
99840245438,6239,99848000000,world,10.9000999113,-6.65045745013,4.90031106117,0.225345341661,0.416221661326,0.880489240974,0.0267899638554
99860439163,6240,99864000000,world,10.9001000181,-6.65045631684,4.90031096104,0.225121678802,0.415945073302,0.880694098066,0.0262265392385
99870566615,6241,99880000000,world,10.9001000124,-6.65045561335,4.90031096459,0.224897944574,0.415668219791,0.880898547242,0.0256631067513
99890847538,6242,99896000000,world,10.9001000083,-6.65045534555,4.90031096846,0.224674150702,0.41539111102,0.881102580711,0.0250996644864
99911021506,6243,99912000000,world,10.9000999743,-6.65045467219,4.90031097344,0.224450301351,0.415113751543,0.881306195246,0.024536212502
99921091758,6244,99928000000,world,10.9000999437,-6.65045359252,4.90031098828,0.224226397242,0.414836142313,0.881509390202,0.0239727511134
99941322779,6245,99944000000,world,10.9000999322,-6.65045294828,4.90031100032,0.224002438755,0.414558282465,0.881712165889,0.023409280115
99951391659,6246,99960000000,world,10.9000999282,-6.65045274065,4.90031100459,0.223778424022,0.414280169817,0.88191452378,0.0228458001567
99971585838,6247,99976000000,world,10.9000999248,-6.65045212936,4.90031101172,0.22355434974,0.414001801351,0.882116466091,0.0222823122964
99991724056,6248,99992000000,world,10.9000999075,-6.65045111547,4.90031103087,0.223330212949,0.4137231745,0.882317994735,0.0217188174929
100001836961,6249,100008000000,world,10.9000998916,-6.65045053968,4.90031104514,0.223106002647,0.413444290187,0.882519111836,0.0211553241269
100022055709,6250,100024000000,world,10.900099888,-6.65045040044,4.90031104857,0.222881703958,0.413165151509,0.882719819399,0.0205918444857
100032242883,6251,100040000000,world,10.9000999734,-6.65044990873,4.90031102148,0.22265730434,0.412885761717,0.882920118819,0.0200283893685
100052442334,6252,100056000000,world,10.900099992,-6.65044904369,4.90031102709,0.222432795874,0.412606123029,0.883120010907,0.0194649658109
100062568845,6253,100072000000,world,10.9000999729,-6.650448614,4.9003110412,0.222208173116,0.412326239664,0.883319495052,0.0189015752419
100082768060,6254,100088000000,world,10.9000999751,-6.65044862186,4.90031104383,0.22198343691,0.412046118825,0.883518567909,0.0183382076498
100103034450,6255,100104000000,world,10.9000999033,-6.65044739832,4.90031105,0.221758592613,0.411765772101,0.883717223027,0.0177748489441
100113094144,6256,100120000000,world,10.9000998681,-6.65044663655,4.90031106508,0.221533647081,0.411485214494,0.883915451909,0.0172114886015
100133256460,6257,100136000000,world,10.9000998546,-6.65044635007,4.90031107044,0.221308606597,0.411204460016,0.884113246604,0.0166481196656
100143349781,6258,100152000000,world,10.9000998279,-6.65044570847,4.90031109796,0.221083476689,0.410923520458,0.884310600385,0.0160847354875
100163538013,6259,100168000000,world,10.9000997812,-6.65044471681,4.90031112599,0.220858260778,0.410642404268,0.884507508595,0.0155213305548
100183740227,6260,100184000000,world,10.9000997557,-6.65044421734,4.90031113735,0.220632960953,0.410361116039,0.884703968678,0.0149579005627
100193797630,6261,100200000000,world,10.9000997574,-6.65044420755,4.90031113256,0.220407575639,0.410079640962,0.884899987719,0.0143944573956
100213961623,6262,100216000000,world,10.9000996659,-6.65044301153,4.90031122602,0.220182100645,0.409797948241,0.885095580675,0.0138310246129
100224091615,6263,100232000000,world,10.9000996229,-6.65044229461,4.90031125723,0.219956538785,0.409516011896,0.885290758777,0.013267609825
100244231683,6264,100248000000,world,10.9000996093,-6.65044206081,4.90031126729,0.219730896144,0.409233817979,0.885485527047,0.0127042076826
100254292793,6265,100264000000,world,10.9000995653,-6.65044147155,4.9003112814,0.219505175353,0.408951360205,0.885679887769,0.0121408146684
100274403084,6266,100280000000,world,10.9000995032,-6.65044052571,4.90031131892,0.219279372073,0.408668638031,0.885873842196,0.0115774342963
100294513357,6267,100296000000,world,10.9000994741,-6.65044006386,4.90031134037,0.219053480261,0.408385643362,0.886067395531,0.0110140664081
100304567443,6268,100312000000,world,10.9000994764,-6.65044008715,4.9003113401,0.218827496707,0.408102370998,0.886260550922,0.0104507105019
100324761200,6269,100328000000,world,10.9000993928,-6.65043891511,4.90031138706,0.218601413881,0.407818832125,0.886453304928,0.00988737558669
100334864605,6270,100344000000,world,10.9000993458,-6.65043822297,4.90031141721,0.218375232032,0.407535035396,0.886645653447,0.0093240647834
100355137950,6271,100360000000,world,10.9000993316,-6.65043800822,4.90031142635,0.21814895961,0.407250992389,0.886837589085,0.00876077648749
100375309803,6272,100376000000,world,10.9000992697,-6.65043743506,4.90031147571,0.217922606314,0.406966716174,0.887029103489,0.00819750861264
100385365031,6273,100392000000,world,10.9000991977,-6.65043649516,4.90031152532,0.217696179469,0.406682216843,0.887220190273,0.00763425965731
100405662007,6274,100408000000,world,10.9000991687,-6.65043602482,4.9003115424,0.217469683176,0.406397500168,0.887410845836,0.00707102890555
100415833097,6275,100424000000,world,10.9000991683,-6.65043602534,4.90031154297,0.217243118806,0.406112568158,0.887601068974,0.00650781630313
100436076823,6276,100440000000,world,10.9000990961,-6.65043481598,4.90031158102,0.217016488572,0.405827415193,0.887790861787,0.00594461880764
100446170132,6277,100456000000,world,10.9000990485,-6.65043407549,4.90031160747,0.21678979372,0.405542037989,0.887980225524,0.00538143480282
100466356932,6278,100472000000,world,10.9000990304,-6.65043380335,4.90031161769,0.216563034368,0.405256435943,0.888169160465,0.00481826434018
100486604186,6279,100496000000,world,10.9000989504,-6.65043259623,4.90031165925,0.216222771929,0.404827613733,0.888451758431,0.00397353745247
100506810828,6280,100504000000,world,10.9000988965,-6.65043181802,4.9003116896,0.215995848833,0.404541447656,0.888639622997,0.00341040388152
100516934956,6281,100520000000,world,10.9000988812,-6.6504316039,4.90031169805,0.215882363764,0.404398275679,0.888733396468,0.00312884082778
100527001004,6282,100536000000,world,10.9000988759,-6.65043152479,4.90031170228,0.215655346451,0.404111750154,0.88892062752,0.00256571702365
100547179811,6283,100552000000,world,10.9000987583,-6.65043023797,4.9003116941,0.215428262275,0.403824985181,0.889107437148,0.00200258974032
100567445344,6284,100568000000,world,10.9000986929,-6.65042941843,4.90031171696,0.215201105506,0.403537986186,0.889293824263,0.00143945174247
100577584515,6285,100584000000,world,10.9000986661,-6.65042907355,4.90031172749,0.214973850926,0.403250755999,0.889479793635,0.000876309951322
100597731213,6286,100600000000,world,10.9000985332,-6.65042839368,4.9003117694,0.214746461537,0.402963289066,0.88966535666,0.000313180838199
100607816700,6287,100616000000,world,10.9000984185,-6.65042737474,4.90031181353,0.214518905416,0.402675574412,0.889850525949,-0.000249920013625
100627984969,6288,100632000000,world,10.9000983839,-6.65042686473,4.90031183092,0.214291170091,0.402387612959,0.89003530403,-0.000812981720919
100648269027,6289,100648000000,world,10.9000983867,-6.6504268776,4.90031183187,0.214063258745,0.402099415616,0.890219685159,-0.00137599868817
100658342004,6290,100664000000,world,10.9000982922,-6.65042574211,4.90031185865,0.213835181332,0.401810994708,0.890403661355,-0.00193896942009
100678536448,6291,100680000000,world,10.9000982471,-6.65042513491,4.90031187656,0.213606943575,0.401522365845,0.890587224216,-0.00250188853238
100688609701,6292,100696000000,world,10.9000982414,-6.65042505537,4.90031187933,0.21337854909,0.401233521601,0.890770376279,-0.00306474715371
100708817444,6293,100712000000,world,10.9000981413,-6.65042382517,4.90031190345,0.213150001711,0.400944433005,0.890953129724,-0.00362754004294
100718953282,6294,100728000000,world,10.9000980843,-6.65042312028,4.90031192191,0.212921297517,0.400655084977,0.891135492299,-0.00419026384481
