%time,field.header.seq,field.header.stamp,field.header.frame_id,field.twist.linear.x,field.twist.linear.y,field.twist.linear.z,field.twist.angular.x,field.twist.angular.y,field.twist.angular.z
93754111009,5858,93752000000,world,8.87239244245e-08,-7.88632082881e-06,-2.46307462112e-07,0.054425041152,-0.000491197708601,0.0680834305913
93764225342,5859,93768000000,world,2.06903377588e-05,6.82052305575e-05,-3.81508520357e-06,0.0544331240659,-0.000504064863577,0.0680824658219
93774344692,5860,93784000000,world,1.74747228587e-05,4.40267020916e-05,-3.52624987806e-06,0.0544417072635,-0.000517855171219,0.0680817702146
93794586742,5861,93800000000,world,8.81277253069e-06,2.20138993615e-05,-1.71268633954e-06,0.054449030575,-0.000529877128081,0.0680802615801
93814781613,5862,93816000000,world,-1.14897226035e-07,3.89076349625e-07,-2.85237110838e-07,0.0544540097343,-0.000538845368619,0.0680773737934
93824866066,5863,93832000000,world,1.12864532879e-05,2.77122857401e-05,-1.86475174969e-06,0.0544579804682,-0.000546645302885,0.0680739554604
93845068899,5864,93848000000,world,2.72684065066e-06,6.72040830174e-06,-4.14437649468e-07,0.0544612108472,-0.000552882238947,0.0680699198882
93855184761,5865,93864000000,world,3.32983642037e-05,8.3331342384e-05,-3.05624542287e-06,0.0544641677813,-0.00055810102487,0.0680655152482
93876215363,5866,93880000000,world,2.51087951966e-05,6.21078409762e-05,-3.75659010988e-06,0.0544669209511,-0.000562625994935,0.0680608625076
93886290671,5867,93896000000,world,1.66871128206e-05,4.12059064409e-05,-2.65678038934e-06,0.0544702023895,-0.000567890441154,0.0680565677906
93906435000,5868,93912000000,world,8.33734940935e-06,2.0596403297e-05,-1.28424353215e-06,0.054474770968,-0.00057513778052,0.068053157001
93926588945,5869,93928000000,world,-9.4927805002e-08,2.40114269323e-07,-1.36070848609e-07,0.05448081607,-0.000584624946277,0.0680507329537
93936730383,5870,93944000000,world,1.14970554268e-05,2.83592185207e-05,-1.67212542363e-06,0.0544869106491,-0.00059422846025,0.0680483541114
93967075226,5871,93960000000,world,3.15730434511e-06,7.55824449784e-06,-3.58756378393e-07,0.0544918292596,-0.000602142776273,0.0680452240867
93977151035,5872,93976000000,world,4.29283070014e-05,7.87385108452e-05,3.64946879443e-06,0.0544960630894,-0.000609062044129,0.0680416517501
93987256356,5873,93992000000,world,2.59011385781e-05,6.14209501194e-05,-2.6131388882e-06,0.0544996599476,-0.000615020852696,0.0680376542287
94007433433,5874,94008000000,world,1.62381886087e-05,4.07930470209e-05,-2.63377188703e-06,0.054502690332,-0.000619490771379,0.0680334110393
94017501263,5875,94024000000,world,7.85407958798e-06,1.96809291838e-05,-1.34629038267e-06,0.054504747484,-0.000621383081449,0.0680286025368
94037703950,5876,94040000000,world,-1.00222744574e-06,-1.20973278449e-06,9.87805437133e-07,0.0545058693152,-0.000620923857469,0.0680232353196
94047832512,5877,94056000000,world,3.26256370659e-05,6.68402049861e-05,-1.50575957958e-05,0.0545063540751,-0.000618910178331,0.0680174799543
94068016626,5878,94072000000,world,1.99231700752e-05,4.8726392157e-05,-4.34408391239e-06,0.054506534718,-0.00061617962125,0.0680115322623
94078120358,5879,94088000000,world,1.10537003386e-05,2.76306346607e-05,-2.13374553906e-06,0.0545061979493,-0.000613120773351,0.0680060385352
94098330341,5880,94104000000,world,2.4975534112e-06,6.16741393159e-06,-4.30942397364e-07,0.0545047827942,-0.000609526284894,0.0680017606863
94118551339,5881,94120000000,world,3.56200489732e-05,8.08303983602e-05,-3.02335991883e-06,0.0545024099865,-0.000605463413833,0.0679986363189
94128631804,5882,94136000000,world,2.4089861383e-05,6.00924274022e-05,-4.20179411332e-06,0.0544994363802,-0.000601334936004,0.0679963425092
94148782155,5883,94152000000,world,1.49941604535e-05,3.84190211105e-05,-2.88736166035e-06,0.0544962008457,-0.000597311484503,0.0679944749894
94158880463,5884,94168000000,world,6.42551950275e-06,1.655098894e-05,-1.21876288725e-06,0.0544929320573,-0.000593426286245,0.0679927018773
94179155698,5885,94184000000,world,-1.97700886875e-06,-5.38814673446e-06,2.531154745e-07,0.0544896347034,-0.000589578082159,0.0679909209732
94199268681,5886,94200000000,world,2.69566346919e-05,7.06700759759e-05,-4.44346400119e-06,0.0544904421505,-0.000587837305386,0.0679885249441
94209325342,5887,94216000000,world,1.86036319864e-05,4.83542461512e-05,-3.05056016932e-06,0.0544970958797,-0.000589575957951,0.0679853853791
94229624685,5888,94232000000,world,9.89841398337e-06,2.58741605823e-05,-1.53970855203e-06,0.0545079182105,-0.00059397852104,0.0679824536357
94239681587,5889,94248000000,world,1.23459122449e-06,3.09168258025e-06,-2.27989824673e-07,0.0545208507555,-0.000599860404952,0.0679801835369
94259938843,5890,94264000000,world,3.33973789887e-05,7.64259306893e-05,-8.02371587951e-06,0.0545346362555,-0.000606382286465,0.0679781972463
94270016998,5891,94280000000,world,2.12739467556e-05,5.51633540271e-05,-3.45577871624e-06,0.0545484683958,-0.000612941953701,0.0679762266443
94290373414,5892,94296000000,world,1.21935105316e-05,3.24419744332e-05,-1.77554788048e-06,0.0545623077463,-0.000619485138634,0.067974248562
94310586804,5893,94312000000,world,3.56425821023e-06,9.53415116476e-06,-5.04557481701e-07,0.0545760344377,-0.000626007463697,0.0679722580164
94320654828,5894,94328000000,world,3.12609685383e-05,8.53252276055e-05,-3.36449649405e-06,0.0545891988584,-0.000632164057777,0.0679701027002
94340907181,5895,94344000000,world,2.33450266093e-05,6.21133226831e-05,-3.21107572172e-06,0.0546002642033,-0.000639879243723,0.0679679781993
94351043073,5896,94360000000,world,1.4997649128e-05,3.8940632705e-05,-2.1831469939e-06,0.0546083913889,-0.000650502657868,0.0679660516004
94371201341,5897,94376000000,world,6.12657470318e-06,1.58302522741e-05,-8.83732273369e-07,0.0546141302746,-0.000663724235456,0.0679643286403
94391382999,5898,94392000000,world,-5.38466712808e-06,-6.20214156476e-06,1.18236078931e-06,0.054618445988,-0.000678641669238,0.0679627496884
94401447063,5899,94408000000,world,3.07283508469e-05,6.31231652183e-05,-5.24913295047e-06,0.0546222046203,-0.00069426356785,0.0679612258468
94421625926,5900,94424000000,world,1.67628181321e-05,4.21450208143e-05,-2.42272723019e-06,0.0546259759301,-0.000709883654698,0.0679596876445
94431685447,5901,94440000000,world,7.48871308153e-06,1.90323270822e-05,-1.0562626496e-06,0.0546297848709,-0.000725470896476,0.0679581321563
94451990639,5902,94456000000,world,-1.52969331062e-06,-4.18712597161e-06,1.96404357573e-07,0.0546336342349,-0.000741021954346,0.0679565591685
94462124718,5903,94472000000,world,2.71110974273e-05,7.07008468483e-05,-3.66946998791e-06,0.0546378487157,-0.000756129587653,0.0679549306539
94482452931,5904,94488000000,world,1.8354504439e-05,4.74316418695e-05,-2.48131525408e-06,0.0546424257622,-0.000770795101116,0.0679532475927
94502670256,5905,94504000000,world,9.34347635399e-06,2.42832579941e-05,-1.23653054584e-06,0.0546472656515,-0.000785141999781,0.0679515221149
94512760433,5906,94520000000,world,4.86052769658e-06,1.27043671898e-05,-6.34103996528e-07,0.0546497548196,-0.000792232573886,0.0679506470099
94532904165,5907,94536000000,world,3.31313277305e-05,7.43585357444e-05,-5.15994370149e-06,0.0546560617893,-0.000811836797588,0.067947323986
94542974101,5908,94552000000,world,2.08783464683e-05,5.32436651748e-05,-2.54413118965e-06,0.0546580473821,-0.000821896541308,0.0679438487876
94563093717,5909,94568000000,world,1.19412666177e-05,3.10017011556e-05,-1.29651024798e-06,0.0546584703246,-0.000829862793024,0.0679394971441
94583210448,5910,94584000000,world,3.35261936225e-06,8.80732615593e-06,-3.75256242127e-07,0.0546579110166,-0.000836512329029,0.0679345943422
94593294277,5911,94600000000,world,2.91466492208e-05,8.57397891976e-05,-6.27833169473e-06,0.0546569716383,-0.000842608212125,0.0679294593325
94613506444,5912,94616000000,world,2.34709914221e-05,6.26123892483e-05,-2.8099660782e-06,0.0546556190391,-0.000848497736798,0.0679248234566
94623624921,5913,94632000000,world,1.52516677713e-05,4.00858852684e-05,-1.53447455948e-06,0.0546532086445,-0.000853924400303,0.0679214164551
94643884644,5914,94648000000,world,6.61870705781e-06,1.75085141919e-05,-6.58066792049e-07,0.05464979536,-0.000858927432668,0.067919169766
94654019567,5915,94664000000,world,-1.67942127453e-06,-5.36132063358e-06,4.94746319071e-07,0.0546459401793,-0.000863972624471,0.0679178523326
94674364296,5916,94680000000,world,2.54884263813e-05,7.05601247956e-05,-4.00342690843e-06,0.0546433226958,-0.000867657902255,0.0679169454575
94694486667,5917,94696000000,world,1.77858462455e-05,4.75988295683e-05,-2.53624633175e-06,0.0546431502342,-0.000873706041852,0.0679159559809
94704540872,5918,94712000000,world,9.3624407164e-06,2.49885630689e-05,-1.49449365422e-06,0.0546471264089,-0.000881813082883,0.0679140283301
94724745324,5919,94728000000,world,7.75294311e-07,2.46242967326e-06,2.25652133787e-07,0.0546543313144,-0.000891060532795,0.0679116211222
94734824882,5920,94744000000,world,1.69090930992e-05,7.08771886452e-05,2.10180298378e-05,0.0546620306478,-0.000901698003235,0.0679096908444
94765084384,5921,94768000000,world,1.33383929733e-05,3.58324470999e-05,-2.4284373367e-06,0.0546739949081,-0.000918232909915,0.0679070146949
94775207424,5922,94776000000,world,9.06613076159e-06,2.44741067444e-05,-1.58569655385e-06,0.054678028253,-0.000923686832323,0.0679061131293
94785277730,5923,94792000000,world,5.23949332627e-07,1.71325578876e-06,-3.72100341734e-08,0.0546863970857,-0.000934108165921,0.067904262045
94805541814,5924,94808000000,world,1.70857607624e-05,7.90744337428e-05,2.80265229328e-06,0.0546950110314,-0.000943854592272,0.067902280485
94815640064,5925,94824000000,world,1.86940808341e-05,5.30178249047e-05,-2.63287265684e-06,0.0547036510222,-0.000952913203888,0.0679001162631
94835818472,5926,94840000000,world,1.10763253194e-05,2.98487673681e-05,-1.7797673747e-06,0.0547122282087,-0.000961502699267,0.0678978060786
94845884928,5927,94856000000,world,2.60056691322e-06,7.03126078808e-06,-4.29608338601e-07,0.0547207190629,-0.000969862878788,0.0678954074292
94866265921,5928,94872000000,world,3.07037901088e-05,8.25705360497e-05,-6.2928334569e-06,0.0547291731043,-0.00097813018,0.0678929682248
94886490832,5929,94888000000,world,2.20665226288e-05,5.99104628558e-05,-3.57508467324e-06,0.0547376356645,-0.000986385901931,0.0678905205243
94896573512,5930,94904000000,world,1.35895764472e-05,3.71123351552e-05,-2.0481932153e-06,0.0547461068768,-0.000994630240799,0.0678880644678
94916793125,5931,94920000000,world,5.19916005625e-06,1.42681917124e-05,-7.68983029943e-07,0.0547545867289,-0.00100286317903,0.0678856000654
94926927236,5932,94936000000,world,-3.11990735694e-06,-8.60501121234e-06,4.60363879655e-07,0.0547630736413,-0.0010110827422,0.0678831265546
94947121983,5933,94952000000,world,2.4566498745e-05,6.74991877949e-05,-3.47782832634e-06,0.0547701080039,-0.0010174387024,0.0678799046847
94967356686,5934,94968000000,world,1.64972781194e-05,4.5171307602e-05,-2.16644254596e-06,0.0547752265058,-0.00102135178723,0.0678757063307
94977482681,5935,94984000000,world,8.31050786646e-06,2.28675625811e-05,-1.06317143624e-06,0.054777103245,-0.00102128373575,0.0678699007419
94997634735,5936,95000000000,world,1.89501556009e-07,6.52035031574e-07,-9.61077577873e-08,0.0547776177666,-0.00101962672042,0.0678634431786
95017867116,5937,95024000000,world,5.92173469195e-06,1.64956166407e-05,-7.43318100491e-07,0.0547759189781,-0.00101417781051,0.0678525636893
95027948951,5938,95032000000,world,1.8223024227e-06,5.19708355034e-06,-2.52239993871e-07,0.0547746818545,-0.00101154609164,0.0678486127107
95038074388,5939,95048000000,world,2.74511098946e-05,8.18573218518e-05,-4.49270440955e-06,0.0547712087382,-0.00100505171826,0.0678402267313
95058412819,5940,95064000000,world,2.05372913993e-05,5.85617428929e-05,-2.76437636328e-06,0.0547672222609,-0.000997936789053,0.0678316037036
95078677335,5941,95080000000,world,1.24974645624e-05,3.55281527539e-05,-1.5910194596e-06,0.0547632778099,-0.00099067723866,0.0678231715233
95088749552,5942,95096000000,world,4.3400477903e-06,1.23997801159e-05,-5.43134855412e-07,0.0547594279958,-0.000982809386249,0.06781532339
95108860219,5943,95112000000,world,1.35405078151e-05,3.87675586124e-05,-1.41931812383e-06,0.0547555984725,-0.000974247928087,0.0678080158656
95118957107,5944,95128000000,world,5.26292498733e-06,1.51766490014e-05,-5.59740277357e-07,0.0547533767161,-0.000967174959984,0.0678018723751
95139108472,5945,95144000000,world,-1.54216796094e-06,-9.14150242467e-06,2.2538000378e-06,0.0547532684765,-0.000962463568369,0.0677969538399
95159305433,5946,95160000000,world,1.99223207149e-05,6.60418992496e-05,-5.75044590316e-06,0.0547549063307,-0.000959850934421,0.0677929321898
95169414593,5947,95176000000,world,1.3827499321e-05,4.10855145356e-05,-1.74035407762e-06,0.0547571329092,-0.000958375055653,0.0677899361632
95189530415,5948,95192000000,world,5.49546087707e-06,1.6433857776e-05,-6.7740288928e-07,0.0547586404657,-0.000957005339426,0.0677883802109
95199588406,5949,95208000000,world,-2.67377564764e-06,-8.25692390863e-06,3.74744021948e-07,0.0547617780047,-0.000956893940907,0.0677862563563
95219725713,5950,95224000000,world,2.21811518582e-05,6.69670225558e-05,-2.68166854636e-06,0.0547683160133,-0.000958706627001,0.0677824479047
95239912323,5951,95240000000,world,1.40182515572e-05,4.22038002956e-05,-1.45771512511e-06,0.0547786745218,-0.00096211390087,0.0677782905793
95249969279,5952,95256000000,world,5.62811272446e-06,1.70953305671e-05,-5.59955140678e-07,0.0547919967846,-0.000967537627486,0.0677749824797
95270082890,5953,95272000000,world,-2.05183847855e-06,-8.54613017138e-06,4.25558762281e-07,0.0548073414077,-0.000974721878368,0.0677723840924
95280135776,5954,95288000000,world,2.0193162966e-05,6.63178992292e-05,-2.44576265761e-06,0.0548236651208,-0.000983032625643,0.0677702210068
95300246942,5955,95304000000,world,1.2958642542e-05,4.02147327523e-05,-1.22510120767e-06,0.0548392850509,-0.000991836937162,0.0677681828899
95310303298,5956,95320000000,world,4.59251662844e-06,1.43170406061e-05,-3.95428920673e-07,0.0548531145843,-0.00100068333847,0.0677660546319
95330620863,5957,95336000000,world,-4.67887840862e-06,-1.11651220553e-05,-5.39556008996e-06,0.0548650832927,-0.00100955329246,0.0677638257412
95350805340,5958,95352000000,world,1.98637089258e-05,5.88708358631e-05,3.96514078649e-06,0.0548757617296,-0.00101844003872,0.0677615253447
95360898458,5959,95368000000,world,1.0586895538e-05,3.32351387262e-05,-7.05250728796e-07,0.0548856269443,-0.00102711771078,0.0677591038639
95381066652,5960,95384000000,world,2.28132399531e-06,7.23911028443e-06,-1.80630679731e-07,0.0548951283884,-0.0010355023695,0.0677565587929
95391181979,5961,95400000000,world,2.50675364272e-05,8.16379243979e-05,-3.82187315613e-06,0.054904422542,-0.00104365021523,0.0677539180053
95411351259,5962,95416000000,world,1.74815573513e-05,5.55357685129e-05,-1.16542944515e-06,0.0549136289101,-0.0010516544897,0.0677512197049
95431562072,5963,95432000000,world,9.17236486531e-06,2.93335306428e-05,-5.08085258601e-07,0.0549214439218,-0.00105766750976,0.0677477763326
95441687750,5964,95448000000,world,6.96383219325e-07,2.69684302083e-06,1.46400656925e-07,0.0549258081551,-0.00106360861433,0.0677434972634
95461939590,5965,95464000000,world,1.40805683263e-05,7.5164137697e-05,1.08558859077e-05,0.0549263938267,-0.00107087220281,0.0677385854327
95472220514,5966,95480000000,world,1.43968597014e-05,4.5626804458e-05,-7.18090970971e-07,0.0549264984578,-0.00107965406324,0.067733830504
95492424222,5967,95496000000,world,5.69854289956e-06,1.73142985658e-05,-5.46897552479e-07,0.054928554913,-0.00109000340044,0.0677297974486
95502503418,5968,95512000000,world,-6.70922889571e-06,-9.7757799324e-06,3.9854961355e-06,0.0549330874576,-0.00110138535303,0.0677265048707
95522728347,5969,95528000000,world,2.20640922366e-05,5.59004467655e-05,-5.84391510132e-06,0.0549380699262,-0.00111137771147,0.0677230442642
95542962665,5970,95544000000,world,9.14125244588e-06,2.79037102465e-05,-1.14978576991e-06,0.0549416197451,-0.00111931909902,0.0677195231825
95563161824,5971,95560000000,world,-5.96388953269e-07,-1.90473077061e-06,4.37180269096e-07,0.0549427045815,-0.00112523844594,0.0677166407434
95583396246,5972,95584000000,world,1.68153956015e-05,5.24693412861e-05,-3.33754279379e-06,0.0549419485114,-0.00113148811502,0.0677135113862
95583396246,5973,95592000000,world,1.18949046816e-05,3.73915670818e-05,-1.795141291e-06,0.0549413072144,-0.00113307237634,0.067712792968
95603553960,5974,95608000000,world,2.25717941109e-06,7.09655296915e-06,-3.43325800346e-07,0.0549394586101,-0.0011357872343,0.0677116269534
95623757144,5975,95624000000,world,2.5040525056e-05,7.67702400069e-05,-4.30570727976e-06,0.0549372328384,-0.00113827654757,0.0677104154098
95633882581,5976,95640000000,world,1.46757061928e-05,4.684514082e-05,-2.06063078964e-06,0.0549347374959,-0.00114069451539,0.067709122604
95654127628,5977,95656000000,world,5.16986955743e-06,1.66682270151e-05,-6.80123957717e-07,0.0549323351388,-0.00114337121203,0.0677078915697
95664235189,5978,95672000000,world,-4.33725740813e-06,-1.34832059114e-05,-7.47546517112e-08,0.0549301719066,-0.00114633152435,0.0677067216105
95684501222,5979,95688000000,world,1.80559910823e-05,5.76415365789e-05,-2.07413070561e-06,0.0549276647403,-0.00114966980974,0.0677054499551
95694633193,5980,95704000000,world,9.21508447538e-06,2.94589119624e-05,-1.47564658038e-06,0.0549278568828,-0.0011556054303,0.0677032659747
95714839474,5981,95720000000,world,5.20738606716e-07,2.07759601995e-06,-6.94794287294e-08,0.0549310916745,-0.00116398907871,0.0676998454486
95735097902,5982,95736000000,world,1.39765307462e-05,7.65780798961e-05,-1.14663006292e-06,0.0549361954425,-0.0011743609549,0.0676966866779
95745201570,5983,95752000000,world,1.41138307234e-05,4.69467095439e-05,-2.19345160593e-06,0.0549423891711,-0.00118596903842,0.0676939752565
95765413059,5984,95768000000,world,5.9936461086e-06,1.93992664107e-05,-9.46352065021e-07,0.0549491591264,-0.00119822520907,0.0676914932338
95775534904,5985,95784000000,world,-2.71664135193e-06,-8.10028947879e-06,1.4954375419e-07,0.0549563664181,-0.00121082282179,0.0676891344038
95795703244,5986,95800000000,world,2.02855831485e-05,6.4571654878e-05,-2.61451754172e-06,0.0549647105641,-0.00122326503995,0.0676867919718
95826076587,5987,95816000000,world,1.13353783774e-05,3.70254609194e-05,-1.69920776833e-06,0.0549731587998,-0.00123531241206,0.0676843249553
95826076587,5988,95832000000,world,2.82892426452e-06,9.2951739432e-06,-4.12971073243e-07,0.0549815174089,-0.00124706695539,0.0676817444421
95846290622,5989,95848000000,world,2.49557305411e-05,8.20180189134e-05,-3.81279535005e-06,0.0549892731357,-0.00125871188673,0.0676790630802
95856363922,5990,95864000000,world,1.64312986622e-05,5.42563442002e-05,-2.39965995655e-06,0.0549975200287,-0.0012702756445,0.0676763720241
95876555783,5991,95880000000,world,7.99159349029e-06,2.65701981404e-05,-1.20801783612e-06,0.0550072163813,-0.00128174531301,0.0676737438453
95886671446,5992,95896000000,world,-3.54851311932e-07,-1.12895112732e-06,3.83461724963e-08,0.0550168468895,-0.00129307777136,0.067671066651
95906868206,5993,95912000000,world,2.17873241357e-05,7.18125242054e-05,-2.98957754837e-06,0.0550268878999,-0.00130422378004,0.0676683590147
95927025439,5994,95928000000,world,1.30523548367e-05,4.39946988867e-05,-1.96437426429e-06,0.0550349680292,-0.00131346531948,0.0676649406614
95937099232,5995,95944000000,world,4.59468767116e-06,1.56745330072e-05,-6.82214487328e-07,0.0550398351371,-0.00132041407164,0.0676606093998
95947179038,5996,95960000000,world,-1.19367816374e-06,-1.37227900048e-05,4.54480501097e-07,0.0550418916656,-0.00132553971234,0.067655536029
95967357455,5997,95976000000,world,1.47756460772e-05,5.93098633608e-05,-2.37493479492e-06,0.0550414766529,-0.00132761031861,0.0676493821902
95987551708,5998,95992000000,world,8.72928672554e-06,3.00945305499e-05,-1.23121020821e-06,0.0550402469685,-0.00132885415425,0.0676429273161
96007756879,5999,96008000000,world,5.98892040164e-07,1.70861326615e-06,1.74324835993e-07,0.0550380997308,-0.00133020023405,0.0676364439516
96017846952,6000,96024000000,world,2.68650718277e-05,6.56874134005e-05,1.57451357764e-05,0.0550356646595,-0.00133237863701,0.0676301911239
96038095624,6001,96040000000,world,1.17522495379e-05,4.11634057534e-05,-1.9293292751e-06,0.0550332858026,-0.00133528520021,0.0676243906386
96048256625,6002,96056000000,world,3.68813283826e-06,1.3099971235e-05,-6.60747159224e-07,0.0550311886759,-0.00133830827695,0.0676194229888
96068469170,6003,96072000000,world,2.90440633523e-05,8.31358986414e-05,9.13441308672e-06,0.055029377372,-0.00134113111766,0.0676151827851
96078595550,6004,96088000000,world,1.63622756862e-05,5.65597382391e-05,-1.53989889092e-06,0.0550277195045,-0.00134365566419,0.0676114086066
96098806931,6005,96104000000,world,7.83065678505e-06,2.84558078405e-05,-1.55124711255e-06,0.0550260788182,-0.00134595830252,0.0676078476828
96118979411,6006,96120000000,world,2.12180373162e-08,1.92266045031e-07,-9.71136555943e-08,0.0550245709369,-0.0013481894389,0.0676043402793
96129085049,6007,96136000000,world,6.17400991837e-06,2.25395217308e-05,-1.09742663072e-06,0.0550232683512,-0.00135039598085,0.0676008386683
96159362959,6008,96152000000,world,2.17255562969e-05,8.14624285232e-05,-4.50147617738e-06,0.0550214696818,-0.00135367966999,0.0675955866268
96159362959,6009,96168000000,world,1.81075419487e-05,6.72156460363e-05,-3.41437821036e-06,0.0550208887344,-0.00135476933973,0.067593835068
96179552475,6010,96184000000,world,1.04993537792e-05,3.8798863961e-05,-1.78449376096e-06,0.0550196645173,-0.00135694425642,0.0675902536298
96199666110,6011,96200000000,world,2.79183838238e-06,1.0392826923e-05,-4.6464564993e-07,0.0550205504889,-0.00136021187806,0.0675859068229
96209724708,6012,96216000000,world,2.21115318728e-05,8.34823848495e-05,-4.55374353796e-06,0.0550240034029,-0.00136470594551,0.0675807293283
96229833422,6013,96232000000,world,1.46967356616e-05,5.48807883938e-05,-2.22427120923e-06,0.055029212307,-0.00136895069598,0.0675756069095
96239926523,6014,96248000000,world,7.00550073831e-06,2.62186491873e-05,-9.03375610103e-07,0.0550354615477,-0.00137305545783,0.0675705194233
96260083738,6015,96264000000,world,-5.22009800455e-07,-2.98882761788e-06,3.40713364243e-07,0.0550417339477,-0.00137671446018,0.0675653075963
96270139956,6016,96280000000,world,1.62065648367e-05,6.90190275095e-05,-4.08437910371e-06,0.0550465920788,-0.00138044268221,0.0675600065538
96290306039,6017,96296000000,world,9.61943166744e-06,3.81145068732e-05,-1.4774324357e-06,0.0550497418179,-0.0013843903409,0.0675546343694
96310419182,6018,96312000000,world,1.76473744305e-06,6.98466277499e-06,-2.61536030773e-07,0.0550514283748,-0.00138857977282,0.0675492150056
96320475278,6019,96328000000,world,2.02011947605e-05,7.7434152313e-05,-2.91162924616e-06,0.0550520106536,-0.00139296976627,0.0675437644084
96340834630,6020,96344000000,world,1.13285626803e-05,4.60817456097e-05,-1.75288833906e-06,0.0550537355951,-0.00139931972899,0.0675389341639
96350928918,6021,96360000000,world,3.35186968722e-06,1.39900573156e-05,-5.59062257055e-07,0.055055692444,-0.00140613617326,0.0675342445155
96371078791,6022,96376000000,world,2.3362161033e-05,8.2621908063e-05,4.57151795051e-07,0.0550571592342,-0.00141252031381,0.0675293950938
96391433697,6023,96392000000,world,1.20068439398e-05,5.04551899569e-05,-1.97517067823e-06,0.0550579754732,-0.00141814957212,0.0675242871382
96401492696,6024,96408000000,world,3.99152887162e-06,1.72929059834e-05,-8.41704016251e-07,0.0550593454543,-0.00142147771987,0.0675189803958
96421893281,6025,96424000000,world,8.3921716447e-06,3.50599846991e-05,-1.89965995706e-06,0.0550618912312,-0.00142228875065,0.0675136017312
96431985746,6026,96440000000,world,4.1206958331e-07,1.71589329524e-06,-1.16465808375e-07,0.0550656434167,-0.00142131580021,0.0675082646612
96452189841,6027,96456000000,world,1.68771891374e-05,7.03710282302e-05,-5.49294843061e-06,0.0550699737114,-0.00141911020818,0.0675029055548
96462257252,6028,96472000000,world,8.90888573957e-06,3.71388478716e-05,-1.93888081482e-06,0.0550742969157,-0.00141617996255,0.0674974604004
96482331122,6029,96488000000,world,9.10308089273e-07,3.87625067768e-06,-2.173788051e-07,0.0550786282867,-0.00141325213993,0.0674920217797
96502490694,6030,96504000000,world,1.68047404747e-05,7.29261785457e-05,-4.56642353855e-06,0.0550830555629,-0.00141041950377,0.0674866211973
96512565423,6031,96520000000,world,9.4128565232e-06,3.96466713565e-05,-1.88233102484e-06,0.0550874925441,-0.00140747468829,0.0674814262148
96532813752,6032,96536000000,world,1.49442632352e-06,6.36119514765e-06,-3.1513199151e-07,0.0550916076881,-0.00140402025618,0.0674767921694
96542940642,6033,96552000000,world,1.76003082207e-05,7.5217392661e-05,-4.6264989308e-06,0.0550953435636,-0.00139999129605,0.0674726870379
96563099803,6034,96568000000,world,9.77231545466e-06,4.18400527581e-05,-1.64648100217e-06,0.05509879499,-0.00139553515082,0.0674689521527
96583311420,6035,96584000000,world,1.93300146016e-06,8.35597327051e-06,-3.17511697587e-07,0.0551021024066,-0.0013908554157,0.0674654082242
96593402448,6036,96600000000,world,1.78091157306e-05,7.72514963914e-05,-3.3269593117e-06,0.0551054186777,-0.00138610927753,0.067461914706
96613545176,6037,96616000000,world,1.00645058719e-05,4.37485536752e-05,-1.51320845044e-06,0.0551087748232,-0.00138135051097,0.067458427386
96623639334,6038,96632000000,world,2.3283382671e-06,1.02168104187e-05,-3.32970086413e-07,0.0551121575092,-0.00137658078342,0.0674549456674
96643789656,6039,96648000000,world,1.79591905948e-05,7.91900887588e-05,-2.63638914454e-06,0.0551155510899,-0.00137180186717,0.0674514688931
96663973376,6040,96664000000,world,1.0341834846e-05,4.56393355701e-05,-1.4323734582e-06,0.0551189648304,-0.00136710111604,0.0674479439028
96674044235,6041,96680000000,world,2.70334896993e-06,1.21731524458e-05,-3.51487212137e-07,0.0551214712227,-0.00136409987234,0.0674442930688
96704456358,6042,96696000000,world,1.46671526392e-05,6.45658547787e-05,-1.97370411745e-06,0.0551275705397,-0.00136587100815,0.0674371829398
96714539249,6043,96712000000,world,6.5508730867e-06,3.13300389603e-05,-6.62233770994e-07,0.0551327450715,-0.00136898145334,0.0674318754245
96724621244,6044,96728000000,world,2.97314280972e-06,1.45488991822e-05,-1.41716678441e-07,0.0551359335426,-0.00137094965367,0.0674292454261
96734697446,6045,96744000000,world,1.61278241149e-05,8.40425698775e-05,1.77536018268e-06,0.0551431889169,-0.00137520140906,0.0674240332349
96754881935,6046,96760000000,world,1.01443284078e-05,5.01136535793e-05,-3.29374487384e-07,0.0551508653275,-0.00137940150038,0.0674188413773
96775080134,6047,96776000000,world,3.30427964169e-06,1.63363561496e-05,-1.60605445584e-07,0.05515853479,-0.00138357710079,0.0674136413123
96785162168,6048,96792000000,world,6.88912397541e-06,3.41010189245e-05,-3.45473262126e-07,0.0551662138126,-0.0013876771375,0.0674084322562
96805314780,6049,96808000000,world,4.51140828478e-08,3.05734530552e-07,1.07411147059e-09,0.0551739440668,-0.00139146557974,0.0674032199056
96815439848,6050,96824000000,world,3.54006562218e-06,1.78233495095e-05,-2.00713657673e-07,0.0551832917608,-0.00139680283774,0.0673985865008
96835632489,6051,96840000000,world,6.76783245161e-06,3.50846105297e-05,-6.04650587054e-07,0.0551946215337,-0.00140415734274,0.0673946531758
96855882428,6052,96856000000,world,5.37624644706e-08,7.16973708095e-07,-9.19909271795e-08,0.0552058191895,-0.00141142451926,0.067390706551
96866008787,6053,96872000000,world,3.53696097572e-06,1.80543326183e-05,-1.7302350587e-07,0.0552162548,-0.00141797009513,0.0673865224796
96886192342,6054,96888000000,world,-2.09211239951e-06,-1.61882582357e-05,9.16478538129e-07,0.0552253105096,-0.00142311496253,0.0673818824121
96896243195,6055,96904000000,world,9.78392792794e-06,5.33476718292e-05,-8.57063891845e-07,0.0552331406193,-0.00142700473947,0.0673768365695
96916394899,6056,96920000000,world,3.79181213613e-06,1.94635916311e-05,-8.97155312727e-08,0.0552401655866,-0.001430067219,0.0673715243582
96926517368,6057,96936000000,world,-2.36953674875e-06,-1.41307318689e-05,2.09815697809e-06,0.0552450770281,-0.00143300539856,0.0673660024495
96956890347,6058,96960000000,world,7.40211871164e-06,3.87823848034e-05,-5.13448370667e-07,0.0552490460254,-0.00143782604851,0.0673575257638
96967014481,6059,96968000000,world,4.20343487162e-06,2.21595335097e-05,-3.12512212047e-07,0.0552494602348,-0.0014395643303,0.067354652586
96977089274,6060,96984000000,world,-1.98965658508e-06,-1.10197342403e-05,5.3276854306e-07,0.0552491938388,-0.0014432003532,0.0673488482353
96997332412,6061,97000000000,world,1.10139053028e-05,5.9212492078e-05,-1.32605671383e-06,0.0552485204848,-0.00144690653796,0.0673430232167
97007447798,6062,97016000000,world,4.84850973995e-06,2.61342130439e-05,-4.21525485842e-07,0.0552492161009,-0.00145065463442,0.0673373272296
97027666822,6063,97032000000,world,-1.53071690247e-06,-6.8317214514e-06,7.09843808379e-07,0.0552526705918,-0.00145297485784,0.0673318684976
97047901217,6064,97048000000,world,1.25557716476e-05,6.31839111704e-05,-2.79618674944e-06,0.0552590490312,-0.00145306107719,0.0673266598639
97058027730,6065,97064000000,world,5.83830531654e-06,3.02856784676e-05,-7.82578281931e-07,0.0552677853071,-0.00145118202089,0.0673216456582
97078192070,6066,97080000000,world,-6.88859603879e-07,-2.72943107841e-06,1.81015526302e-07,0.0552778723722,-0.00144803718552,0.0673167409205
97088252488,6067,97096000000,world,1.40934554316e-05,6.70230350918e-05,-2.52871509368e-06,0.0552879624176,-0.00144430438361,0.0673124031636
97108450442,6068,97112000000,world,6.49965511539e-06,3.3941356407e-05,-9.15456755612e-07,0.0552970080498,-0.00144042188824,0.0673093491536
97118505052,6069,97128000000,world,1.18364824752e-07,4.25962789823e-07,3.8450619729e-08,0.0553049705829,-0.00143643510639,0.0673074986611
97138654746,6070,97144000000,world,3.4306768124e-06,1.84481932123e-05,-5.15574634327e-07,0.0553119361561,-0.00143241767565,0.0673064576423
97158815592,6071,97160000000,world,-2.74602779086e-06,-1.53218999441e-05,-1.24875761669e-06,0.0553181363024,-0.00142868942454,0.0673057860938
97172882362,6072,97176000000,world,9.9110779061e-06,5.42216451321e-05,-2.84676177983e-07,0.0553239348242,-0.00142526735933,0.0673051631357
97182941840,6073,97192000000,world,3.7097129776e-06,2.04420504439e-05,-4.86665798842e-07,0.0553295286584,-0.00142206242251,0.0673045244691
97203051610,6074,97208000000,world,-3.37212287359e-07,-1.36200107416e-05,-6.72546265534e-07,0.0553369439157,-0.0014224200005,0.0673028735636
97223254758,6075,97224000000,world,7.93548126597e-06,5.6496450864e-05,-2.82821131961e-07,0.0553472052816,-0.001427248516,0.0672997125995
97233312580,6076,97240000000,world,3.69011873946e-06,2.24721121589e-05,-4.01637561042e-07,0.0553591585757,-0.00143562649285,0.0672960951176
97253425646,6077,97256000000,world,-5.57888541387e-07,-1.16407438879e-05,8.78342826365e-08,0.055371695739,-0.00144607669327,0.067292735597
97263479485,6078,97272000000,world,7.75308556211e-06,5.84626725861e-05,-8.44115917636e-07,0.0553844999764,-0.00145729351795,0.067289474194
97283590595,6079,97288000000,world,3.78689592641e-06,2.42568504262e-05,-3.69742089938e-07,0.0553973159727,-0.00146849359394,0.0672862013862
97293846043,6080,97304000000,world,-1.29646307584e-06,-9.90167336754e-06,-3.41169005199e-07,0.0554088584021,-0.00147986693865,0.0672828374517
97314007809,6081,97320000000,world,8.89911585395e-06,5.98296473271e-05,1.04289087615e-07,0.055418671201,-0.00149130138359,0.0672793498989
97334164080,6082,97336000000,world,4.04272955618e-06,2.60326656443e-05,-2.91135381385e-07,0.0554256958485,-0.00150052903655,0.0672752102737
97344305809,6083,97352000000,world,-1.2334825304e-06,-6.88836824077e-06,7.93235305477e-07,0.0554307338508,-0.00150704814071,0.0672703849422
97364433029,6084,97368000000,world,1.0431721903e-05,6.44460433752e-05,-2.89598068566e-06,0.0554346685662,-0.00151138705743,0.0672650468338
97374613192,6085,97384000000,world,5.0769084953e-06,3.26777984667e-05,-8.05197585759e-07,0.0554382605469,-0.00151442777829,0.0672594279611
97394736136,6086,97400000000,world,1.43681963766e-07,9.83581238043e-07,7.56726155837e-08,0.0554419890758,-0.00151697874837,0.0672537228932
97414925216,6087,97416000000,world,3.25610186411e-06,2.12643440761e-05,-5.83282798712e-07,0.0554459405773,-0.00151948607621,0.067248029459
97424999026,6088,97432000000,world,-1.38484551236e-06,-1.03007733382e-05,5.45073674144e-07,0.0554483261171,-0.00152226509568,0.067242246102
97445243540,6089,97448000000,world,9.13056484219e-06,6.21149508596e-05,-2.04849754595e-06,0.0554506761137,-0.0015252797481,0.0672365060346
97455371064,6090,97464000000,world,4.53555699874e-06,3.04102514668e-05,-7.68489736395e-07,0.0554531508545,-0.00152866228217,0.0672308498453
97475531690,6091,97480000000,world,-1.63587922811e-07,-1.31951900628e-06,8.15677588987e-08,0.0554550780351,-0.00153247019826,0.0672252258956
97495703708,6092,97496000000,world,9.93919865737e-06,7.10984187306e-05,-2.63480858316e-06,0.0554555245433,-0.00153674853361,0.0672195551519
97505738697,6093,97512000000,world,5.70340173361e-06,3.95196330593e-05,-1.14017639272e-06,0.0554545577692,-0.00154136494309,0.0672138167402
97525912771,6094,97528000000,world,1.14801507512e-06,8.0583441727e-06,-2.08914091399e-07,0.0554526152568,-0.00154615691016,0.067208018728
97535990909,6095,97544000000,world,1.15886125934e-05,8.06602681553e-05,-1.27642988663e-06,0.0554497162823,-0.00155101883985,0.0672027205253
97556180181,6096,97560000000,world,6.83340708146e-06,4.90110988972e-05,-1.43131346222e-06,0.0554455627305,-0.00155586500414,0.0671986934655
97566294624,6097,97576000000,world,2.33902679277e-06,1.71884234226e-05,-5.26121462668e-07,0.055440325826,-0.00156068337988,0.0671958675132
97586366614,6098,97592000000,world,-3.65620558044e-07,-1.48638773098e-05,2.29849368325e-06,0.0554343294957,-0.00156552683178,0.0671938587945
97606524903,6099,97608000000,world,6.4367002419e-06,5.71039302826e-05,-3.08702199192e-06,0.0554279523545,-0.00157041616511,0.0671922421167
97616607800,6100,97624000000,world,3.37424138709e-06,2.49128166414e-05,-7.34055820699e-07,0.0554223442568,-0.00157398013575,0.0671908146573
97636818351,6101,97640000000,world,-1.47525611025e-06,-7.20610102532e-06,5.83204784549e-07,0.0554180323263,-0.00157530051208,0.0671895827942
97646935860,6102,97656000000,world,1.00914650264e-05,6.42874359774e-05,-2.83329256247e-06,0.0554148442528,-0.00157466709145,0.0671885248202
97667145279,6103,97672000000,world,4.49889185739e-06,3.22077893002e-05,-9.86079944887e-07,0.0554117868844,-0.00157409467428,0.0671874359156
97687336337,6104,97688000000,world,1.38400982282e-07,1.51744449163e-08,-5.83489557014e-08,0.0554081522058,-0.00157519330308,0.0671860243522
97697432392,6105,97704000000,world,2.54520492952e-06,1.9923640216e-05,-4.0659004878e-07,0.0554083811689,-0.00157904104883,0.0671832130922
97717680632,6106,97720000000,world,-1.63546333113e-06,-1.25219938469e-05,-1.43186647269e-06,0.0554141986045,-0.00158595492404,0.0671790359679
97727746286,6107,97736000000,world,7.33731937624e-06,5.87864839846e-05,7.716123841e-07,0.0554237641331,-0.00159510411896,0.0671749727141
97758011311,6108,97760000000,world,1.10257317871e-06,9.2188179547e-06,-5.19633832635e-08,0.0554413959415,-0.00161059465151,0.0671694126559
97758011311,6109,97768000000,world,-9.06997465852e-07,-7.36895595704e-06,-1.19022876466e-07,0.0554477462142,-0.00161595546492,0.0671676372644
97778510083,6110,97784000000,world,7.61339002746e-06,6.38869425441e-05,-1.988713002e-07,0.0554604911551,-0.00162669644552,0.0671640877888
97798758355,6111,97800000000,world,3.5818600934e-06,3.07058887981e-05,-2.6468879805e-07,0.055473280827,-0.00163735051709,0.0671605339406
97808902075,6112,97816000000,world,-3.21439554258e-07,-2.49081600474e-06,2.74845575297e-08,0.0554861092164,-0.00164773218899,0.0671569889549
97829054922,6113,97832000000,world,8.24266712838e-06,6.88177631982e-05,-5.94661649998e-07,0.0554984469712,-0.00165762545603,0.0671533587479
97839174881,6114,97848000000,world,4.05001430798e-06,3.55655452545e-05,-3.14058117819e-07,0.0555087284783,-0.00166570926783,0.0671492354172
97849243044,6115,97864000000,world,1.61313514534e-07,1.93206494546e-06,1.11870704461e-07,0.0555172210105,-0.001669614456,0.0671446283297
97879528408,6116,97880000000,world,4.29479697065e-06,7.13639746366e-05,7.77085684975e-06,0.0555246374582,-0.00166942147144,0.0671397027849
97889604765,6117,97896000000,world,4.34604715027e-06,3.71046890546e-05,-5.80220282923e-07,0.0555316352692,-0.00166633579953,0.067134632715
97909756687,6118,97912000000,world,2.61450951757e-07,2.81460173297e-06,4.62381316533e-08,0.0555386104515,-0.00166176282621,0.0671295386903
97919864351,6119,97928000000,world,5.27061638014e-06,7.28922136138e-05,3.18763371952e-06,0.0555457452889,-0.00165680986094,0.0671244833748
97940108124,6120,97944000000,world,4.44616872961e-06,3.82966985106e-05,-5.86281752902e-07,0.0555528748547,-0.00165184376655,0.0671194321002
97950222332,6121,97960000000,world,4.29336655924e-07,3.98336336709e-06,-2.22268604108e-08,0.0555600185043,-0.00164688181023,0.0671143898177
97970381662,6122,97976000000,world,7.42949200066e-06,7.42954364923e-05,2.7306322411e-07,0.0555674037523,-0.001642325758,0.0671094155058
97990632647,6123,97992000000,world,4.52267717374e-06,4.01092878431e-05,-6.23290181865e-07,0.0555733133218,-0.00163870525055,0.0671043856146
98000715519,6124,98008000000,world,7.60656130754e-07,6.49487877377e-06,-4.09161543884e-08,0.0555775889773,-0.00163761596182,0.0670991459067
98020929665,6125,98024000000,world,1.0995891721e-05,7.74081173252e-05,1.56364189184e-06,0.0555807970627,-0.00163910430036,0.0670936876962
98030997409,6126,98040000000,world,4.37931640975e-06,4.49189890852e-05,-1.00290914825e-06,0.0555835054556,-0.00164246258499,0.0670880659544
98051186681,6127,98056000000,world,1.09091262891e-06,1.19150099694e-05,-2.79328683841e-07,0.0555868918795,-0.00164863559788,0.0670827299476
98071423923,6128,98072000000,world,9.84723120167e-06,8.29263185286e-05,-9.40488770607e-07,0.0555909956761,-0.00165753090584,0.0670778209175
98081546229,6129,98088000000,world,4.34935186587e-06,4.96895458213e-05,-1.15983880327e-06,0.0555950292518,-0.00166646103408,0.0670729025061
98101758655,6130,98104000000,world,1.33999455207e-06,1.63186141344e-05,-3.76542809017e-07,0.0555986771879,-0.0016747950038,0.0670678414188
98111857140,6131,98120000000,world,3.00829930901e-06,3.55358614946e-05,-7.64423849578e-07,0.0556021247929,-0.0016814447903,0.0670625327647
98132061184,6132,98136000000,world,2.07564337583e-07,2.47851807744e-06,-2.867678375e-08,0.0556050387321,-0.00168640454276,0.0670575614797
98142156911,6133,98152000000,world,6.23551859109e-06,7.41737868188e-05,-1.81370528977e-07,0.0556068204617,-0.0016902078816,0.0670537530767
98162327711,6134,98168000000,world,3.32226313229e-06,4.09643210976e-05,-8.78787582153e-07,0.0556075716473,-0.0016934487624,0.0670511026615
98182490735,6135,98184000000,world,6.09696916933e-07,7.65876209413e-06,-1.39744857646e-07,0.0556076387484,-0.00169658447933,0.0670492769216
98196884134,6136,98200000000,world,6.47450441693e-06,7.91265457898e-05,-8.37407504827e-07,0.0556073469528,-0.0016997386461,0.0670478486787
98206941757,6137,98216000000,world,3.4927276883e-06,4.5695309689e-05,-9.63273239827e-07,0.055609699682,-0.00170431201333,0.0670457878263
98227049319,6138,98232000000,world,8.99856711118e-07,1.21856357395e-05,-2.49854846672e-07,0.0556163508495,-0.00171094729517,0.0670423546716
98247198139,6139,98248000000,world,6.58388303179e-06,8.34203615736e-05,-9.74745117712e-07,0.0556262408092,-0.00171929355148,0.0670381330821
98257254806,6140,98264000000,world,3.51262609715e-06,4.96438993437e-05,-1.06488104287e-06,0.0556373184627,-0.00172874552797,0.067034194842
98277368190,6141,98280000000,world,1.06058029008e-06,1.57531247116e-05,-3.42723030809e-07,0.0556488043176,-0.00173864858749,0.0670303585957
98287424269,6142,98296000000,world,6.01019574481e-06,8.67644537805e-05,-1.67656857939e-06,0.0556601995155,-0.00174854421783,0.0670265030459
98318019823,6143,98312000000,world,2.25666916116e-06,3.57865583092e-05,-7.94825422228e-07,0.0556762263485,-0.00176252003384,0.0670204641504
98318019823,6144,98328000000,world,1.15933801901e-06,1.87070577759e-05,-4.00374626159e-07,0.0556809020759,-0.00176660430881,0.0670182929786
98338371862,6145,98344000000,world,-2.96607243964e-06,-1.50492569161e-05,-2.07382406022e-06,0.0556875892229,-0.00177248912196,0.0670133331186
98358734745,6146,98360000000,world,4.92862659502e-06,5.53947763392e-05,7.1055711606e-07,0.0556916130526,-0.00177609412406,0.0670077589409
98368919622,6147,98376000000,world,1.46422584462e-06,2.22419669615e-05,-2.40771519661e-07,0.0556941946946,-0.00177852977901,0.0670018555284
98389071493,6148,98392000000,world,-1.46222128969e-06,-1.0681071693e-05,-8.23697877845e-07,0.0556963124272,-0.00178068654452,0.0669958507049
98399135644,6149,98408000000,world,5.09158654145e-06,6.11198826983e-05,8.11662911314e-07,0.0556985838694,-0.00178307031649,0.0669898838608
98419279091,6150,98424000000,world,1.88806130751e-06,2.84108004338e-05,-1.12682248203e-07,0.0557011931264,-0.0017857967512,0.0669839938361
98439490025,6151,98440000000,world,-3.53348162456e-07,-4.35574233039e-06,-8.18806036998e-08,0.0557039164076,-0.00178863741947,0.0669781280726
98449576162,6152,98456000000,world,4.70121805693e-06,6.78920043e-05,1.48435446671e-07,0.0557080899098,-0.00179139569631,0.0669724052964
98469782477,6153,98472000000,world,2.21737636993e-06,3.53519702303e-05,-2.35657516505e-07,0.0557144962973,-0.00179405045208,0.0669669072725
98479920011,6154,98488000000,world,1.95901239928e-07,2.89459785605e-06,6.94732229289e-08,0.0557227987568,-0.00179660459006,0.066961598604
98500127347,6155,98504000000,world,5.60309458242e-06,7.50720500033e-05,4.22292312682e-06,0.0557322887512,-0.00179908377853,0.0669564068233
98510194647,6156,98520000000,world,2.52429428194e-06,4.30495615151e-05,-3.99782012189e-07,0.0557404105548,-0.00180198660841,0.0669511277638
98530393793,6157,98536000000,world,6.16287519137e-07,1.09039143925e-05,-9.36977966582e-08,0.0557480697204,-0.00180491284888,0.0669458013413
98550668041,6158,98552000000,world,4.97260122422e-06,8.37308363011e-05,6.02125312604e-07,0.055755609497,-0.00180772387254,0.066940445314
98580945203,6159,98568000000,world,1.89139178741e-06,3.55773456889e-05,-4.48897507105e-07,0.0557657050852,-0.00181206017222,0.0669322951391
98591035998,6160,98584000000,world,1.01873793619e-06,1.95048035292e-05,-2.1423919598e-07,0.0557689148462,-0.00181350295991,0.0669295603867
98591035998,6161,98600000000,world,-5.73114990318e-07,-1.26135588843e-05,5.94766805575e-07,0.0557745121959,-0.00181655813366,0.0669240235586
98611189951,6162,98616000000,world,2.97367359183e-06,6.0396880079e-05,-1.19327063464e-06,0.0557786867358,-0.00181996478035,0.0669183779825
98631387614,6163,98632000000,world,1.38402192793e-06,2.84964616746e-05,-3.75352605148e-07,0.055781617258,-0.00182368164307,0.066912636856
98641502757,6164,98648000000,world,-1.42284696045e-07,-3.36861585499e-06,1.23482887654e-07,0.055783636866,-0.00182735563897,0.0669070296095
98661668891,6165,98664000000,world,3.17619056621e-06,6.97505745889e-05,-1.28508374709e-06,0.0557849287183,-0.00183034073531,0.0669020259301
98671752871,6166,98680000000,world,1.87925207964e-06,3.81258411321e-05,-1.90682783761e-07,0.0557853933312,-0.00183223060678,0.0668975508348
98691990960,6167,98696000000,world,2.90937630797e-07,6.50532846976e-06,-6.57126814555e-08,0.0557874208437,-0.00183394619882,0.0668929701691
98702113005,6168,98712000000,world,3.01504995585e-06,8.00249699309e-05,-1.9193860857e-06,0.0557905125697,-0.00183655465722,0.0668875685082
98722369342,6169,98728000000,world,2.18994855883e-06,4.84281358817e-05,-2.3707442428e-07,0.0557940283037,-0.00183978906971,0.0668818171627
98742604350,6170,98744000000,world,7.16222799184e-07,1.66730167709e-05,-5.39902271796e-08,0.0557975649222,-0.00184314443464,0.0668760807046
98752725070,6171,98760000000,world,1.47631114613e-06,3.73723784192e-05,-2.80899353244e-07,0.0558006296286,-0.0018466933219,0.066870314129
98772962103,6172,98776000000,world,1.97395618665e-07,5.47820964613e-06,-3.98649691457e-08,0.0558031899338,-0.00185039307605,0.0668645086143
98783049898,6173,98792000000,world,2.60168271315e-06,7.87098033705e-05,-6.1455139747e-07,0.0558053740143,-0.0018541778379,0.0668586698507
98803214202,6174,98808000000,world,1.68944015405e-06,4.68223364247e-05,-2.80932478742e-07,0.0558073681986,-0.00185799949543,0.0668528121536
98823413627,6175,98824000000,world,5.16215799964e-07,1.49474450001e-05,-6.65911043535e-08,0.0558093245456,-0.00186182405155,0.0668469480772
98833533808,6176,98840000000,world,1.22210337517e-06,3.56365799102e-05,-1.46883519655e-07,0.0558112991658,-0.0018656369603,0.0668410819493
98853732565,6177,98856000000,world,1.26543398575e-07,3.76544777397e-06,-9.01617918907e-09,0.0558133327672,-0.00186942753046,0.0668352172016
98863861204,6178,98872000000,world,2.66156036162e-06,7.70280896443e-05,-1.26807751235e-07,0.0558154020354,-0.00187320172781,0.0668293519247
98884108868,6179,98888000000,world,1.41133359509e-06,4.51671251889e-05,-7.33312817591e-08,0.0558174894018,-0.00187696056959,0.0668234841313
98894185193,6180,98904000000,world,3.90788174525e-07,1.33130876978e-05,-5.64868725287e-10,0.0558194717347,-0.00188061738794,0.0668175909555
98914384234,6181,98920000000,world,2.34565876596e-06,8.663397595e-05,-1.04643190896e-07,0.0558214247216,-0.00188423986372,0.0668116882308
98934657067,6182,98936000000,world,1.54088908798e-06,5.48186361638e-05,6.28510973312e-08,0.0558233955696,-0.00188786567521,0.0668057853613
98944743837,6183,98952000000,world,6.19872904172e-07,2.30131434527e-05,7.26272692832e-08,0.0558254738859,-0.00189148767176,0.0667998913489
98964956423,6184,98968000000,world,-2.30406015143e-07,-8.79572568016e-06,-8.01143975529e-08,0.0558276671733,-0.001895102817,0.0667940067357
98975060404,6185,98984000000,world,1.64991509294e-06,6.45474402399e-05,3.77869665769e-07,0.0558299370583,-0.00189870341025,0.0667881264448
98995295717,6186,99000000000,world,7.88096018807e-07,3.27312301351e-05,1.95254373088e-07,0.0558322423998,-0.00190228619775,0.0667822457842
99015521344,6187,99016000000,world,-5.53088197988e-08,1.15676209951e-06,-8.63956425673e-08,0.0558365579085,-0.00190742321687,0.066776745991
99025598502,6188,99032000000,world,-7.41004871127e-06,7.17301533633e-05,-9.94728752119e-06,0.0558433197885,-0.00191445892417,0.0667717078582
99045838813,6189,99048000000,world,1.01275840862e-06,4.1677665773e-05,5.07971939956e-07,0.0558501190276,-0.00192150401435,0.0667666687625
99055964793,6190,99064000000,world,2.59331802154e-07,1.13064951823e-05,1.60545500116e-07,0.0558556629006,-0.00192755105355,0.0667613838375
99076161626,6191,99080000000,world,-2.72648650821e-06,8.60876853267e-05,-3.39430152e-06,0.0558609975052,-0.00193176840802,0.0667561316722
99086299929,6192,99096000000,world,1.27414608808e-06,5.63112068102e-05,8.72406654595e-07,0.0558665850834,-0.00193381437166,0.0667514650132
99106531139,6193,99112000000,world,8.5681704494e-07,2.64767150145e-05,7.83404309463e-07,0.0558713442082,-0.00193475988628,0.0667473523512
99126710440,6194,99128000000,world,-5.78327861694e-08,-3.36247638561e-06,-7.98308426008e-08,0.0558762688619,-0.00193495052608,0.0667437194957
99136765915,6195,99144000000,world,1.89487627648e-06,7.18940075651e-05,2.02693294132e-06,0.0558814038258,-0.0019344173273,0.0667403139174
99156914754,6196,99160000000,world,1.18548439926e-06,4.19220311252e-05,1.31342804776e-06,0.0558857546231,-0.00193377985945,0.066736873857
99167010093,6197,99176000000,world,2.96367486026e-07,1.19284925667e-05,3.68479136979e-07,0.0558901694257,-0.001933184035,0.0667334461592
99187169839,6198,99192000000,world,1.6229870444e-06,8.6979751786e-05,2.23183270974e-06,0.0558948677969,-0.00193279733633,0.0667300709322
99201183374,6199,99208000000,world,1.19844042527e-06,5.68014204221e-05,1.5312072184e-06,0.0559027595368,-0.00193502351444,0.0667262437103
99221295897,6200,99224000000,world,3.97306078459e-07,2.62296366984e-05,5.4239379364e-07,0.0559113112352,-0.00193921279711,0.0667212451376
99231399162,6201,99240000000,world,3.93060219264e-07,-4.86561702653e-06,4.43962706497e-07,0.0559195134318,-0.00194321206607,0.0667160268458
99251548798,6202,99256000000,world,-1.12967303569e-06,6.85758688601e-05,-9.4710560807e-07,0.0559269539875,-0.00194657392219,0.0667106631823
99271659392,6203,99272000000,world,1.29203290232e-07,3.68833194931e-05,5.01531240804e-07,0.0559330688041,-0.00194950215739,0.0667051083343
99284649437,6204,99288000000,world,9.06077992205e-09,5.01006013878e-06,4.21575854386e-08,0.0559374631271,-0.00195245616324,0.0666993564935
99294707791,6205,99304000000,world,1.18559104273e-07,7.83083135892e-05,-1.84040219328e-07,0.0559418601555,-0.00195539937203,0.066693602022
99314855423,6206,99320000000,world,1.81874848801e-08,4.65351317639e-05,7.0127360178e-07,0.0559469397073,-0.00195792713157,0.0666878896073
99335039100,6207,99336000000,world,5.03149989787e-08,1.56766066619e-05,2.37541079283e-07,0.0559533534862,-0.00195853277562,0.0666824906484
99345115829,6208,99352000000,world,8.79104085007e-07,3.84909999141e-05,2.3339727822e-07,0.0559611141283,-0.0019567735952,0.0666775586915
99365303098,6209,99368000000,world,2.22957371485e-07,9.58306031312e-06,6.24722333988e-08,0.0559698182044,-0.00195314577062,0.0666730182729
99375427339,6210,99384000000,world,2.2326531117e-06,8.63367805817e-05,4.68621295526e-07,0.0559789935204,-0.00194842490487,0.0666687210773
99395590322,6211,99400000000,world,1.3531330945e-06,5.81166891124e-05,4.12062051579e-07,0.0559882681282,-0.00194330435482,0.0666645243254
99415838703,6212,99424000000,world,3.25612301103e-07,1.57793708181e-05,1.45820430473e-07,0.056002181509,-0.00193556377617,0.0666582425154
99425914853,6213,99432000000,world,3.39240659038e-08,1.66004092893e-06,2.42764901387e-08,0.0560067561891,-0.00193299358761,0.0666561449258
99446122159,6214,99448000000,world,1.63647230616e-06,7.84788949729e-05,1.54083079867e-06,0.0560156038044,-0.001928024783,0.066651928698
99456241245,6215,99464000000,world,8.7526936163e-07,5.00069104976e-05,6.35907738117e-07,0.0560242742876,-0.00192337015884,0.0666476524208
99476476629,6216,99480000000,world,3.13120558569e-07,2.13959030704e-05,2.94421333559e-07,0.0560328607207,-0.00191897838542,0.0666433228389
99486606117,6217,99496000000,world,7.2947909852e-08,-7.2948633309e-06,-1.65797486953e-07,0.0560414315895,-0.00191474512448,0.0666389592287
99506822739,6218,99512000000,world,4.54014289551e-07,6.91521989528e-05,1.19314314516e-06,0.0560500245097,-0.00191056857885,0.0666345820879
99526978178,6219,99528000000,world,4.2677075195e-07,4.04275283551e-05,6.69920152568e-07,0.0560586192036,-0.00190639235631,0.0666302037019
99537054540,6220,99544000000,world,1.06239806214e-07,1.17748946971e-05,2.11152780079e-07,0.0560665631997,-0.00190406953142,0.0666254797577
99557290060,6221,99560000000,world,6.6161804994e-06,8.78995773076e-05,-8.76635556609e-07,0.0560737240304,-0.00190399599321,0.0666203328822
99567414869,6222,99576000000,world,5.62801581336e-07,5.95594296977e-05,1.08929432146e-06,0.056080259329,-0.00190572804507,0.0666148429645
99587632894,6223,99592000000,world,-2.6841911113e-07,3.12630003294e-05,7.38873813622e-07,0.0560849063631,-0.00190901959705,0.0666090060607
99607855868,6224,99608000000,world,2.24776409305e-09,3.23398761385e-06,2.37189445218e-07,0.0560870816578,-0.00191346101146,0.0666028726864
99617941057,6225,99624000000,world,1.39740194025e-06,7.86671885313e-05,1.18583516011e-05,0.0560867890206,-0.00191866051908,0.0665970722974
99638195346,6226,99640000000,world,-6.05144773552e-07,5.1458862367e-05,1.45580328749e-06,0.0560841315382,-0.00192453410694,0.0665924143988
99648266295,6227,99656000000,world,-4.14434623147e-07,2.34691465236e-05,3.15143306976e-07,0.0560799698023,-0.00193072425734,0.0665889134455
99668466441,6228,99672000000,world,1.30483855898e-07,-4.64288196357e-06,1.65025295716e-07,0.0560752241686,-0.00193676504687,0.0665862851611
99678589626,6229,99688000000,world,-1.58681486839e-06,7.2443183613e-05,-1.07904382884e-07,0.0560716238252,-0.00194189370649,0.066584470771
99698752372,6230,99704000000,world,-9.02473610624e-07,4.41847964207e-05,5.73458609013e-07,0.0560727810784,-0.00194693467328,0.0665821264237
99719016100,6231,99720000000,world,-3.40332788209e-07,1.56610225593e-05,2.63925125346e-07,0.0560810024463,-0.00195261372869,0.0665782969587
99729143448,6232,99736000000,world,-1.66893388506e-07,-1.23473342356e-05,-8.594813505e-06,0.0560941449705,-0.00195901167033,0.0665737383686
99749339489,6233,99752000000,world,-1.04622335058e-06,5.67994840704e-05,6.99776930316e-06,0.0561104404667,-0.00196582603093,0.0665695620797
99759461635,6234,99768000000,world,-7.27056660359e-07,2.79391263564e-05,5.89236247781e-07,0.0561278713453,-0.00197288215491,0.0665655232934
99779683036,6235,99784000000,world,3.6290054891e-08,-1.22855077587e-06,-2.11435819108e-07,0.056146135725,-0.00197970154931,0.0665615626912
99799896642,6236,99800000000,world,-2.12164425761e-06,7.43928113043e-05,4.80505292728e-06,0.056165632431,-0.00198611429447,0.0665577187659
99810035192,6237,99816000000,world,-1.37457750128e-06,4.5792459931e-05,9.83932657444e-07,0.0561841808472,-0.00199285345143,0.0665537781142
99830226097,6238,99832000000,world,-5.17796879772e-07,1.74049909286e-05,2.75791877717e-07,0.0562009671081,-0.00199836493185,0.066549921988
99840245438,6239,99848000000,world,-3.06652041358e-06,-1.04421671126e-05,2.74837329664e-06,0.0562141893893,-0.00200052057711,0.0665459676334
99860439163,6240,99864000000,world,2.76563808017e-06,6.43746642402e-05,-2.79330268519e-06,0.0562239342451,-0.00199925530053,0.0665418436116
99870566615,6241,99880000000,world,-6.21657015283e-07,3.71332653071e-05,4.89264541399e-07,0.0562313592203,-0.00199546300797,0.0665375773673
99890847538,6242,99896000000,world,-2.06783616309e-07,9.93763969281e-06,1.40701699844e-07,0.0562376724428,-0.00199031639313,0.0665332211743
99911021506,6243,99912000000,world,-4.53559700378e-06,8.78034660446e-05,6.22302585475e-07,0.0562435125175,-0.00198486774124,0.0665288011758
99921091758,6244,99928000000,world,-1.37108633643e-06,6.0692014377e-05,9.44230515025e-07,0.0562493497818,-0.00197940192419,0.0665243855738
99941322779,6245,99944000000,world,-5.91304363243e-07,3.34544374398e-05,6.47994297813e-07,0.0562553780803,-0.00197388139764,0.066519988002
99951391659,6246,99960000000,world,-9.66998936665e-08,6.15226826495e-06,1.11729485449e-07,0.0562617666089,-0.00196875630615,0.0665155885958
99971585838,6247,99976000000,world,-3.39194360916e-07,8.39487005665e-05,8.99801692789e-07,0.0562686122959,-0.00196414621724,0.0665112046734
99991724056,6248,99992000000,world,-1.15310588009e-06,5.65110338415e-05,1.18868031877e-06,0.0562758013698,-0.00195994049869,0.06650683642
100001836961,6249,100008000000,world,-8.35649154943e-07,2.91495158303e-05,7.4039182384e-07,0.0562825689904,-0.00195786537496,0.0665020768456
100022055709,6250,100024000000,world,1.78334229897e-07,1.89547683749e-06,-4.40117687146e-08,0.0562886849739,-0.00195817174789,0.0664968323596
100032242883,6251,100040000000,world,1.6904868182e-05,7.29766150377e-05,-5.72025865359e-06,0.056294228021,-0.00196030756024,0.0664911934697
100052442334,6252,100056000000,world,-1.14585526546e-06,4.72878027231e-05,1.18389208333e-06,0.0562994417351,-0.00196349978726,0.066485323063
100062568845,6253,100072000000,world,-8.34475669808e-07,2.00625477308e-05,6.424768709e-07,0.0563040699488,-0.00196719715068,0.0664798897974
100082768060,6254,100088000000,world,5.99732094027e-07,-7.34198282536e-06,1.90502293628e-07,0.0563080155335,-0.00196976199076,0.0664760241765
100103034450,6255,100104000000,world,-3.65103851889e-06,6.94435570889e-05,9.46279337611e-07,0.0563106152105,-0.0019706698003,0.0664737936404
100113094144,6256,100120000000,world,-1.81998682374e-06,4.0329263612e-05,8.57650963462e-07,0.0563113176444,-0.00197003691655,0.0664726690305
100133256460,6257,100136000000,world,-4.87343730535e-07,1.04302874382e-05,2.4688494146e-07,0.0563103540179,-0.00196818087878,0.066472307586
100143349781,6258,100152000000,world,-3.51029376998e-06,8.49836064442e-05,3.74502441483e-06,0.0563080436076,-0.00196518260092,0.0664727527083
100163538013,6259,100168000000,world,-2.65302239075e-06,5.43047826136e-05,1.31424383706e-06,0.0563048646794,-0.00196149201341,0.0664738506786
100183740227,6260,100184000000,world,-1.21195017686e-06,2.35218432093e-05,5.43237732408e-07,0.0563013211326,-0.00195732706814,0.0664754300279
100193797630,6261,100200000000,world,7.20757332065e-07,-7.00105687438e-06,-9.79320945661e-07,0.0563001605319,-0.00195466688816,0.0664747226363
100213961623,6262,100216000000,world,-4.65775639317e-06,6.73280789331e-05,4.09809598822e-06,0.0563029285364,-0.00195435845389,0.0664705385867
100224091615,6263,100232000000,world,-2.18042090474e-06,3.72766909363e-05,1.50174293013e-06,0.0563087493145,-0.00195384134898,0.0664653150576
100244231683,6264,100248000000,world,-4.50237994239e-07,7.05897481209e-06,2.6439957628e-07,0.0563161987574,-0.00195234104981,0.0664603554402
100254292793,6265,100264000000,world,-6.23459442953e-06,8.16953177529e-05,1.77595363462e-06,0.0563243591218,-0.00195063057706,0.0664554658943
100274403084,6266,100280000000,world,-3.25104555851e-06,5.15834289458e-05,2.29151771164e-06,0.0563323461506,-0.0019499099688,0.0664503568343
100294513357,6267,100296000000,world,-1.35519577894e-06,2.12936967724e-05,9.98244594858e-07,0.0563419707697,-0.00194993887382,0.0664455138658
100304567443,6268,100312000000,world,6.97735861726e-07,-9.03786041452e-06,-3.05094371325e-07,0.0563520803324,-0.00195027423025,0.0664407342005
100324761200,6269,100328000000,world,-4.59211947407e-06,6.57384351609e-05,2.75760426429e-06,0.0563598372851,-0.00195207905969,0.0664355597174
100334864605,6270,100344000000,world,-2.42060863297e-06,3.57633448986e-05,1.57715438016e-06,0.0563667451399,-0.00195339809895,0.0664303901203
100355137950,6271,100360000000,world,-4.79797527649e-07,5.96403153112e-06,3.4079358632e-07,0.0563718320479,-0.00195322741731,0.06642533434
100375309803,6272,100376000000,world,-9.11170946999e-06,8.03810151611e-05,7.380800182e-06,0.0563751539384,-0.00195164959832,0.0664203966941
100385365031,6273,100392000000,world,-3.48066221795e-06,5.14392684238e-05,2.22212526804e-06,0.0563772392759,-0.00194910584641,0.0664155464667
100405662007,6274,100408000000,world,-1.37257573063e-06,2.20357600253e-05,8.15214363973e-07,0.0563787055143,-0.00194608773429,0.066410744269
100415833097,6275,100424000000,world,3.99106577123e-07,-7.3916037378e-06,-1.86356211977e-07,0.0563800379499,-0.00194297236316,0.0664059572736
100436076823,6276,100440000000,world,-4.19492556426e-06,6.82467967089e-05,2.27349137573e-06,0.056382535092,-0.00193943540415,0.0664013093167
100446170132,6277,100456000000,world,-2.53679088081e-06,3.89615666498e-05,1.41925826239e-06,0.0563853085996,-0.00193579075853,0.0663966973773
100466356932,6278,100472000000,world,-6.47273865484e-07,9.69239005206e-06,3.66223959075e-07,0.0563881301326,-0.00193217530741,0.0663920816214
100486604186,6279,100496000000,world,-4.72780274016e-06,7.05895176551e-05,2.57657615249e-06,0.0563920081658,-0.00192716556619,0.0663850462669
100506810828,6280,100504000000,world,-2.91134044571e-06,4.13457786503e-05,1.60714137659e-06,0.0563959310289,-0.00192352149566,0.0663804535748
100516934956,6281,100520000000,world,-1.91126829037e-06,2.67647289352e-05,1.05673236578e-06,0.0563982455983,-0.0019215895778,0.0663781921366
100527001004,6282,100536000000,world,2.60243415804e-07,-2.32988988205e-06,1.39582008479e-07,0.0564037456237,-0.00191746010891,0.0663743389217
100547179811,6283,100552000000,world,-6.26925377748e-06,7.31694826148e-05,6.5315945507e-07,0.0564090999964,-0.0019134637334,0.0663718555111
100567445344,6284,100568000000,world,-3.45880631911e-06,4.39017516717e-05,1.41993220149e-06,0.0564139173689,-0.00190974015567,0.0663706133164
100577584515,6285,100584000000,world,-1.11906139428e-06,1.41010711361e-05,4.57604512254e-07,0.0564185953692,-0.00191029571511,0.0663697749815
