%time,field.header.seq,field.header.stamp,field.header.frame_id,field.pose.position.x,field.pose.position.y,field.pose.position.z,field.pose.orientation.x,field.pose.orientation.y,field.pose.orientation.z,field.pose.orientation.w
27605327023,1724,27608000000,world,10.8998940951,-6.65007462404,4.90007987507,0.155077623072,0.1789425665,-0.485933802629,0.841307808224
27615495609,1725,27624000000,world,10.8998937984,-6.65007485793,4.90007986665,0.155360638599,0.179305435774,-0.485436205969,0.84146558017
27635658744,1726,27640000000,world,10.8998935257,-6.65007507301,4.90007985821,0.155643539582,0.179668261779,-0.48493837007,0.841622944988
27655818448,1727,27656000000,world,10.8998933963,-6.6500751728,4.90007984919,0.15578494576,0.179849661821,-0.484689361445,0.841701474823
27665873734,1728,27672000000,world,10.8998931531,-6.65007536308,4.90007983702,0.156067667148,0.180212438546,-0.484191162042,0.841858229671
27696043356,1729,27688000000,world,10.8998928371,-6.6500756308,4.9000798601,0.156491517349,0.180756550267,-0.483443408169,0.842092599202
27716157039,1730,27704000000,world,10.8998926146,-6.65007582996,4.90007989925,0.156773932442,0.18111923667,-0.482944617128,0.842248332146
27726218968,1731,27720000000,world,10.8998922725,-6.65007612507,4.90007984743,0.157056264976,0.181481903175,-0.482445606478,0.842403635582
27726218968,1732,27736000000,world,10.8998919687,-6.65007639956,4.90007983162,0.157338479704,0.181844506533,-0.481946376029,0.842558525493
27746458410,1733,27752000000,world,10.8998917424,-6.65007660786,4.90007983732,0.157620586787,0.182207064745,-0.481446921858,0.842712998364
27766703743,1734,27768000000,world,10.8998915815,-6.65007675791,4.90007990134,0.157902565696,0.182569550016,-0.48094725884,0.842867055572
27776760605,1735,27784000000,world,10.8998915651,-6.65007689991,4.90007998458,0.15804350405,0.182750768682,-0.480697351235,0.842943926895
27796875197,1736,27800000000,world,10.8998910622,-6.65007753522,4.90008063907,0.158466084432,0.183294245087,-0.479947384595,0.843173901294
27816993662,1737,27816000000,world,10.8998905406,-6.65007838331,4.90008161816,0.158747559607,0.183656413781,-0.47944720715,0.843326692067
27847202693,1738,27840000000,world,10.8998893628,-6.65008037543,4.90008397217,0.159169378,0.184199449306,-0.478696655018,0.843555086794
27847202693,1739,27848000000,world,10.8998882902,-6.65008221807,4.90008617317,0.159450307597,0.18456134507,-0.478196097992,0.843706821816
27867564914,1740,27864000000,world,10.8998876596,-6.65008328936,4.90008744543,0.159590684877,0.184742261576,-0.477945759024,0.843782532125
27877653507,1741,27880000000,world,10.8998862001,-6.65008571686,4.90009029214,0.159871259719,0.185104041903,-0.477444948625,0.84393364373
27887710948,1742,27896000000,world,10.8998844792,-6.65008851245,4.90009351579,0.160151591867,0.185465759728,-0.476943951763,0.844084347958
27907844619,1743,27912000000,world,10.8998825025,-6.65009166576,4.9000970961,0.160431678972,0.185827421859,-0.476442759464,0.84423464903
27927955476,1744,27928000000,world,10.8998802763,-6.65009516673,4.9001010237,0.160711524317,0.186189034185,-0.475941360443,0.844384551564
27948050255,1745,27944000000,world,10.8998778081,-6.65009900601,4.90010529933,0.160991143191,0.186550601775,-0.475439743964,0.844534057721
27958107272,1746,27960000000,world,10.8998751067,-6.65010317834,4.90010993084,0.161270559097,0.186912127627,-0.474937905822,0.844683164819
27978192729,1747,27976000000,world,10.8998721786,-6.65010768371,4.90011492311,0.161549783443,0.187273613254,-0.47443584614,0.844831870342
27988252300,1748,27992000000,world,10.8998690306,-6.65011252275,4.90012028706,0.16182884034,0.187635058578,-0.473933568164,0.844980167929
27998480994,1749,28008000000,world,10.8998656662,-6.65011769978,4.90012602809,0.16210773512,0.187996462589,-0.473431074892,0.845128055146
28018622827,1750,28024000000,world,10.8998620931,-6.65012321404,4.90013213491,0.16238646631,0.18835782458,-0.472928368852,0.845275531063
28038839843,1751,28040000000,world,10.8998583267,-6.65012905592,4.90013858056,0.16266502405,0.188719155711,-0.472425448579,0.845422595956
28048921615,1752,28056000000,world,10.899854428,-6.65013519255,4.90014530869,0.162943408645,0.189080461231,-0.471922307233,0.845569252454
28069103369,1753,28072000000,world,10.8998524557,-6.6501383567,4.90014875509,0.16308253818,0.18926110619,-0.471670648433,0.845642429654
28079163948,1754,28088000000,world,10.8998465182,-6.65014817516,4.9001593527,0.163499687382,0.189803017521,-0.470915284708,0.845861372445
28099298107,1755,28104000000,world,10.8998425908,-6.65015493634,4.9001665833,0.163777599633,0.1901642661,-0.470411356764,0.846006858828
28119414760,1756,28120000000,world,10.8998406412,-6.65015837041,4.90017024127,0.163916501458,0.190344874459,-0.470159286049,0.846079461433
28129500350,1757,28136000000,world,10.8998367682,-6.65016533757,4.90017763832,0.16419419742,0.190706047295,-0.469654932346,0.846224387253
28149653177,1758,28152000000,world,10.8998310086,-6.65017602359,4.90018893683,0.164610382643,0.191247480912,-0.468897907337,0.846441123449
28159738847,1759,28168000000,world,10.899829095,-6.65017964744,4.90019275359,0.164749031552,0.191427883776,-0.468645430774,0.84651319076
28179933089,1760,28184000000,world,10.899823352,-6.65019070282,4.90020434897,0.165164810137,0.191968945598,-0.467887590838,0.846728830121
28189989222,1761,28200000000,world,10.8998195074,-6.6501982217,4.90021220143,0.16544186563,0.192329524725,-0.467382045236,0.846872107704
28210331233,1762,28216000000,world,10.8998175774,-6.65020202365,4.90021616496,0.165580354426,0.192509774651,-0.46712918358,0.846943598323
28230592899,1763,28232000000,world,10.8998136992,-6.65020970966,4.90022416762,0.165857254702,0.192870194398,-0.466623287324,0.847086280672
28240650563,1764,28248000000,world,10.8998097937,-6.65021750039,4.90023227315,0.166134054577,0.19323050665,-0.466117162306,0.847228563148
28271207957,1765,28264000000,world,10.8998038785,-6.65022937702,4.90024462683,0.166549073091,0.19377077344,-0.465357538931,0.847441239599
28271207957,1766,28280000000,world,10.8997998979,-6.65023741226,4.90025298056,0.166825630519,0.19413082809,-0.464850833431,0.847582522971
28291341623,1767,28296000000,world,10.8997958935,-6.6502455273,4.90026140387,0.167102087233,0.194490798841,-0.464343905373,0.847723397785
28311520879,1768,28312000000,world,10.8997938844,-6.65024961086,4.9002656345,0.167240278188,0.194670755247,-0.464090355829,0.847793682466
28321577512,1769,28328000000,world,10.8997878338,-6.65026195461,4.90027838448,0.167654703144,0.195210511497,-0.463329354805,0.848003930233
28341931810,1770,28344000000,world,10.8997837833,-6.65027025415,4.90028692337,0.167930863227,0.195570254651,-0.462821723118,0.848143592372
28352204167,1771,28360000000,world,10.8997817667,-6.65027441388,4.90029119654,0.168068903099,0.195750099293,-0.46256781353,0.848213275258
28372543372,1772,28376000000,world,10.8997777788,-6.65028273095,4.90029973295,0.168344895585,0.196109737771,-0.462059797082,0.84835235062
28392723081,1773,28392000000,world,10.899772022,-6.65029511446,4.90031244015,0.16875864272,0.196649077641,-0.461297234767,0.848560264193
28412978814,1774,28408000000,world,10.8997683855,-6.65030326372,4.90032080664,0.169034307321,0.197008559358,-0.460788474931,0.848698422209
28423072482,1775,28424000000,world,10.8997649193,-6.6503113115,4.90032907283,0.169309840434,0.197367975796,-0.460279397418,0.848836224707
28433132040,1776,28440000000,world,10.8997632478,-6.65031529581,4.90033316644,0.169447558979,0.197547658597,-0.460024739464,0.848904992576
28453288651,1777,28456000000,world,10.8997600185,-6.65032318396,4.90034127383,0.169722899817,0.197906974521,-0.459515188524,0.84904225939
28463368057,1778,28472000000,world,10.8997569258,-6.65033096256,4.9003492784,0.169998109851,0.198266230978,-0.459005331193,0.849179162626
28483548252,1779,28488000000,world,10.8997525046,-6.65034242072,4.90036110469,0.170410670086,0.198805027598,-0.458239995044,0.849383818697
28503868188,1780,28504000000,world,10.89974968,-6.65034991985,4.90036887323,0.170685537922,0.199164177414,-0.457729420359,0.849519779238
28513923184,1781,28520000000,world,10.8997469385,-6.6503573105,4.90037654851,0.170960272182,0.199523290262,-0.457218578349,0.849655349887
28534065096,1782,28536000000,world,10.8997442707,-6.65036459638,4.90038412772,0.171234878206,0.199882364071,-0.456707477549,0.849790525347
28544289590,1783,28552000000,world,10.899742962,-6.65036820109,4.90038788042,0.171372134368,0.200061885732,-0.456451832097,0.849857963671
28564418940,1784,28568000000,world,10.8997391335,-6.6503788621,4.90039897108,0.17178371632,0.200600386765,-0.455684509161,0.850059684815
28574512598,1785,28584000000,world,10.8997378912,-6.65038236249,4.90040260037,0.171920848614,0.200779860031,-0.455428597524,0.850126733008
28594651442,1786,28600000000,world,10.8997354576,-6.65038927841,4.90040974567,0.172195023724,0.201138754065,-0.454916559775,0.85026054775
28614842745,1787,28616000000,world,10.8997330891,-6.65039607403,4.90041673145,0.172469085884,0.201497566651,-0.454404235356,0.850393988654
28624898312,1788,28632000000,world,10.8997296498,-6.65040603252,4.90042691592,0.17287996921,0.202035638294,-0.453635218834,0.850593443038
28645012120,1789,28648000000,world,10.8997285307,-6.65040928829,4.90043023617,0.173016872982,0.202214962206,-0.45337874347,0.850659735554
28655101412,1790,28664000000,world,10.8997252507,-6.65041886504,4.90043998505,0.173427406715,0.202752852133,-0.452608917112,0.850858027936
28675213292,1791,28680000000,world,10.8997241824,-6.65042199461,4.9004431672,0.173564190882,0.202932125334,-0.452352176957,0.850923928535
28705650711,1792,28704000000,world,10.899720098,-6.65043416705,4.90045551333,0.174111036456,0.203649090709,-0.451324571117,0.851186540274
28705650711,1793,28712000000,world,10.899719147,-6.65043711006,4.90045848357,0.174247679888,0.203828293305,-0.451067510007,0.851251945266
28725847272,1794,28728000000,world,10.8997165673,-6.65044562887,4.90046700441,0.174657468861,0.204365771118,-0.450295941672,0.851447570365
28745994657,1795,28744000000,world,10.899715799,-6.65044835831,4.90046970655,0.174794018446,0.204544884305,-0.450038622371,0.851512583462
28766299700,1796,28768000000,world,10.8997137525,-6.65045619537,4.90047737896,0.175203523004,0.205082079274,-0.449266266127,0.85170704377
28766299700,1797,28776000000,world,10.8997137525,-6.65045619537,4.90047737896,0.175203523004,0.205082079274,-0.449266266127,0.85170704377
28786418005,1798,28792000000,world,10.899712577,-6.6504611208,4.90048213662,0.175476400381,0.205440091558,-0.448751027223,0.851836203302
28806548340,1799,28808000000,world,10.8997110441,-6.65046806196,4.90048876445,0.175885506207,0.205976955636,-0.447977650698,0.852029228917
28826663494,1800,28832000000,world,10.8997097348,-6.65047447977,4.90049483754,0.176294356794,0.206513632289,-0.447203658723,0.852221395569
28836789761,1801,28840000000,world,10.8997097348,-6.65047447977,4.90049483754,0.176294356794,0.206513632289,-0.447203658723,0.852221395569
28846872754,1802,28856000000,world,10.8997086012,-6.65048038913,4.90050039755,0.176702957831,0.207050113198,-0.446429078498,0.852412689482
28867014727,1803,28872000000,world,10.8997079267,-6.65048405296,4.90050383189,0.176975195986,0.20740767635,-0.445912371211,0.852539731038
28887126647,1804,28888000000,world,10.8997073109,-6.65048749677,4.90050705128,0.177247282461,0.207765181086,-0.445395404592,0.852666384911
28897184384,1805,28904000000,world,10.8997070241,-6.65048913498,4.90050857985,0.177383266172,0.207943911301,-0.445136823016,0.852729567583
28917295626,1806,28920000000,world,10.8997062443,-6.65049370953,4.90051283789,0.177790977255,0.208480015919,-0.444360680141,0.852918540843
28927527062,1807,28936000000,world,10.8997060091,-6.6504951204,4.90051414725,0.17792679724,0.20865868477,-0.444101832874,0.852981342194
28947731164,1808,28952000000,world,10.8997053654,-6.65049901514,4.90051774591,0.17833401419,0.209194598593,-0.443324890356,0.853169174838
28968097678,1809,28968000000,world,10.8997049803,-6.65050133772,4.9005198766,0.178605299892,0.209551780829,-0.442806601177,0.853293918856
28978154140,1810,28984000000,world,10.8997048002,-6.65050241894,4.90052086404,0.178740888142,0.209730338526,-0.442547360358,0.853356147132
28998289242,1811,29000000000,world,10.8997043113,-6.65050534811,4.9005235268,0.179147436306,0.210265875195,-0.441769254235,0.853542256602
29008377218,1812,29016000000,world,10.8997040537,-6.65050703454,4.90052505223,0.179418288573,0.210622800744,-0.441250194091,0.853665847827
29038683767,1813,29032000000,world,10.8997038119,-6.65050912469,4.90052693175,0.179824304909,0.211158076166,-0.440471115047,0.853850503919
29048740072,1814,29048000000,world,10.8997037655,-6.65050969685,4.90052744243,0.17995957473,0.211336474676,-0.440211293648,0.853911858964
29058797862,1815,29064000000,world,10.8997037357,-6.65051020164,4.90052788962,0.18009481089,0.2115148619,-0.439951410958,0.853973113325
29088964183,1816,29080000000,world,10.899703691,-6.65051152853,4.90052905283,0.180635435379,0.212228272944,-0.438911291362,0.854217114066
29099018240,1817,29096000000,world,10.8997036872,-6.65051168602,4.90052919002,0.180770517307,0.212406581842,-0.438651120969,0.854277857687
29119159435,1818,29112000000,world,10.8997036849,-6.65051179928,4.9005292883,0.181040595173,0.212763138823,-0.43813061369,0.854399037338
29119159435,1819,29128000000,world,10.8997037583,-6.65051222081,4.90052965521,0.1813105429,0.213119552821,-0.437609905003,0.854519815032
29139273311,1820,29144000000,world,10.899703778,-6.65051295741,4.90053028873,0.181580382027,0.213475837947,-0.437088992134,0.854640184189
29159425619,1821,29160000000,world,10.899703755,-6.65051341693,4.90053067885,0.181850129007,0.213832063805,-0.436567837623,0.854760143094
29169518925,1822,29176000000,world,10.8997037478,-6.65051353995,4.90053078214,0.181984966657,0.214010154658,-0.436307168055,0.85481996977
29189671362,1823,29192000000,world,10.8997037479,-6.65051406189,4.90053124945,0.182389315179,0.214544257825,-0.435524824231,0.854998845977
29199775831,1824,29208000000,world,10.8997037236,-6.65051485501,4.90053193604,0.182658740089,0.214900146997,-0.43500300029,0.855117594971
29219962319,1825,29224000000,world,10.8997036985,-6.65051538259,4.9005323857,0.18292805631,0.215255944011,-0.434480942517,0.855235941347
29230019165,1826,29240000000,world,10.8997036855,-6.65051564834,4.90053261133,0.183197253981,0.215611622137,-0.433958665176,0.855353886676
29250206008,1827,29256000000,world,10.8997036831,-6.65051568449,4.90053264142,0.18333181393,0.215789423205,-0.433697445286,0.855412705532
29270318069,1828,29272000000,world,10.8997035806,-6.65051661412,4.90053339217,0.183735332256,0.21632254695,-0.432913537404,0.855588541586
29280372367,1829,29288000000,world,10.8997035569,-6.65051699267,4.90053370899,0.183869793011,0.216500195924,-0.432652137156,0.855646943895
29300519567,1830,29304000000,world,10.8997035217,-6.65051775507,4.90053435443,0.18427305455,0.217033042229,-0.431867615524,0.855821513289
29320634054,1831,29320000000,world,10.8997035133,-6.65051796595,4.90053453358,0.184541794811,0.217388185824,-0.431344336901,0.855937360825
29340747675,1832,29336000000,world,10.8997034956,-6.65051795903,4.90053450023,0.184810455208,0.217743256467,-0.430820850531,0.856052781466
29350802843,1833,29352000000,world,10.8997036348,-6.65051869914,4.9005353564,0.185078969326,0.218098075344,-0.43029720302,0.856167811657
29360895663,1834,29368000000,world,10.8997036459,-6.65051929113,4.90053587535,0.185347405456,0.218452790847,-0.429773350892,0.85628242089
29381203884,1835,29384000000,world,10.8997036724,-6.65051956377,4.90053610393,0.185615714021,0.21880741953,-0.429249246618,0.856396639499
29391261699,1836,29400000000,world,10.8997036827,-6.65051956333,4.90053610269,0.185749811241,0.218984705143,-0.428987091924,0.856453607325
29411410008,1837,29416000000,world,10.8997033284,-6.65052019668,4.90053665853,0.186151871893,0.219516341816,-0.428200289157,0.856623936528
29431520582,1838,29432000000,world,10.8997033803,-6.65052021089,4.90053666906,0.186419723339,0.219870738675,-0.427675382951,0.8567370144
29441623231,1839,29448000000,world,10.8997031502,-6.65052086991,4.9005372102,0.186687426632,0.220224941344,-0.427150285044,0.856849703235
29461781681,1840,29464000000,world,10.8997031828,-6.65052116515,4.90053744707,0.186954996754,0.220579093706,-0.426624912256,0.856962004322
29471869462,1841,29480000000,world,10.8997032049,-6.65052137773,4.90053762063,0.18722241258,0.220933067395,-0.42609932406,0.85707392563
29491991435,1842,29496000000,world,10.8997032182,-6.6505215125,4.90053772893,0.187489711314,0.221286916622,-0.425573511351,0.857185449666
29512452726,1843,29512000000,world,10.8997032005,-6.65052144796,4.90053765952,0.187623322671,0.221463811173,-0.425310516058,0.857241059482
29522537140,1844,29528000000,world,10.8997033187,-6.65052219372,4.90053833348,0.18789042635,0.221817402153,-0.424784400426,0.857351993608
29542735601,1845,29544000000,world,10.8997033713,-6.65052268867,4.90053873747,0.18829090404,0.222347700969,-0.42399476774,0.857517622127
29562951908,1846,29560000000,world,10.8997034222,-6.65052317846,4.90053913692,0.188557738893,0.222701115426,-0.423468062029,0.857627537299
29583118760,1847,29576000000,world,10.8997035037,-6.65052391959,4.90053973963,0.188824435856,0.223054410581,-0.422941139263,0.857737054733
29583118760,1848,29592000000,world,10.8997035478,-6.65052430463,4.90054005064,0.189091003222,0.223407632808,-0.422413976818,0.857846171695
29603861347,1849,29608000000,world,10.8997035544,-6.65052436231,4.90054009685,0.189224239088,0.223584214903,-0.422150306262,0.857900579969
29613937618,1850,29624000000,world,10.8997036537,-6.65052520999,4.90054077624,0.189623740278,0.224113736066,-0.421358989409,0.858063210069
29634345465,1851,29640000000,world,10.8997036893,-6.65052551357,4.90054102005,0.189756850295,0.224290202683,-0.421095100965,0.858117217337
29654460530,1852,29656000000,world,10.8997037291,-6.65052584716,4.90054128822,0.190022992108,0.224643107631,-0.420567132902,0.858224925871
29664706862,1853,29672000000,world,10.8997037665,-6.65052627154,4.90054161682,0.190421992453,0.225172298857,-0.419774723664,0.858385741954
29684817653,1854,29688000000,world,10.89970385,-6.65052688557,4.90054209831,0.190687844483,0.225524917721,-0.41924616203,0.858492465358
29694876940,1855,29704000000,world,10.8997038896,-6.6505270902,4.90054225546,0.190953567461,0.225877392319,-0.418717363748,0.858598805036
29715014383,1856,29720000000,world,10.8997038945,-6.65052703223,4.90054220704,0.191086387623,0.226053586835,-0.418452876789,0.858651825976
29735180781,1857,29736000000,world,10.8997039743,-6.65052780842,4.90054281332,0.191351933327,0.226405781012,-0.417923787943,0.858757571965
29745284845,1858,29752000000,world,10.8997040563,-6.65052814347,4.90054305784,0.191617395241,0.226757913146,-0.417394462077,0.858862902735
29765530069,1859,29768000000,world,10.8997041237,-6.65052842483,4.90054326366,0.192015413589,0.227285912765,-0.416600079647,0.859020121092
29775626878,1860,29784000000,world,10.8997042821,-6.65052888302,4.90054356709,0.19228063129,0.227637747037,-0.41607024204,0.859124419769
29795743490,1861,29800000000,world,10.8997043917,-6.65052925465,4.90054382505,0.192413199555,0.22781360603,-0.415805251658,0.859176416249
29826039877,1862,29824000000,world,10.8997044829,-6.65052962638,4.90054408994,0.19294321036,0.228516765398,-0.414744744697,0.859383384907
29846241635,1863,29832000000,world,10.8997046009,-6.65053005431,4.9005444177,0.193075626941,0.228692421359,-0.41447950515,0.859434883225
29846241635,1864,29848000000,world,10.8997047455,-6.65053059135,4.90054482048,0.193340388251,0.229043690932,-0.413948847339,0.859537569686
29856330120,1865,29864000000,world,10.8997047732,-6.65053069527,4.90054489765,0.193605038942,0.229394912652,-0.413417947421,0.85963984534
29876566845,1866,29880000000,world,10.8997048263,-6.65053089123,4.90054504486,0.19373730856,0.229570477876,-0.413152417664,0.859690834392
29886643986,1867,29896000000,world,10.899705004,-6.65053143862,4.90054545621,0.19413389768,0.230097062121,-0.412355476623,0.859843202377
29906924136,1868,29912000000,world,10.8997051187,-6.65053181297,4.90054573742,0.194266012267,0.23027253329,-0.412089720007,0.859893795509
29927068425,1869,29928000000,world,10.8997052409,-6.65053224171,4.90054605934,0.194530120209,0.230623425261,-0.411558024749,0.859994686214
29937177158,1870,29944000000,world,10.8997053722,-6.65053268457,4.90054638263,0.19492593231,0.231149577054,-0.410760046627,0.860145300537
29967508231,1871,29960000000,world,10.8997055344,-6.65053324429,4.90054679378,0.195189580443,0.231500264894,-0.410227761943,0.860245219906
29967508231,1872,29976000000,world,10.8997055674,-6.65053335527,4.90054687555,0.195321345814,0.231675613112,-0.409961518043,0.860295028396
29987739349,1873,29992000000,world,10.8997056436,-6.65053362112,4.90054706864,0.195716408493,0.232201601116,-0.409162410735,0.860443853791
30007907925,1874,30008000000,world,10.8997056278,-6.6505335797,4.90054703927,0.195848009871,0.232376874468,-0.408895925131,0.860493269964
30017973237,1875,30024000000,world,10.8997058864,-6.65053437198,4.90054760287,0.196111090136,0.232727292416,-0.408362809112,0.860591810224
30038087769,1876,30040000000,world,10.8997059664,-6.65053465098,4.90054780084,0.196505500054,0.233252868312,-0.407562668204,0.860738845039
30048303435,1877,30056000000,world,10.899706229,-6.65053549384,4.90054829501,0.196768275748,0.233603101416,-0.40702896792,0.860836370016
30068574725,1878,30072000000,world,10.8997063273,-6.65053579961,4.90054848876,0.197030933361,0.233953283789,-0.406495005144,0.860933495165
30088783393,1879,30088000000,world,10.8997064596,-6.65053622493,4.90054876184,0.197293420235,0.234303277742,-0.405960818709,0.861030251527
30129191431,1880,30120000000,world,10.8997066474,-6.65053679048,4.90054911769,0.197818026268,0.235003021812,-0.404891691381,0.861222576616
30129191431,1881,30120000000,world,10.8997066474,-6.65053679048,4.90054911769,0.197818026268,0.235003021812,-0.404891691381,0.861222576616
30149387009,1882,30136000000,world,10.8997069203,-6.65053756684,4.90054960344,0.198080134532,0.235352717838,-0.404356782082,0.861318147547
30159448040,1883,30160000000,world,10.8997069881,-6.65053776024,4.90054972667,0.198473072561,0.235877128413,-0.403553955624,0.861460750505
30159448040,1884,30168000000,world,10.8997071471,-6.65053820409,4.90055000145,0.198603971426,0.236051829464,-0.403286249672,0.86150809466
30179631761,1885,30184000000,world,10.8997072589,-6.65053851758,4.90055019843,0.198734843292,0.236226518309,-0.403018481753,0.861555336281
30199750701,1886,30200000000,world,10.8997073184,-6.65053868496,4.90055030374,0.199127297641,0.236750513313,-0.402214807886,0.861696444287
30209829004,1887,30216000000,world,10.8997075761,-6.65053942015,4.90055077478,0.199388771294,0.237099676378,-0.401678762045,0.861790017038
30231840742,1888,30232000000,world,10.8997076565,-6.65053964633,4.90055091726,0.19965014105,0.237448784914,-0.401142477056,0.861883175856
30241898125,1889,30248000000,world,10.8997077819,-6.65054000135,4.90055114007,0.199911351124,0.237797701554,-0.400606002545,0.861975948361
30262008990,1890,30264000000,world,10.8997079595,-6.65054048335,4.90055143951,0.200172438312,0.238146524975,-0.400069317671,0.86206830857
30272080698,1891,30280000000,world,10.8997079451,-6.65054045757,4.90055142519,0.200433408687,0.238495315223,-0.399532399445,0.862160249079
30302252283,1892,30296000000,world,10.8997082474,-6.65054118858,4.90055186946,0.200694233623,0.23884397469,-0.398995288284,0.862251784731
30322367593,1893,30312000000,world,10.8997083079,-6.65054134323,4.90055196811,0.201085241087,0.239366834313,-0.398189213282,0.862388308637
30322367593,1894,30328000000,world,10.8997086082,-6.65054208679,4.90055242361,0.201345729114,0.239715181489,-0.397651614061,0.862478824648
30342533059,1895,30344000000,world,10.899708683,-6.65054227083,4.90055253922,0.201475937487,0.239889329776,-0.39738273685,0.862523922293
30352625665,1896,30360000000,world,10.899708686,-6.65054226466,4.90055253571,0.201736278815,0.240237573805,-0.396844818515,0.862613802324
30372937559,1897,30376000000,world,10.8997088289,-6.65054271162,4.90055281322,0.20186639476,0.240411616407,-0.396575795722,0.862658595048
30382993537,1898,30392000000,world,10.8997090306,-6.65054327096,4.90055315818,0.202256549791,0.240933666262,-0.395768350758,0.862792367297
30403108322,1899,30408000000,world,10.8997091634,-6.65054363732,4.90055338571,0.202516445772,0.241281603108,-0.395229763633,0.862881052714
30423252246,1900,30424000000,world,10.8997092817,-6.65054394748,4.90055357472,0.202646316706,0.241455530509,-0.394960393936,0.862925248405
30443476989,1901,30440000000,world,10.8997093413,-6.65054412037,4.90055368466,0.203035635425,0.24197726475,-0.394151950019,0.863057225442
30463683728,1902,30456000000,world,10.8997097905,-6.65054507305,4.90055419726,0.203424509276,0.24249887797,-0.393343033077,0.863188288578
30463683728,1903,30472000000,world,10.8997098216,-6.6505451424,4.90055423461,0.203554046876,0.242672754445,-0.393073273512,0.863231768357
30483897210,1904,30488000000,world,10.8997100112,-6.65054554915,4.90055444754,0.203812981217,0.243020463562,-0.392533582629,0.863318428788
30493976075,1905,30504000000,world,10.8997101641,-6.65054588661,4.90055462971,0.203942373222,0.243194282276,-0.392263653806,0.863361613332
30514370558,1906,30520000000,world,10.899710298,-6.65054619069,4.90055479802,0.204201013827,0.243541875982,-0.39172361419,0.863447688445
30534519034,1907,30536000000,world,10.8997106515,-6.65054699889,4.90055525459,0.204588619598,0.24406310108,-0.390913122027,0.863576071026
30544759674,1908,30552000000,world,10.8997108093,-6.65054734985,4.90055545138,0.204846825499,0.244410544121,-0.390372471169,0.863661159112
30565095693,1909,30568000000,world,10.8997110074,-6.65054786093,4.90055571998,0.205104876878,0.24475792327,-0.389831573484,0.863745849653
30575180717,1910,30584000000,world,10.8997111715,-6.65054824537,4.90055592939,0.205233844803,0.244931578644,-0.38956103527,0.863788047226
30595427825,1911,30600000000,world,10.8997113508,-6.65054863592,4.90055614909,0.205620504576,0.245452380088,-0.388749064187,0.863914059558
30625878099,1912,30616000000,world,10.8997114771,-6.65054890347,4.90055629943,0.205878100332,0.245799448095,-0.388207470006,0.863997569066
30656124392,1913,30632000000,world,10.8997116768,-6.65054929829,4.90055651911,0.206135563441,0.246146415492,-0.387665654813,0.864080674303
30656124392,1914,30656000000,world,10.8997119697,-6.65054990211,4.90055685736,0.206521505462,0.246666665693,-0.386852520765,0.864204577051
30656124392,1915,30664000000,world,10.8997119474,-6.65054985526,4.90055682847,0.206650081222,0.24684002556,-0.386581364751,0.864245679272
30676261369,1916,30680000000,world,10.899712316,-6.65055064093,4.90055728479,0.206907121783,0.247186604258,-0.38603891572,0.864327589043
30686349547,1917,30696000000,world,10.8997124482,-6.65055093031,4.90055744117,0.207164058011,0.247533111943,-0.385496240444,0.864409081491
30706467046,1918,30712000000,world,10.8997124248,-6.6505508835,4.90055741502,0.207292487958,0.247706333377,-0.385224820373,0.864449671531
30726635441,1919,30728000000,world,10.8997128884,-6.65055188108,4.90055795329,0.207677590803,0.248225735329,-0.384410284663,0.864570838997
30736691106,1920,30744000000,world,10.8997128914,-6.65055189467,4.90055796221,0.207934175039,0.248571869867,-0.383866989242,0.864651108211
30767125657,1921,30760000000,world,10.899713269,-6.65055265678,4.90055835019,0.208190605367,0.248917824019,-0.383323504411,0.864730986891
30787297806,1922,30776000000,world,10.8997133384,-6.65055280306,4.90055842701,0.208575022305,0.249436652616,-0.382507834637,0.864850029106
30797393859,1923,30792000000,world,10.8997133384,-6.65055280306,4.90055842701,0.208575022305,0.249436652616,-0.382507834637,0.864850029106
30807475121,1924,30816000000,world,10.8997137664,-6.65055368229,4.90055888791,0.209087087095,0.250128028126,-0.381419521649,0.865007345669
30817530611,1925,30824000000,world,10.8997137169,-6.65055357476,4.90055881081,0.209215013245,0.250300795881,-0.381147305732,0.865046427163
30837869053,1926,30840000000,world,10.8997140152,-6.65055419848,4.9005591775,0.209470756436,0.250646173517,-0.380602739633,0.865124298863
30847925401,1927,30856000000,world,10.8997140621,-6.65055429473,4.90055922807,0.209726397162,0.250991473901,-0.38005794695,0.865201754114
30868059983,1928,30872000000,world,10.8997143195,-6.65055478811,4.90055943466,0.209854168021,0.251164062395,-0.379785483835,0.865240329731
30888175449,1929,30896000000,world,10.8997146244,-6.65055539139,4.90055972253,0.210364931601,0.251854245253,-0.378695105493,0.865393582005
30898233304,1930,30904000000,world,10.8997146244,-6.65055539139,4.90055972253,0.210364931601,0.251854245253,-0.378695105493,0.865393582005
30918368993,1931,30920000000,world,10.8997150151,-6.6505561754,4.9005601273,0.210620079523,0.252199186804,-0.378149639322,0.865469584999
30928424627,1932,30936000000,world,10.8997151257,-6.65055638958,4.90056023253,0.211002452189,0.252716462695,-0.377331073407,0.865582818507
30948611504,1933,30952000000,world,10.8997153258,-6.65055684795,4.90056047132,0.211129807066,0.252888811928,-0.377058139631,0.865620362923
30958670815,1934,30968000000,world,10.8997155698,-6.65055736989,4.90056072717,0.211384395878,0.253233502968,-0.376512112721,0.865695130591
30978983885,1935,30984000000,world,10.8997157772,-6.65055780506,4.90056093538,0.211765968649,0.25375045193,-0.375692706978,0.865806486803
30999119914,1936,31000000000,world,10.899716007,-6.65055829324,4.90056116397,0.212020142702,0.254094988224,-0.375146207363,0.865880199075
31009375943,1937,31016000000,world,10.8997159851,-6.65055824462,4.9005611337,0.212274127291,0.254439405421,-0.374599524801,0.86595350907
31029560841,1938,31032000000,world,10.8997161774,-6.6505586605,4.90056134971,0.212401049494,0.254611549377,-0.37432612764,0.865990013374
31039618075,1939,31048000000,world,10.8997163868,-6.65055909655,4.90056155429,0.212781593727,0.255127924567,-0.373505612306,0.866098893345
31059773759,1940,31064000000,world,10.8997164824,-6.65055931204,4.90056166726,0.21303509186,0.255472059949,-0.372958329832,0.866170976442
31080045503,1941,31080000000,world,10.8997165877,-6.6505595238,4.90056176501,0.213161783338,0.255644083423,-0.372684602833,0.866206871103
31090133548,1942,31096000000,world,10.8997165865,-6.65055953404,4.90056177955,0.2134150496,0.255988039163,-0.372136967458,0.866278372038
31110464079,1943,31112000000,world,10.8997171227,-6.65056045032,4.90056210149,0.213794677429,0.256503685072,-0.371315095563,0.866384900177
31120520031,1944,31128000000,world,10.8997170751,-6.65056037931,4.90056207693,0.214047609885,0.256847332992,-0.370766879751,0.866455416694
31140729488,1945,31144000000,world,10.8997173118,-6.65056077781,4.90056223473,0.214174023999,0.257019094861,-0.370492695495,0.86649052788
31150807890,1946,31160000000,world,10.8997175316,-6.65056117384,4.9005624027,0.214426754784,0.257362531307,-0.36994415718,0.866560450794
31170962565,1947,31176000000,world,10.8997176543,-6.65056139567,4.90056249593,0.214805595298,0.257877433363,-0.369120944149,0.866664591512
31191075785,1948,31192000000,world,10.8997178262,-6.65056172192,4.90056264296,0.215058000663,0.258220543864,-0.368571875386,0.866733511381
31201132322,1949,31208000000,world,10.8997180502,-6.65056214883,4.90056282332,0.215310287218,0.25856350764,-0.368022609525,0.866802025617
31221320430,1950,31224000000,world,10.8997180516,-6.6505621556,4.90056282523,0.215436386292,0.258734931663,-0.367747901905,0.866836131713
31231415994,1951,31240000000,world,10.8997181281,-6.6505623147,4.90056289221,0.215814529101,0.259248971126,-0.366923494703,0.866937834584
31251559447,1952,31256000000,world,10.8997183559,-6.65056274176,4.90056305312,0.215940524208,0.259420224473,-0.366648608654,0.866971530623
31271671960,1953,31272000000,world,10.8997185809,-6.65056317701,4.9005632202,0.216192443164,0.259762639692,-0.36609869457,0.867038606045
31281728682,1954,31288000000,world,10.8997185157,-6.65056306659,4.90056314026,0.216444247858,0.260104897266,-0.365548611334,0.867105266239
31302055000,1955,31304000000,world,10.8997188928,-6.65056377013,4.90056346622,0.216821741888,0.260617959605,-0.364723212332,0.867204468255
31312126380,1956,31320000000,world,10.8997191221,-6.65056422782,4.90056359252,0.217073285767,0.260959855862,-0.364172745501,0.867270058095
31332239846,1957,31336000000,world,10.899719302,-6.65056457298,4.90056370572,0.217199017913,0.261130751105,-0.363897453925,0.867302692531
31342299325,1958,31352000000,world,10.8997194439,-6.65056483412,4.90056380499,0.217450399977,0.261472467239,-0.363346736623,0.867367639131
31362412985,1959,31368000000,world,10.8997198147,-6.65056547973,4.90056407827,0.217827220045,0.261984818727,-0.362520346408,0.867464267509
31382566701,1960,31384000000,world,10.8997199161,-6.65056566351,4.90056415214,0.218078208689,0.262326207869,-0.361969213723,0.867528180451
31392621833,1961,31400000000,world,10.899720077,-6.65056594374,4.90056425913,0.218329005039,0.262667468822,-0.361417915001,0.867591688006
31423052607,1962,31424000000,world,10.899720278,-6.6505663029,4.90056440096,0.218704850361,0.263179190319,-0.360590633841,0.867686174258
31423052607,1963,31432000000,world,10.8997205298,-6.65056679434,4.90056462201,0.218830032621,0.26334969384,-0.360314795879,0.867717467525
31443355890,1964,31448000000,world,10.8997208372,-6.65056736394,4.90056485925,0.219080261881,0.263690661223,-0.359762972191,0.867779740417
31463513174,1965,31464000000,world,10.8997208468,-6.65056738281,4.90056486765,0.219330308067,0.264031564144,-0.359210957923,0.86784159661
31483763884,1966,31480000000,world,10.8997212675,-6.6505681462,4.90056516205,0.219580147846,0.264372322118,-0.358658791186,0.867903050735
31493782385,1967,31496000000,world,10.8997213602,-6.65056832041,4.90056522647,0.219704992449,0.264542663597,-0.358382639261,0.867933626095
31503838235,1968,31512000000,world,10.8997215357,-6.65056864555,4.9005653488,0.220079232989,0.265053516529,-0.357553910759,0.86802474935
31524120595,1969,31528000000,world,10.899721675,-6.65056890735,4.90056544043,0.220203892548,0.265223748772,-0.357277574316,0.86805491974
31534179724,1970,31544000000,world,10.8997219785,-6.65056949394,4.90056562483,0.220577626768,0.265734327144,-0.356448262728,0.868144811621
31554334505,1971,31560000000,world,10.8997221606,-6.65056984003,4.90056573637,0.220702122459,0.265904468164,-0.356171730596,0.868174570738
31574534663,1972,31576000000,world,10.8997222372,-6.65057000237,4.90056578868,0.221075352203,0.266414759786,-0.355341823871,0.868263239245
31584609929,1973,31592000000,world,10.8997224902,-6.65057040891,4.90056593145,0.221199667921,0.26658478051,-0.355065099117,0.868292598783
31604770346,1974,31608000000,world,10.8997227098,-6.65057078786,4.90056606049,0.221572387843,0.267094787022,-0.354234594224,0.868380045802
31625101484,1975,31624000000,world,10.8997231708,-6.65057162563,4.90056633092,0.221820671456,0.267434687547,-0.353680677754,0.868437824945
31655495295,1976,31648000000,world,10.8997232513,-6.65057176583,4.90056637,0.222192784737,0.267944367495,-0.352849411301,0.868523733287
31655495295,1977,31656000000,world,10.899723482,-6.65057216493,4.90056651746,0.222316736843,0.268114184339,-0.352572234374,0.868552170122
31665550539,1978,31672000000,world,10.8997236295,-6.65057241922,4.90056660249,0.222440655,0.268283989,-0.352295003205,0.868580501143
31685663737,1979,31688000000,world,10.899723945,-6.65057295919,4.90056675648,0.222812201324,0.26879328518,-0.351463013825,0.868664862128
31695729813,1980,31704000000,world,10.8997242443,-6.65057347193,4.90056691787,0.223059730428,0.269132688221,-0.350908138383,0.86872057142
31716015506,1981,31720000000,world,10.8997242157,-6.65057342947,4.90056690292,0.22330711422,0.269471977932,-0.350353102052,0.868775857014
31736155987,1982,31736000000,world,10.8997246401,-6.65057412747,4.90056714029,0.223554343447,0.269811112384,-0.349797941433,0.868830719605
31746256282,1983,31752000000,world,10.8997247272,-6.65057427328,4.9005671894,0.223677910071,0.269980659899,-0.349520300291,0.868857983511
31766411195,1984,31768000000,world,10.8997248851,-6.65057453104,4.90056727551,0.224048410016,0.270489190452,-0.348687138814,0.868939115844
31776903251,1985,31784000000,world,10.8997250301,-6.65057476979,4.90056735727,0.224171836622,0.270658640352,-0.348409341171,0.868965948155
31797064047,1986,31800000000,world,10.8997250677,-6.65057483226,4.90056737887,0.224418577091,0.270997460703,-0.347853613722,0.869019298963
31817278145,1987,31816000000,world,10.8997256478,-6.65057581326,4.9005677251,0.224788418688,0.271505476458,-0.347019707852,0.869098536093
31837391819,1988,31840000000,world,10.8997258754,-6.65057618277,4.90056784006,0.225157953197,0.27201334193,-0.34618540157,0.869176797702
31847601502,1989,31848000000,world,10.8997260446,-6.65057645679,4.90056792823,0.225281053322,0.272182571104,-0.345907224194,0.869202673288
31857660788,1990,31864000000,world,10.8997261273,-6.65057658992,4.9005679716,0.225527127306,0.272520964491,-0.34535074591,0.869254106152
31877774158,1991,31880000000,world,10.8997262626,-6.65057680933,4.90056804105,0.225773029083,0.272859284841,-0.344794094125,0.869305114831
31897889632,1992,31896000000,world,10.8997261944,-6.65057670958,4.90056800977,0.225895906421,0.273028409892,-0.344515696637,0.869330467443
31918031252,1993,31912000000,world,10.8997266696,-6.65057746639,4.90056824348,0.226264257924,0.273535638476,-0.343680220098,0.869405915774
31928336234,1994,31928000000,world,10.8997269189,-6.65057789064,4.90056837296,0.226509598756,0.273873688102,-0.343122975926,0.869455707917
31938496606,1995,31944000000,world,10.8997271043,-6.65057820456,4.90056846691,0.226632201936,0.274042673607,-0.342844278278,0.869480453455
31958784318,1996,31960000000,world,10.8997271373,-6.65057824894,4.90056845806,0.226999724646,0.274549454569,-0.342007874117,0.869554101852
31968855532,1997,31976000000,world,10.8997274676,-6.65057882481,4.90056866282,0.227244502212,0.27488711758,-0.341450043664,0.869602711866
31989006475,1998,31992000000,world,10.899727452,-6.65057880496,4.90056866439,0.227489109476,0.275224715197,-0.340892004507,0.869650908398
31999080385,1999,32008000000,world,10.8997278801,-6.65057949153,4.90056882598,0.227733541838,0.275562207121,-0.340333799438,0.869698688563
32019259106,2000,32024000000,world,10.8997279374,-6.65057958583,4.90056885136,0.227977799363,0.275899633112,-0.339775407203,0.869746048055
32039457367,2001,32040000000,world,10.8997284067,-6.65058037906,4.90056911093,0.228221870986,0.27623691048,-0.339216860884,0.869793003067
32049523030,2002,32056000000,world,10.8997285066,-6.65058054568,4.90056916402,0.228343839057,0.276405505831,-0.338937517436,0.869816329339
32069650046,2003,32072000000,world,10.8997286308,-6.65058075291,4.90056923263,0.228709474232,0.276911090225,-0.338099209508,0.86988571033
32099820509,2004,32088000000,world,10.8997287509,-6.65058095063,4.90056930182,0.228953019774,0.277247999062,-0.337540086118,0.869931463976
32119943392,2005,32104000000,world,10.8997288699,-6.65058114502,4.90056937413,0.229196395742,0.277584794649,-0.336980748494,0.869976821015
32150112477,2006,32128000000,world,10.8997288977,-6.65058119489,4.90056939998,0.229561141759,0.278089763181,-0.336141334946,0.870044118852
32150112477,2007,32152000000,world,10.8997292304,-6.65058172541,4.90056958347,0.22992550915,0.278594411379,-0.335301457544,0.870110537092
32150112477,2008,32152000000,world,10.8997291428,-6.65058158832,4.90056952694,0.230046893698,0.278762590698,-0.335021384259,0.870132470844
32160202347,2009,32168000000,world,10.8997293525,-6.65058192406,4.90056965634,0.230168235749,0.278930715957,-0.334741271068,0.87015430838
32180349256,2010,32184000000,world,10.8997294757,-6.65058212901,4.9005697252,0.230410823636,0.279266901244,-0.334180883352,0.870197671465
32190405532,2011,32200000000,world,10.8997293924,-6.65058198785,4.90056968785,0.230532055594,0.279434923157,-0.333900620237,0.870219208515
32210471137,2012,32216000000,world,10.8997297197,-6.65058254183,4.90056985441,0.230895552392,0.279938762038,-0.333059575315,0.870283202575
32230584549,2013,32232000000,world,10.8997298368,-6.65058273881,4.90056991693,0.231137719333,0.280274511508,-0.332498644592,0.870325343906
32250693510,2014,32248000000,world,10.8997298506,-6.65058276765,4.9005699384,0.231500704696,0.280777911629,-0.331656910352,0.870387776731
32260749477,2015,32264000000,world,10.8997298506,-6.65058276765,4.9005699384,0.231500704696,0.280777911629,-0.331656910352,0.870387776731
32291881612,2016,32280000000,world,10.899730148,-6.65058325515,4.90057007273,0.231863359598,0.281280998099,-0.330814797336,0.87044928195
32291881612,2017,32296000000,world,10.8997302359,-6.65058339951,4.90057011609,0.232104958347,0.281616266888,-0.330253158061,0.870489757622
32311995146,2018,32312000000,world,10.8997306976,-6.6505841762,4.90057037856,0.232346413373,0.281951399558,-0.329691352572,0.870529818283
32322050460,2019,32328000000,world,10.8997307694,-6.65058429413,4.90057041566,0.23258772022,0.282286427759,-0.329129352995,0.870569465409
32342204346,2020,32344000000,world,10.8997312422,-6.65058504699,4.90057061572,0.23282887349,0.282621292908,-0.328567191063,0.870608707412
32382647663,2021,32368000000,world,10.8997315674,-6.6505856079,4.90057080967,0.233190329387,0.283123403086,-0.327723587084,0.870666790095
32382647663,2022,32384000000,world,10.8997318228,-6.65058604893,4.9005709566,0.233431103015,0.283458004157,-0.327160962156,0.870704993017
32392901506,2023,32392000000,world,10.8997318126,-6.65058603504,4.90057095474,0.233551412904,0.28362524605,-0.326879588938,0.870723946879
32403035653,2024,32408000000,world,10.8997323227,-6.65058683519,4.90057114524,0.233791887075,0.283959622421,-0.32631674085,0.870761546586
32423145158,2025,32424000000,world,10.8997324188,-6.65058700765,4.90057120399,0.233912050599,0.284126774921,-0.326035253195,0.870780191571
32433240455,2026,32440000000,world,10.8997323483,-6.65058688656,4.90057116542,0.234152233325,0.2844610213,-0.325472145118,0.870817168952
32453523551,2027,32456000000,world,10.8997326853,-6.65058748941,4.90057136437,0.23451212838,0.28496209705,-0.324627212602,0.870871883646
32463757165,2028,32472000000,world,10.8997328239,-6.6505877434,4.90057144828,0.234751802781,0.28529595707,-0.3240637281,0.8709078643
32484004960,2029,32488000000,world,10.8997329658,-6.6505879997,4.90057152858,0.234991289196,0.285629695101,-0.323500077866,0.870943437256
32494061064,2030,32504000000,world,10.8997331082,-6.65058825466,4.90057160615,0.235230588784,0.285963310246,-0.322936262772,0.870978602194
32514333554,2031,32520000000,world,10.8997332469,-6.65058850287,4.9005716801,0.23546970402,0.286296803033,-0.322372281644,0.871013358732
32534685160,2032,32536000000,world,10.8997331751,-6.65058837396,4.9005716406,0.235589193236,0.286463515612,-0.322090221455,0.871030582412
32544917275,2033,32552000000,world,10.8997334981,-6.65058895348,4.90057181164,0.235947366576,0.286963376821,-0.321243834254,0.871081660651
32565151052,2034,32568000000,world,10.8997334122,-6.65058880436,4.90057177531,0.236066657855,0.287129927583,-0.320961620468,0.871098488073
32575239471,2035,32584000000,world,10.8997337039,-6.65058931488,4.9005719119,0.236424261026,0.287629355715,-0.320114772373,0.871148354207
32595435426,2036,32600000000,world,10.8997337894,-6.65058945993,4.90057195213,0.23666244825,0.287962168159,-0.31955000252,0.8711810783
32615623254,2037,32616000000,world,10.8997340649,-6.65058993255,4.90057210473,0.236781480079,0.288128510243,-0.31926756434,0.87119728801
32635830757,2038,32632000000,world,10.8997343161,-6.65059035013,4.90057222738,0.237138356393,0.288627428866,-0.318419936113,0.871245287803
32656242751,2039,32656000000,world,10.8997348666,-6.65059122148,4.90057246504,0.237494869974,0.289126021743,-0.317571893585,0.871292386454
32656242751,2040,32664000000,world,10.8997348666,-6.65059122148,4.90057246504,0.237494869974,0.289126021743,-0.317571893585,0.871292386454
32676465970,2041,32680000000,world,10.8997352899,-6.65059191042,4.9005726585,0.237851019897,0.289624297763,-0.316723423501,0.871338586019
32686548954,2042,32696000000,world,10.899735358,-6.65059202579,4.90057268933,0.237969665411,0.289790337526,-0.316440504744,0.871353777509
32706684027,2043,32712000000,world,10.899735729,-6.65059267285,4.90057286291,0.238325393486,0.290288267585,-0.315591516573,0.871398716541
32726843079,2044,32728000000,world,10.8997357359,-6.65059268423,4.90057286686,0.238562364221,0.290620061601,-0.31502534965,0.871428142333
32736939222,2045,32744000000,world,10.8997359628,-6.65059309579,4.90057297857,0.238680792622,0.290785879783,-0.314742238477,0.871442697296
32777210815,2046,32768000000,world,10.8997363907,-6.65059385896,4.90057319063,0.239272438565,0.291614636311,-0.313326199232,0.871513796165
32787268733,2047,32784000000,world,10.8997364075,-6.65059388805,4.90057319714,0.239390668926,0.291780311714,-0.313042897148,0.871527682792
32797323272,2048,32792000000,world,10.8997363217,-6.65059374515,4.9005731712,0.239508853986,0.291945923255,-0.312759563831,0.871541474624
32807380054,2049,32816000000,world,10.899736635,-6.65059427823,4.90057329026,0.239863227361,0.292442505647,-0.311909344637,0.871582224336
32817473789,2050,32824000000,world,10.8997367333,-6.65059444527,4.90057333073,0.239981290156,0.292607958963,-0.311625853134,0.871595600256
32837635992,2051,32840000000,world,10.8997367326,-6.65059444278,4.90057332877,0.240099322402,0.292773380982,-0.311342311129,0.871608873332
32847758274,2052,32856000000,world,10.8997368205,-6.65059459035,4.90057336324,0.240335294647,0.293104100927,-0.310775095915,0.871635113982
32867941469,2053,32872000000,world,10.8997373956,-6.65059551734,4.90057355087,0.240689015209,0.293599870781,-0.309923947824,0.871673712119
32888164255,2054,32888000000,world,10.899737658,-6.65059595955,4.90057364787,0.240924627943,0.293930159387,-0.309356291235,0.871698956135
32898219031,2055,32904000000,world,10.8997379143,-6.65059638664,4.90057374701,0.241160085658,0.294260316062,-0.308788442052,0.871723796584
32918331341,2056,32920000000,world,10.8997381641,-6.65059679881,4.90057384851,0.241395368532,0.294590352649,-0.308220400502,0.871748234808
32928385287,2057,32936000000,world,10.8997383354,-6.65059708219,4.90057391736,0.241512942389,0.294755324189,-0.307936310495,0.871760303179
32948659429,2058,32952000000,world,10.8997386396,-6.65059758277,4.90057403517,0.241865361029,0.295250027421,-0.30708375644,0.871795925073
32958845035,2059,32968000000,world,10.8997388009,-6.65059785085,4.90057409651,0.241982731575,0.295414866356,-0.306799474982,0.871807602918
32979075772,2060,32984000000,world,10.8997390621,-6.6505982923,4.90057419784,0.242334535462,0.295909264543,-0.305946298548,0.87184203987
32999419365,2061,33000000000,world,10.8997392465,-6.65059860539,4.90057426408,0.24256880838,0.296238719194,-0.305377250443,0.871864513192
33009476099,2062,33016000000,world,10.8997391843,-6.6505985024,4.90057424307,0.242685861094,0.296403393499,-0.305092645271,0.871875609791
33029746506,2063,33032000000,world,10.8997395606,-6.65059915077,4.90057437488,0.243036734199,0.296897213548,-0.304238544807,0.871908308408
33039804341,2064,33048000000,world,10.8997394907,-6.65059902094,4.90057435078,0.243153598503,0.297061774682,-0.303953733459,0.871919008552
33059916173,2065,33064000000,world,10.899739824,-6.65059962739,4.90057447341,0.243503929737,0.297555231712,-0.303099046494,0.87195050794
33080134592,2066,33080000000,world,10.899739743,-6.65059949016,4.90057444353,0.243620607325,0.29771963548,-0.302814057903,0.871960816019
33100442342,2067,33096000000,world,10.8997400733,-6.65060006707,4.90057456998,0.243970392784,0.298212621557,-0.301958856942,0.871991128684
33110500065,2068,33120000000,world,10.8997403014,-6.65060046906,4.90057466065,0.244319829429,0.298705348426,-0.301103267317,0.872020503303
33120557434,2069,33128000000,world,10.8997403128,-6.6506004897,4.90057466656,0.244436232176,0.298869536266,-0.300817986219,0.872030084263
33140673490,2070,33144000000,world,10.8997404281,-6.65060069402,4.90057471944,0.244668895678,0.299197755473,-0.300247341651,0.872048948419
33170886704,2071,33168000000,world,10.8997404492,-6.65060074091,4.90057475096,0.245017580845,0.29968989835,-0.299391121062,0.872076433882
33191040113,2072,33176000000,world,10.8997406552,-6.65060108706,4.90057480462,0.245133727164,0.299853886248,-0.299105662803,0.872085377235
33191040113,2073,33192000000,world,10.8997407655,-6.65060127639,4.90057484508,0.245365886915,0.300181808252,-0.298534646696,0.872102934438
33211190681,2074,33208000000,world,10.8997408743,-6.650601464,4.90057488783,0.245597848004,0.300509565816,-0.297963540617,0.872120075661
33231351018,2075,33224000000,world,10.8997409824,-6.65060164881,4.90057492654,0.245829637221,0.300837234399,-0.297392321638,0.872136775336
33241408809,2076,33240000000,world,10.8997410879,-6.65060182901,4.90057496172,0.246061254122,0.301164812171,-0.296820989865,0.872153034224
33251464404,2077,33256000000,world,10.8997411861,-6.65060199639,4.90057499383,0.246292704539,0.301492290147,-0.296249547048,0.872168853231
33271578884,2078,33272000000,world,10.8997412803,-6.65060215756,4.90057502495,0.24640836189,0.301655966647,-0.295963792579,0.872176605086
33281634702,2079,33288000000,world,10.8997417184,-6.65060294621,4.90057521191,0.246755076981,0.302146782892,-0.295106382449,0.872199218419
33301749296,2080,33304000000,world,10.8997417792,-6.65060305011,4.90057523063,0.246986017503,0.302473882715,-0.294534617974,0.872213744588
33311807340,2081,33320000000,world,10.8997422288,-6.65060379819,4.90057535104,0.247216808121,0.302800843726,-0.293962755862,0.872227835481
33331926184,2082,33336000000,world,10.8997422769,-6.65060387998,4.90057536649,0.247447440376,0.303127663154,-0.293390763291,0.872241505604
33341984153,2083,33352000000,world,10.8997427331,-6.65060465632,4.90057550313,0.24767791935,0.303454285097,-0.292818675179,0.872254761288
33372270306,2084,33376000000,world,10.899742934,-6.65060500228,4.90057556589,0.248023329377,0.303944000673,-0.291960258539,0.872273856064
33382416165,2085,33392000000,world,10.8997428926,-6.65060492281,4.90057555177,0.248253378049,0.304270328099,-0.291387792398,0.872286066705
33392510577,2086,33400000000,world,10.899743119,-6.65060533567,4.90057562713,0.248368329987,0.304433420385,-0.291101522259,0.872292020456
33412648260,2087,33416000000,world,10.8997433313,-6.65060570756,4.90057569525,0.248598067887,0.304759504248,-0.290528862764,0.872303631263
33432904524,2088,33432000000,world,10.8997435934,-6.65060615098,4.90057577846,0.248827588318,0.305085436266,-0.289956067207,0.872314843941
33442961310,2089,33448000000,world,10.899743788,-6.65060648406,4.90057583872,0.248942271561,0.305248354181,-0.289669618256,0.872320296657
33463113649,2090,33464000000,world,10.8997438443,-6.6506065856,4.90057585725,0.249286007097,0.305736969324,-0.288810024162,0.87233603743
33473302903,2091,33480000000,world,10.8997442265,-6.6506072359,4.90057596809,0.249514912763,0.306062540785,-0.28823679626,0.872346020062
33483398297,2092,33496000000,world,10.8997442553,-6.65060728575,4.90057597617,0.249743604335,0.306387968918,-0.287663401731,0.872355610918
33503518188,2093,33512000000,world,10.8997447218,-6.65060806969,4.90057610668,0.24997210828,0.306713242,-0.287089863049,0.872364799152
33523857844,2094,33528000000,world,10.8997448329,-6.65060825636,4.90057613609,0.250200424448,0.307038425025,-0.286516128301,0.872373579029
33543971083,2095,33544000000,world,10.8997447543,-6.65060812586,4.90057611562,0.250314511601,0.307200981685,-0.286229187887,0.872377816164
33553990876,2096,33560000000,world,10.8997451792,-6.65060883699,4.90057622896,0.250656487055,0.307688388347,-0.285368152902,0.872389934882
33574184216,2097,33576000000,world,10.8997454154,-6.65060923129,4.90057629155,0.250884224366,0.30801314042,-0.284793920791,0.872397520614
33584238563,2098,33592000000,world,10.8997455993,-6.65060953735,4.90057633942,0.250998024625,0.308175469262,-0.284506742108,0.872401160863
33604604261,2099,33608000000,world,10.8997456128,-6.65060956262,4.90057634023,0.251339142369,0.308662318259,-0.283644914264,0.872411469097
33614663111,2100,33624000000,world,10.8997459771,-6.6506101629,4.9005764395,0.251566319241,0.308986696273,-0.283070173142,0.872417838898
33644903581,2101,33640000000,world,10.899746025,-6.65061024032,4.9005764517,0.251679833162,0.309148833982,-0.28278273747,0.872420875161
33654961027,2102,33656000000,world,10.8997464403,-6.65061090374,4.90057655693,0.252020096538,0.30963502288,-0.281920214409,0.872429376084
33665022278,2103,33672000000,world,10.8997465306,-6.65061104893,4.9005765799,0.252246721919,0.309959017831,-0.281344996244,0.872434519969
33695330011,2104,33688000000,world,10.8997466439,-6.65061123066,4.90057660963,0.252359974219,0.310120968975,-0.28105733485,0.872436933274
33736221385,2105,33704000000,world,10.8997470438,-6.65061186467,4.90057671262,0.252925597974,0.310930208603,-0.27961850593,0.872447441631
33736221385,2106,33720000000,world,10.8997469989,-6.65061179173,4.90057670125,0.253038599692,0.311091985381,-0.279330626986,0.872449221746
33736221385,2107,33736000000,world,10.8997472593,-6.65061221006,4.90057677788,0.253151560907,0.311253720281,-0.279042731068,0.872450894354
33746290092,2108,33752000000,world,10.8997474644,-6.65061253052,4.90057685271,0.253377347074,0.311577123077,-0.278466823527,0.872453921167
33766581017,2109,33768000000,world,10.8997476509,-6.65061281671,4.90057693341,0.253602948289,0.311900381927,-0.277890786167,0.872456536073
33776652344,2110,33784000000,world,10.899747814,-6.6506130699,4.90057700006,0.253828386582,0.312223547277,-0.277314594542,0.87245872243
33796829666,2111,33800000000,world,10.8997477318,-6.65061293973,4.90057697173,0.253941046183,0.312385103634,-0.277026432105,0.872459654085
33806886973,2112,33816000000,world,10.8997480633,-6.65061346057,4.90057709762,0.25416624804,0.312708089564,-0.276450019361,0.872461205942
33826996911,2113,33832000000,world,10.8997481498,-6.65061359609,4.90057713067,0.254503735116,0.313192281794,-0.275585115773,0.872462771356
33847352465,2114,33848000000,world,10.8997484318,-6.65061404734,4.90057726332,0.254616150237,0.313353588502,-0.275296752583,0.872463089551
33857408505,2115,33864000000,world,10.8997486319,-6.65061436325,4.90057734439,0.254953160268,0.313837409527,-0.274431380615,0.872463399682
33877561178,2116,33880000000,world,10.8997488968,-6.65061476888,4.90057742038,0.255065409105,0.313998620763,-0.274142849829,0.872463295001
33897676372,2117,33904000000,world,10.8997492399,-6.65061530136,4.90057754083,0.255513880715,0.314643157104,-0.272988300177,0.872461877916
33907734304,2118,33912000000,world,10.8997493589,-6.65061548471,4.90057758055,0.255625870062,0.314804215382,-0.272699562307,0.872461270917
33928051797,2119,33928000000,world,10.8997492448,-6.6506153285,4.90057761117,0.255849694838,0.315126270475,-0.272121946271,0.872459749023
33938106729,2120,33944000000,world,10.899749527,-6.65061574688,4.90057764405,0.256073329463,0.315448206529,-0.271544183688,0.872457812871
33958399531,2121,33960000000,world,10.8997494939,-6.65061569476,4.90057762562,0.256185064306,0.315609113662,-0.271255242053,0.872456700277
33968494309,2122,33976000000,world,10.8997499568,-6.65061641481,4.9005778162,0.256519979148,0.316091604711,-0.270388212099,0.872452756593
33988685497,2123,33992000000,world,10.899750123,-6.65061666592,4.90057785463,0.256743021023,0.316413132624,-0.269809988126,0.872449609414
33998743205,2124,34008000000,world,10.8997502507,-6.65061686012,4.90057789234,0.256965873748,0.316734539728,-0.26923160746,0.872446051408
34018931773,2125,34024000000,world,10.8997501542,-6.65061670645,4.90057780446,0.257077220221,0.316895175572,-0.268942362288,0.872444127902
34039206413,2126,34040000000,world,10.8997504013,-6.6506170956,4.90057793976,0.257410969182,0.317376824015,-0.268074435079,0.872437758112
34049262364,2127,34056000000,world,10.8997508533,-6.65061781313,4.90057804322,0.257633245849,0.317697763672,-0.267495643048,0.872432990287
34069376167,2128,34072000000,world,10.8997509157,-6.65061791386,4.90057806689,0.257744312803,0.317858199017,-0.267206180342,0.872430450937
34079510860,2129,34088000000,world,10.8997512808,-6.65061850109,4.90057821238,0.258077229931,0.31833931065,-0.266337563686,0.872422219373
34099661498,2130,34104000000,world,10.8997512667,-6.65061848338,4.90057821052,0.258298939803,0.318659928897,-0.265758259801,0.87241621647
34119820616,2131,34120000000,world,10.8997515215,-6.65061886857,4.90057829077,0.258409720498,0.318820155139,-0.265468562902,0.872413071394
34140121924,2132,34136000000,world,10.8997516269,-6.65061903096,4.90057832293,0.258741773891,0.319300641187,-0.264599193643,0.872403038569
34150218868,2133,34152000000,world,10.8997519945,-6.65061959427,4.90057846226,0.258962916096,0.319620774361,-0.264019420803,0.872395847149
34170337105,2134,34168000000,world,10.8997519173,-6.65061949365,4.9005784483,0.259183894419,0.319940827289,-0.263439461907,0.872388231132
34180393863,2135,34184000000,world,10.899752267,-6.65061999307,4.90057854635,0.259404718706,0.320260721194,-0.262859374892,0.872380198884
34190473671,2136,34200000000,world,10.8997522665,-6.65061999273,4.90057854614,0.259515076069,0.320420627344,-0.262569271429,0.872376022462
34220730407,2137,34224000000,world,10.8997528409,-6.65062086043,4.90057876262,0.259956119512,0.321059715659,-0.261408597072,0.872358309576
34230787990,2138,34232000000,world,10.8997529182,-6.65062097366,4.90057878539,0.260066294773,0.321219397785,-0.261118345077,0.872353615614
34240844981,2139,34248000000,world,10.8997531639,-6.65062133148,4.90057885415,0.260286542708,0.321538643096,-0.260537753666,0.872343909015
34260956535,2140,34264000000,world,10.8997533843,-6.65062165341,4.90057891835,0.260506652398,0.321857744573,-0.25995704348,0.872333773197
34271048771,2141,34280000000,world,10.8997535795,-6.65062194035,4.90057897921,0.260726617966,0.322176688745,-0.259376218687,0.872323213662
34291161112,2142,34296000000,world,10.8997537521,-6.65062219321,4.90057903119,0.260946428347,0.322495441429,-0.258795285748,0.872312244477
34311277893,2143,34312000000,world,10.8997539013,-6.65062241193,4.90057907572,0.261166086141,0.322814014323,-0.258214237292,0.872300862814
34321334437,2144,34328000000,world,10.8997540265,-6.65062259527,4.90057911316,0.261385603276,0.323132443793,-0.257633057172,0.87228905646
34341446312,2145,34344000000,world,10.8997539153,-6.65062243512,4.90057907701,0.261495307482,0.323291619297,-0.257342407822,0.872282992035
34351544309,2146,34360000000,world,10.8997541998,-6.65062285395,4.90057916549,0.261824193542,0.323768895568,-0.256470284572,0.872264172754
34371702908,2147,34376000000,world,10.8997546678,-6.65062359056,4.90057930441,0.262043244615,0.324086891316,-0.25588871467,0.872251105206
34391819280,2148,34392000000,world,10.8997547359,-6.65062370742,4.90057932521,0.262152694834,0.324245840612,-0.255597875214,0.872244418511
34401875881,2149,34408000000,world,10.8997551087,-6.65062436491,4.90057943644,0.26248073762,0.324722474168,-0.25472518838,0.872223741682
34421987257,2150,34424000000,world,10.8997551215,-6.65062438888,4.90057944134,0.262699168593,0.325040130326,-0.254143222691,0.872209426032
34432084770,2151,34440000000,world,10.8997555263,-6.65062506727,4.90057953242,0.26291739172,0.325357663316,-0.253561158608,0.872194688644
34452197766,2152,34456000000,world,10.8997555263,-6.65062506788,4.90057953099,0.26313537994,0.325675071177,-0.252978958558,0.872179549384
34462587042,2153,34472000000,world,10.8997557722,-6.65062548072,4.90057959595,0.263244295585,0.325833713831,-0.252687829643,0.872171825114
34502822474,2154,34488000000,world,10.899755963,-6.65062579677,4.90057964042,0.263461967926,0.32615095801,-0.252105453215,0.872156055133
34512917992,2155,34504000000,world,10.8997562899,-6.6506263271,4.90057971137,0.263788085947,0.326626646968,-0.251231654044,0.872131604295
