%time,field.header.seq,field.header.stamp,field.header.frame_id,field.twist.twist.linear.x,field.twist.twist.linear.y,field.twist.twist.linear.z,field.twist.twist.angular.x,field.twist.twist.angular.y,field.twist.twist.angular.z,field.twist.covariance0,field.twist.covariance1,field.twist.covariance2,field.twist.covariance3,field.twist.covariance4,field.twist.covariance5,field.twist.covariance6,field.twist.covariance7,field.twist.covariance8,field.twist.covariance9,field.twist.covariance10,field.twist.covariance11,field.twist.covariance12,field.twist.covariance13,field.twist.covariance14,field.twist.covariance15,field.twist.covariance16,field.twist.covariance17,field.twist.covariance18,field.twist.covariance19,field.twist.covariance20,field.twist.covariance21,field.twist.covariance22,field.twist.covariance23,field.twist.covariance24,field.twist.covariance25,field.twist.covariance26,field.twist.covariance27,field.twist.covariance28,field.twist.covariance29,field.twist.covariance30,field.twist.covariance31,field.twist.covariance32,field.twist.covariance33,field.twist.covariance34,field.twist.covariance35
29330689418,0,0,honey/haz_cam,0.0,0.0,0.0,0.000164296012372,0.0757051408291,-0.0793112441897,0.0,0.0,0.0,0.0,0.0,0.0,0.0,0.0,0.0,0.0,0.0,0.0,0.0,0.0,0.0,0.0,0.0,0.0,0.0,0.0,0.0,3.41581483099e-08,-1.64221955856e-06,0.000400060031097,0.0,0.0,0.0,0.0,0.0,0.0,0.0,0.0,0.0,0.0,0.0,0.0
30302252283,1,0,honey/haz_cam,0.0,0.0,0.0,-0.0059905690141,0.0549901761115,-0.0697482973337,0.0,0.0,0.0,0.0,0.0,0.0,0.0,0.0,0.0,0.0,0.0,0.0,0.0,0.0,0.0,0.0,0.0,0.0,0.0,0.0,0.0,-2.41855195782e-06,-6.1313066908e-06,0.00119754706975,0.0,0.0,0.0,0.0,0.0,0.0,0.0,0.0,0.0,0.0,0.0,0.0
31342299325,2,0,honey/haz_cam,0.0,0.0,0.0,-0.00340492161922,0.0666035711765,-0.0761201903224,0.0,0.0,0.0,0.0,0.0,0.0,0.0,0.0,0.0,0.0,0.0,0.0,0.0,0.0,0.0,0.0,0.0,0.0,0.0,0.0,0.0,-5.85018278798e-06,-1.30850203277e-05,0.00199706992134,0.0,0.0,0.0,0.0,0.0,0.0,0.0,0.0,0.0,0.0,0.0,0.0
32311995146,3,0,honey/haz_cam,0.0,0.0,0.0,-0.00773877091706,0.0458340384066,-0.0713473781943,0.0,0.0,0.0,0.0,0.0,0.0,0.0,0.0,0.0,0.0,0.0,0.0,0.0,0.0,0.0,0.0,0.0,0.0,0.0,0.0,0.0,-1.19863107102e-05,-2.05957767321e-05,0.00279936427251,0.0,0.0,0.0,0.0,0.0,0.0,0.0,0.0,0.0,0.0,0.0,0.0
33311807340,4,0,honey/haz_cam,0.0,0.0,0.0,-0.0123163871467,0.0615690276027,-0.0566837601364,0.0,0.0,0.0,0.0,0.0,0.0,0.0,0.0,0.0,0.0,0.0,0.0,0.0,0.0,0.0,0.0,0.0,0.0,0.0,0.0,0.0,-1.81444920599e-05,-2.7988513466e-05,0.00360080925748,0.0,0.0,0.0,0.0,0.0,0.0,0.0,0.0,0.0,0.0,0.0,0.0
34472644105,5,0,honey/haz_cam,0.0,0.0,0.0,-0.00173539214302,0.0635911077261,-0.0689263120294,0.0,0.0,0.0,0.0,0.0,0.0,0.0,0.0,0.0,0.0,0.0,0.0,0.0,0.0,0.0,0.0,0.0,0.0,0.0,0.0,0.0,-2.58590443991e-05,-3.576677409e-05,0.00440818537027,0.0,0.0,0.0,0.0,0.0,0.0,0.0,0.0,0.0,0.0,0.0,0.0
35429727049,6,0,honey/haz_cam,0.0,0.0,0.0,0.0042566168122,0.0568352304399,-0.0751659721136,0.0,0.0,0.0,0.0,0.0,0.0,0.0,0.0,0.0,0.0,0.0,0.0,0.0,0.0,0.0,0.0,0.0,0.0,0.0,0.0,0.0,-3.52181377821e-05,-4.32809756603e-05,0.00521602993831,0.0,0.0,0.0,0.0,0.0,0.0,0.0,0.0,0.0,0.0,0.0,0.0
36390874720,7,0,honey/haz_cam,0.0,0.0,0.0,-0.0146662350744,0.0553208366036,-0.050234567374,0.0,0.0,0.0,0.0,0.0,0.0,0.0,0.0,0.0,0.0,0.0,0.0,0.0,0.0,0.0,0.0,0.0,0.0,0.0,0.0,0.0,-4.61385934614e-05,-4.92265098728e-05,0.00602050963789,0.0,0.0,0.0,0.0,0.0,0.0,0.0,0.0,0.0,0.0,0.0,0.0
37493729104,8,0,honey/haz_cam,0.0,0.0,0.0,-0.00133971322794,0.0665322616696,-0.0743593946099,0.0,0.0,0.0,0.0,0.0,0.0,0.0,0.0,0.0,0.0,0.0,0.0,0.0,0.0,0.0,0.0,0.0,0.0,0.0,0.0,0.0,-5.44494250789e-05,-5.56260347366e-05,0.00682980380952,0.0,0.0,0.0,0.0,0.0,0.0,0.0,0.0,0.0,0.0,0.0,0.0
38478912710,9,0,honey/haz_cam,0.0,0.0,0.0,-0.014531519264,0.0610211640596,-0.0551877841353,0.0,0.0,0.0,0.0,0.0,0.0,0.0,0.0,0.0,0.0,0.0,0.0,0.0,0.0,0.0,0.0,0.0,0.0,0.0,0.0,0.0,-6.59313518554e-05,-5.99354389124e-05,0.00764253130183,0.0,0.0,0.0,0.0,0.0,0.0,0.0,0.0,0.0,0.0,0.0,0.0
39376975158,10,0,honey/haz_cam,0.0,0.0,0.0,-0.00104654149618,0.0651184692979,-0.0603197924793,0.0,0.0,0.0,0.0,0.0,0.0,0.0,0.0,0.0,0.0,0.0,0.0,0.0,0.0,0.0,0.0,0.0,0.0,0.0,0.0,0.0,-7.50481849536e-05,-6.3867890276e-05,0.00846017897129,0.0,0.0,0.0,0.0,0.0,0.0,0.0,0.0,0.0,0.0,0.0,0.0
40456900413,11,0,honey/haz_cam,0.0,0.0,0.0,-0.00881717633456,0.061989504844,-0.0697932913899,0.0,0.0,0.0,0.0,0.0,0.0,0.0,0.0,0.0,0.0,0.0,0.0,0.0,0.0,0.0,0.0,0.0,0.0,0.0,0.0,0.0,-8.48000636324e-05,-6.69775763527e-05,0.00928363390267,0.0,0.0,0.0,0.0,0.0,0.0,0.0,0.0,0.0,0.0,0.0,0.0
41386799696,12,0,honey/haz_cam,0.0,0.0,0.0,0.00695356819779,0.0501772798598,-0.0713685303926,0.0,0.0,0.0,0.0,0.0,0.0,0.0,0.0,0.0,0.0,0.0,0.0,0.0,0.0,0.0,0.0,0.0,0.0,0.0,0.0,0.0,-9.34135168791e-05,-6.79709482938e-05,0.0101088639349,0.0,0.0,0.0,0.0,0.0,0.0,0.0,0.0,0.0,0.0,0.0,0.0
42377995713,13,0,honey/haz_cam,0.0,0.0,0.0,-0.00500974990427,0.0560409016907,-0.0559305846691,0.0,0.0,0.0,0.0,0.0,0.0,0.0,0.0,0.0,0.0,0.0,0.0,0.0,0.0,0.0,0.0,0.0,0.0,0.0,0.0,0.0,-0.000103087280877,-6.84249680489e-05,0.0109286447987,0.0,0.0,0.0,0.0,0.0,0.0,0.0,0.0,0.0,0.0,0.0,0.0
43466438984,14,0,honey/haz_cam,0.0,0.0,0.0,-0.0133244963363,0.0538088195026,-0.0665241256356,0.0,0.0,0.0,0.0,0.0,0.0,0.0,0.0,0.0,0.0,0.0,0.0,0.0,0.0,0.0,0.0,0.0,0.0,0.0,0.0,0.0,-0.000108770793304,-6.85963314027e-05,0.0117553640157,0.0,0.0,0.0,0.0,0.0,0.0,0.0,0.0,0.0,0.0,0.0,0.0
44385150728,15,0,honey/haz_cam,0.0,0.0,0.0,0.000320162798744,0.0370934233069,-0.0632658302784,0.0,0.0,0.0,0.0,0.0,0.0,0.0,0.0,0.0,0.0,0.0,0.0,0.0,0.0,0.0,0.0,0.0,0.0,0.0,0.0,0.0,-0.000112356268801,-6.5942062065e-05,0.0125853940845,0.0,0.0,0.0,0.0,0.0,0.0,0.0,0.0,0.0,0.0,0.0,0.0
45494620308,16,0,honey/haz_cam,0.0,0.0,0.0,-0.00645929016173,0.0376903302968,-0.0635202080011,0.0,0.0,0.0,0.0,0.0,0.0,0.0,0.0,0.0,0.0,0.0,0.0,0.0,0.0,0.0,0.0,0.0,0.0,0.0,0.0,0.0,-0.00011651503155,-6.43993262202e-05,0.0134154772386,0.0,0.0,0.0,0.0,0.0,0.0,0.0,0.0,0.0,0.0,0.0,0.0
46343027211,17,0,honey/haz_cam,0.0,0.0,0.0,-0.0152952643111,0.0608765259385,-0.0736053735018,0.0,0.0,0.0,0.0,0.0,0.0,0.0,0.0,0.0,0.0,0.0,0.0,0.0,0.0,0.0,0.0,0.0,0.0,0.0,0.0,0.0,-0.000118090276374,-6.48794230074e-05,0.0142424851656,0.0,0.0,0.0,0.0,0.0,0.0,0.0,0.0,0.0,0.0,0.0,0.0
47394195238,18,0,honey/haz_cam,0.0,0.0,0.0,-0.00274170911871,0.0813600942492,-0.0731238275766,0.0,0.0,0.0,0.0,0.0,0.0,0.0,0.0,0.0,0.0,0.0,0.0,0.0,0.0,0.0,0.0,0.0,0.0,0.0,0.0,0.0,-0.000116004433949,-6.35904725641e-05,0.0150746498257,0.0,0.0,0.0,0.0,0.0,0.0,0.0,0.0,0.0,0.0,0.0,0.0
48353086964,19,0,honey/haz_cam,0.0,0.0,0.0,0.00390412262641,0.0593090318143,-0.0581301040947,0.0,0.0,0.0,0.0,0.0,0.0,0.0,0.0,0.0,0.0,0.0,0.0,0.0,0.0,0.0,0.0,0.0,0.0,0.0,0.0,0.0,-0.000112419016659,-5.8364123106e-05,0.0159215535969,0.0,0.0,0.0,0.0,0.0,0.0,0.0,0.0,0.0,0.0,0.0,0.0
49372881903,20,0,honey/haz_cam,0.0,0.0,0.0,-0.00219192868099,0.049867618829,-0.0650699362159,0.0,0.0,0.0,0.0,0.0,0.0,0.0,0.0,0.0,0.0,0.0,0.0,0.0,0.0,0.0,0.0,0.0,0.0,0.0,0.0,0.0,-0.000108898966573,-5.66970556974e-05,0.016768893227,0.0,0.0,0.0,0.0,0.0,0.0,0.0,0.0,0.0,0.0,0.0,0.0
50341851581,21,0,honey/haz_cam,0.0,0.0,0.0,0.000403906044085,0.0506347417831,-0.0691497325897,0.0,0.0,0.0,0.0,0.0,0.0,0.0,0.0,0.0,0.0,0.0,0.0,0.0,0.0,0.0,0.0,0.0,0.0,0.0,0.0,0.0,-0.000104245496914,-5.60444314033e-05,0.0176178477705,0.0,0.0,0.0,0.0,0.0,0.0,0.0,0.0,0.0,0.0,0.0,0.0
51342023593,22,0,honey/haz_cam,0.0,0.0,0.0,0.00123926228844,0.0549205243587,-0.059260264039,0.0,0.0,0.0,0.0,0.0,0.0,0.0,0.0,0.0,0.0,0.0,0.0,0.0,0.0,0.0,0.0,0.0,0.0,0.0,0.0,0.0,-9.90628032014e-05,-5.57329040021e-05,0.0184629485011,0.0,0.0,0.0,0.0,0.0,0.0,0.0,0.0,0.0,0.0,0.0,0.0
52363351778,23,0,honey/haz_cam,0.0,0.0,0.0,-0.012857564725,0.0469816103578,-0.0695817470551,0.0,0.0,0.0,0.0,0.0,0.0,0.0,0.0,0.0,0.0,0.0,0.0,0.0,0.0,0.0,0.0,0.0,0.0,0.0,0.0,0.0,-9.11820679903e-05,-5.69284893572e-05,0.0193102769554,0.0,0.0,0.0,0.0,0.0,0.0,0.0,0.0,0.0,0.0,0.0,0.0
53371473925,24,0,honey/haz_cam,0.0,0.0,0.0,-0.00288889813237,0.0681940466166,-0.0673294961452,0.0,0.0,0.0,0.0,0.0,0.0,0.0,0.0,0.0,0.0,0.0,0.0,0.0,0.0,0.0,0.0,0.0,0.0,0.0,0.0,0.0,-8.37321858853e-05,-6.00914936513e-05,0.0201556570828,0.0,0.0,0.0,0.0,0.0,0.0,0.0,0.0,0.0,0.0,0.0,0.0
54353706545,25,0,honey/haz_cam,0.0,0.0,0.0,0.0165919344872,0.0619088038802,-0.0696766227484,0.0,0.0,0.0,0.0,0.0,0.0,0.0,0.0,0.0,0.0,0.0,0.0,0.0,0.0,0.0,0.0,0.0,0.0,0.0,0.0,0.0,-7.20373354852e-05,-6.16873148829e-05,0.0210031345487,0.0,0.0,0.0,0.0,0.0,0.0,0.0,0.0,0.0,0.0,0.0,0.0
55378871410,26,0,honey/haz_cam,0.0,0.0,0.0,-0.000856370781548,0.0565775856376,-0.0653559193015,0.0,0.0,0.0,0.0,0.0,0.0,0.0,0.0,0.0,0.0,0.0,0.0,0.0,0.0,0.0,0.0,0.0,0.0,0.0,0.0,0.0,-6.28437846899e-05,-6.50626607239e-05,0.0218547321856,0.0,0.0,0.0,0.0,0.0,0.0,0.0,0.0,0.0,0.0,0.0,0.0
56350704699,27,0,honey/haz_cam,0.0,0.0,0.0,0.0174161940813,0.0616957582533,-0.0519548282027,0.0,0.0,0.0,0.0,0.0,0.0,0.0,0.0,0.0,0.0,0.0,0.0,0.0,0.0,0.0,0.0,0.0,0.0,0.0,0.0,0.0,-5.346769467e-05,-7.05635175109e-05,0.0227086562663,0.0,0.0,0.0,0.0,0.0,0.0,0.0,0.0,0.0,0.0,0.0,0.0
57312783608,28,0,honey/haz_cam,0.0,0.0,0.0,-0.0184661783278,0.0773164853454,-0.0597710348666,0.0,0.0,0.0,0.0,0.0,0.0,0.0,0.0,0.0,0.0,0.0,0.0,0.0,0.0,0.0,0.0,0.0,0.0,0.0,0.0,0.0,-4.6661356464e-05,-7.87668395787e-05,0.0235534310341,0.0,0.0,0.0,0.0,0.0,0.0,0.0,0.0,0.0,0.0,0.0,0.0
58363468322,29,0,honey/haz_cam,0.0,0.0,0.0,-0.0352192595601,0.0867675542831,-0.0458253212273,0.0,0.0,0.0,0.0,0.0,0.0,0.0,0.0,0.0,0.0,0.0,0.0,0.0,0.0,0.0,0.0,0.0,0.0,0.0,0.0,0.0,-4.04259189963e-05,-8.59987922013e-05,0.0243914946914,0.0,0.0,0.0,0.0,0.0,0.0,0.0,0.0,0.0,0.0,0.0,0.0
59366611874,30,0,honey/haz_cam,0.0,0.0,0.0,-0.0301355980337,0.0764120444655,-0.0568969883025,0.0,0.0,0.0,0.0,0.0,0.0,0.0,0.0,0.0,0.0,0.0,0.0,0.0,0.0,0.0,0.0,0.0,0.0,0.0,0.0,0.0,-3.09743918478e-05,-9.46940854192e-05,0.0252285264432,0.0,0.0,0.0,0.0,0.0,0.0,0.0,0.0,0.0,0.0,0.0,0.0
60377170805,31,0,honey/haz_cam,0.0,0.0,0.0,-0.0052418098785,0.0740765929222,-0.07203900069,0.0,0.0,0.0,0.0,0.0,0.0,0.0,0.0,0.0,0.0,0.0,0.0,0.0,0.0,0.0,0.0,0.0,0.0,0.0,0.0,0.0,-2.14501051232e-05,-0.000105652143247,0.0260787978768,0.0,0.0,0.0,0.0,0.0,0.0,0.0,0.0,0.0,0.0,0.0,0.0
61385547750,32,0,honey/haz_cam,0.0,0.0,0.0,0.00820771791041,0.0656819567084,-0.0555443875492,0.0,0.0,0.0,0.0,0.0,0.0,0.0,0.0,0.0,0.0,0.0,0.0,0.0,0.0,0.0,0.0,0.0,0.0,0.0,0.0,0.0,-1.36942253448e-05,-0.000116597802844,0.0269314832985,0.0,0.0,0.0,0.0,0.0,0.0,0.0,0.0,0.0,0.0,0.0,0.0
62353680842,33,0,honey/haz_cam,0.0,0.0,0.0,-0.0471205785871,0.0494013726711,-0.0841863155365,0.0,0.0,0.0,0.0,0.0,0.0,0.0,0.0,0.0,0.0,0.0,0.0,0.0,0.0,0.0,0.0,0.0,0.0,0.0,0.0,0.0,-1.06735024019e-05,-0.000126908678794,0.0277688987553,0.0,0.0,0.0,0.0,0.0,0.0,0.0,0.0,0.0,0.0,0.0,0.0
63362966767,34,0,honey/haz_cam,0.0,0.0,0.0,-0.0134196989238,0.05995477736,-0.0488825589418,0.0,0.0,0.0,0.0,0.0,0.0,0.0,0.0,0.0,0.0,0.0,0.0,0.0,0.0,0.0,0.0,0.0,0.0,0.0,0.0,0.0,-1.46506936289e-05,-0.000141226293636,0.0286265090108,0.0,0.0,0.0,0.0,0.0,0.0,0.0,0.0,0.0,0.0,0.0,0.0
64371894920,35,0,honey/haz_cam,0.0,0.0,0.0,-0.00988712068647,0.0647380426526,-0.0485961548984,0.0,0.0,0.0,0.0,0.0,0.0,0.0,0.0,0.0,0.0,0.0,0.0,0.0,0.0,0.0,0.0,0.0,0.0,0.0,0.0,0.0,-1.47840473801e-05,-0.000155543209985,0.0294869355857,0.0,0.0,0.0,0.0,0.0,0.0,0.0,0.0,0.0,0.0,0.0,0.0
65430871515,36,0,honey/haz_cam,0.0,0.0,0.0,-0.00809596385807,0.056067943573,-0.0663667395711,0.0,0.0,0.0,0.0,0.0,0.0,0.0,0.0,0.0,0.0,0.0,0.0,0.0,0.0,0.0,0.0,0.0,0.0,0.0,0.0,0.0,-1.31668057293e-05,-0.000168751197634,0.0303491763771,0.0,0.0,0.0,0.0,0.0,0.0,0.0,0.0,0.0,0.0,0.0,0.0
66391047396,37,0,honey/haz_cam,0.0,0.0,0.0,-0.0239554904401,0.0577341392636,-0.0625013709068,0.0,0.0,0.0,0.0,0.0,0.0,0.0,0.0,0.0,0.0,0.0,0.0,0.0,0.0,0.0,0.0,0.0,0.0,0.0,0.0,0.0,-1.71852298081e-05,-0.000180892238859,0.0312013160437,0.0,0.0,0.0,0.0,0.0,0.0,0.0,0.0,0.0,0.0,0.0,0.0
67348468571,38,0,honey/haz_cam,0.0,0.0,0.0,-0.0272773075849,0.0574930049479,-0.0659177303314,0.0,0.0,0.0,0.0,0.0,0.0,0.0,0.0,0.0,0.0,0.0,0.0,0.0,0.0,0.0,0.0,0.0,0.0,0.0,0.0,0.0,-2.24341638386e-05,-0.000193061408936,0.0320555642247,0.0,0.0,0.0,0.0,0.0,0.0,0.0,0.0,0.0,0.0,0.0,0.0
68337376948,39,0,honey/haz_cam,0.0,0.0,0.0,-0.005057268776,0.0495459027588,-0.0565097369254,0.0,0.0,0.0,0.0,0.0,0.0,0.0,0.0,0.0,0.0,0.0,0.0,0.0,0.0,0.0,0.0,0.0,0.0,0.0,0.0,0.0,-2.76300124824e-05,-0.000204811338335,0.032923784107,0.0,0.0,0.0,0.0,0.0,0.0,0.0,0.0,0.0,0.0,0.0,0.0
69407960824,40,0,honey/haz_cam,0.0,0.0,0.0,-0.0211190767586,0.0643828883767,-0.0702720433474,0.0,0.0,0.0,0.0,0.0,0.0,0.0,0.0,0.0,0.0,0.0,0.0,0.0,0.0,0.0,0.0,0.0,0.0,0.0,0.0,0.0,-3.5347416997e-05,-0.000215245177969,0.0337947830558,0.0,0.0,0.0,0.0,0.0,0.0,0.0,0.0,0.0,0.0,0.0,0.0
70355969719,41,0,honey/haz_cam,0.0,0.0,0.0,-0.0183682218194,0.0613189898431,-0.0685168206692,0.0,0.0,0.0,0.0,0.0,0.0,0.0,0.0,0.0,0.0,0.0,0.0,0.0,0.0,0.0,0.0,0.0,0.0,0.0,0.0,0.0,-4.37586568296e-05,-0.000223358278163,0.0346671193838,0.0,0.0,0.0,0.0,0.0,0.0,0.0,0.0,0.0,0.0,0.0,0.0
71345319141,42,0,honey/haz_cam,0.0,0.0,0.0,-0.0189555045217,0.0645723715425,-0.0631009712815,0.0,0.0,0.0,0.0,0.0,0.0,0.0,0.0,0.0,0.0,0.0,0.0,0.0,0.0,0.0,0.0,0.0,0.0,0.0,0.0,0.0,-5.36921434104e-05,-0.000230654841289,0.0355332270265,0.0,0.0,0.0,0.0,0.0,0.0,0.0,0.0,0.0,0.0,0.0,0.0
72344338441,43,0,honey/haz_cam,0.0,0.0,0.0,-0.0187157280743,0.0591438189149,-0.0682166516781,0.0,0.0,0.0,0.0,0.0,0.0,0.0,0.0,0.0,0.0,0.0,0.0,0.0,0.0,0.0,0.0,0.0,0.0,0.0,0.0,0.0,-6.1362516135e-05,-0.000236252322793,0.0364169105887,0.0,0.0,0.0,0.0,0.0,0.0,0.0,0.0,0.0,0.0,0.0,0.0
73357024553,44,0,honey/haz_cam,0.0,0.0,0.0,-0.0177467335016,0.0484537966549,-0.0585019737482,0.0,0.0,0.0,0.0,0.0,0.0,0.0,0.0,0.0,0.0,0.0,0.0,0.0,0.0,0.0,0.0,0.0,0.0,0.0,0.0,0.0,-6.87618739903e-05,-0.000239654444158,0.0372980833054,0.0,0.0,0.0,0.0,0.0,0.0,0.0,0.0,0.0,0.0,0.0,0.0
74365941347,45,0,honey/haz_cam,0.0,0.0,0.0,-0.015167449601,0.0581253804266,-0.0621000528336,0.0,0.0,0.0,0.0,0.0,0.0,0.0,0.0,0.0,0.0,0.0,0.0,0.0,0.0,0.0,0.0,0.0,0.0,0.0,0.0,0.0,-7.60601833463e-05,-0.00024403212592,0.038167566061,0.0,0.0,0.0,0.0,0.0,0.0,0.0,0.0,0.0,0.0,0.0,0.0
75374158278,46,0,honey/haz_cam,0.0,0.0,0.0,-0.0251951478422,0.0640089958906,-0.070473946631,0.0,0.0,0.0,0.0,0.0,0.0,0.0,0.0,0.0,0.0,0.0,0.0,0.0,0.0,0.0,0.0,0.0,0.0,0.0,0.0,0.0,-8.29361379147e-05,-0.000246047973633,0.0390492491424,0.0,0.0,0.0,0.0,0.0,0.0,0.0,0.0,0.0,0.0,0.0,0.0
76351970427,47,0,honey/haz_cam,0.0,0.0,0.0,-0.0239048097283,0.0491992868483,-0.0520378276706,0.0,0.0,0.0,0.0,0.0,0.0,0.0,0.0,0.0,0.0,0.0,0.0,0.0,0.0,0.0,0.0,0.0,0.0,0.0,0.0,0.0,-8.78367573023e-05,-0.000244169030339,0.0399508439004,0.0,0.0,0.0,0.0,0.0,0.0,0.0,0.0,0.0,0.0,0.0,0.0
77431629231,48,0,honey/haz_cam,0.0,0.0,0.0,-0.0209996309131,0.0410246104002,-0.0559611730278,0.0,0.0,0.0,0.0,0.0,0.0,0.0,0.0,0.0,0.0,0.0,0.0,0.0,0.0,0.0,0.0,0.0,0.0,0.0,0.0,0.0,-8.81212763488e-05,-0.000243356451392,0.0408437363803,0.0,0.0,0.0,0.0,0.0,0.0,0.0,0.0,0.0,0.0,0.0,0.0
78369554024,49,0,honey/haz_cam,0.0,0.0,0.0,-0.0239933989942,0.0561091117561,-0.0691156983376,0.0,0.0,0.0,0.0,0.0,0.0,0.0,0.0,0.0,0.0,0.0,0.0,0.0,0.0,0.0,0.0,0.0,0.0,0.0,0.0,0.0,-8.97292047739e-05,-0.000243578106165,0.041731365025,0.0,0.0,0.0,0.0,0.0,0.0,0.0,0.0,0.0,0.0,0.0,0.0
79347962329,50,0,honey/haz_cam,0.0,0.0,0.0,-0.0294964481145,0.0588742941618,-0.0619838498533,0.0,0.0,0.0,0.0,0.0,0.0,0.0,0.0,0.0,0.0,0.0,0.0,0.0,0.0,0.0,0.0,0.0,0.0,0.0,0.0,0.0,-9.05846245587e-05,-0.000241019763052,0.0426172539592,0.0,0.0,0.0,0.0,0.0,0.0,0.0,0.0,0.0,0.0,0.0,0.0
80381789535,51,0,honey/haz_cam,0.0,0.0,0.0,-0.031840711832,0.0629397779703,-0.0737732127309,0.0,0.0,0.0,0.0,0.0,0.0,0.0,0.0,0.0,0.0,0.0,0.0,0.0,0.0,0.0,0.0,0.0,0.0,0.0,0.0,0.0,-8.67904163897e-05,-0.000238762237132,0.0434988923371,0.0,0.0,0.0,0.0,0.0,0.0,0.0,0.0,0.0,0.0,0.0,0.0
81352676524,52,0,honey/haz_cam,0.0,0.0,0.0,-0.0531670041382,0.0362281650305,-0.0604444853961,0.0,0.0,0.0,0.0,0.0,0.0,0.0,0.0,0.0,0.0,0.0,0.0,0.0,0.0,0.0,0.0,0.0,0.0,0.0,0.0,0.0,-7.65146687627e-05,-0.000230836682022,0.0443888492882,0.0,0.0,0.0,0.0,0.0,0.0,0.0,0.0,0.0,0.0,0.0,0.0
82340797339,53,0,honey/haz_cam,0.0,0.0,0.0,-0.0203330479562,0.0523343011737,-0.0704419314861,0.0,0.0,0.0,0.0,0.0,0.0,0.0,0.0,0.0,0.0,0.0,0.0,0.0,0.0,0.0,0.0,0.0,0.0,0.0,0.0,0.0,-6.57603959553e-05,-0.000229628756642,0.0453008785844,0.0,0.0,0.0,0.0,0.0,0.0,0.0,0.0,0.0,0.0,0.0,0.0
83402800795,54,0,honey/haz_cam,0.0,0.0,0.0,-0.0134304724634,0.03394504264,-0.0558035336435,0.0,0.0,0.0,0.0,0.0,0.0,0.0,0.0,0.0,0.0,0.0,0.0,0.0,0.0,0.0,0.0,0.0,0.0,0.0,0.0,0.0,-5.65754016861e-05,-0.00022510997951,0.046216212213,0.0,0.0,0.0,0.0,0.0,0.0,0.0,0.0,0.0,0.0,0.0,0.0
84423250974,55,0,honey/haz_cam,0.0,0.0,0.0,-0.0220379624516,0.044088806957,-0.0638169273734,0.0,0.0,0.0,0.0,0.0,0.0,0.0,0.0,0.0,0.0,0.0,0.0,0.0,0.0,0.0,0.0,0.0,0.0,0.0,0.0,0.0,-5.08790835738e-05,-0.000224492512643,0.0471222996712,0.0,0.0,0.0,0.0,0.0,0.0,0.0,0.0,0.0,0.0,0.0,0.0
85350828724,56,0,honey/haz_cam,0.0,0.0,0.0,-0.0195751469582,0.0587859787047,-0.058955155313,0.0,0.0,0.0,0.0,0.0,0.0,0.0,0.0,0.0,0.0,0.0,0.0,0.0,0.0,0.0,0.0,0.0,0.0,0.0,0.0,0.0,-4.50303778052e-05,-0.000225366093218,0.0480275452137,0.0,0.0,0.0,0.0,0.0,0.0,0.0,0.0,0.0,0.0,0.0,0.0
86330239048,57,0,honey/haz_cam,0.0,0.0,0.0,-0.00414911936969,0.06558457762,-0.0597776658833,0.0,0.0,0.0,0.0,0.0,0.0,0.0,0.0,0.0,0.0,0.0,0.0,0.0,0.0,0.0,0.0,0.0,0.0,0.0,0.0,0.0,-3.56328673661e-05,-0.000227514654398,0.0489401035011,0.0,0.0,0.0,0.0,0.0,0.0,0.0,0.0,0.0,0.0,0.0,0.0
87318601558,58,0,honey/haz_cam,0.0,0.0,0.0,-0.0284203328192,0.039408069104,-0.0759387463331,0.0,0.0,0.0,0.0,0.0,0.0,0.0,0.0,0.0,0.0,0.0,0.0,0.0,0.0,0.0,0.0,0.0,0.0,0.0,0.0,0.0,-1.82599760592e-05,-0.000227709300816,0.0498451553285,0.0,0.0,0.0,0.0,0.0,0.0,0.0,0.0,0.0,0.0,0.0,0.0
88379096684,59,0,honey/haz_cam,0.0,0.0,0.0,0.00883304327726,0.0624238848686,-0.0474316775799,0.0,0.0,0.0,0.0,0.0,0.0,0.0,0.0,0.0,0.0,0.0,0.0,0.0,0.0,0.0,0.0,0.0,0.0,0.0,0.0,0.0,-1.37658789754e-05,-0.000233247876167,0.0507726185024,0.0,0.0,0.0,0.0,0.0,0.0,0.0,0.0,0.0,0.0,0.0,0.0
89338191056,60,0,honey/haz_cam,0.0,0.0,0.0,-0.0250276364386,0.0478869229555,-0.0754739046097,0.0,0.0,0.0,0.0,0.0,0.0,0.0,0.0,0.0,0.0,0.0,0.0,0.0,0.0,0.0,0.0,0.0,0.0,0.0,0.0,0.0,2.26544216275e-06,-0.000237091444433,0.0516828522086,0.0,0.0,0.0,0.0,0.0,0.0,0.0,0.0,0.0,0.0,0.0,0.0
90337053185,61,0,honey/haz_cam,0.0,0.0,0.0,-0.0238373894244,0.0613761357963,-0.0605424679816,0.0,0.0,0.0,0.0,0.0,0.0,0.0,0.0,0.0,0.0,0.0,0.0,0.0,0.0,0.0,0.0,0.0,0.0,0.0,0.0,0.0,8.90763476491e-06,-0.000244678463787,0.0525856129825,0.0,0.0,0.0,0.0,0.0,0.0,0.0,0.0,0.0,0.0,0.0,0.0
91349388830,62,0,honey/haz_cam,0.0,0.0,0.0,-0.0127961272374,0.0686385408044,-0.0455414541066,0.0,0.0,0.0,0.0,0.0,0.0,0.0,0.0,0.0,0.0,0.0,0.0,0.0,0.0,0.0,0.0,0.0,0.0,0.0,0.0,0.0,1.71619467437e-05,-0.000253816600889,0.0534924268723,0.0,0.0,0.0,0.0,0.0,0.0,0.0,0.0,0.0,0.0,0.0,0.0
92339016127,63,0,honey/haz_cam,0.0,0.0,0.0,-0.0263016298413,0.0442849434912,-0.0606057010591,0.0,0.0,0.0,0.0,0.0,0.0,0.0,0.0,0.0,0.0,0.0,0.0,0.0,0.0,0.0,0.0,0.0,0.0,0.0,0.0,0.0,3.47127206624e-05,-0.000261352863163,0.054399844259,0.0,0.0,0.0,0.0,0.0,0.0,0.0,0.0,0.0,0.0,0.0,0.0
93297497017,64,0,honey/haz_cam,0.0,0.0,0.0,-0.0226625315845,0.0690690129995,0.0767745524645,0.0,0.0,0.0,0.0,0.0,0.0,0.0,0.0,0.0,0.0,0.0,0.0,0.0,0.0,0.0,0.0,0.0,0.0,0.0,0.0,0.0,2.33273021877e-05,-0.000282959081233,0.055291056633,0.0,0.0,0.0,0.0,0.0,0.0,0.0,0.0,0.0,0.0,0.0,0.0
94300566190,65,0,honey/haz_cam,0.0,0.0,0.0,-0.0294383578002,0.0574545115232,-0.0620125867426,0.0,0.0,0.0,0.0,0.0,0.0,0.0,0.0,0.0,0.0,0.0,0.0,0.0,0.0,0.0,0.0,0.0,0.0,0.0,0.0,0.0,5.91657590121e-05,-0.000300382263958,0.0561784654856,0.0,0.0,0.0,0.0,0.0,0.0,0.0,0.0,0.0,0.0,0.0,0.0
95309633024,66,0,honey/haz_cam,0.0,0.0,0.0,-0.0356242917478,0.0288814660162,-0.0764745101333,0.0,0.0,0.0,0.0,0.0,0.0,0.0,0.0,0.0,0.0,0.0,0.0,0.0,0.0,0.0,0.0,0.0,0.0,0.0,0.0,0.0,7.4865296483e-05,-0.000309656723402,0.0570871382952,0.0,0.0,0.0,0.0,0.0,0.0,0.0,0.0,0.0,0.0,0.0,0.0
96297939132,67,0,honey/haz_cam,0.0,0.0,0.0,-0.0587561316788,0.0673154294491,-0.0748273581266,0.0,0.0,0.0,0.0,0.0,0.0,0.0,0.0,0.0,0.0,0.0,0.0,0.0,0.0,0.0,0.0,0.0,0.0,0.0,0.0,0.0,7.14770285413e-05,-0.000323451124132,0.0579828321934,0.0,0.0,0.0,0.0,0.0,0.0,0.0,0.0,0.0,0.0,0.0,0.0
97297784219,68,0,honey/haz_cam,0.0,0.0,0.0,-0.0537310168147,0.0902887508273,-0.0262022837996,0.0,0.0,0.0,0.0,0.0,0.0,0.0,0.0,0.0,0.0,0.0,0.0,0.0,0.0,0.0,0.0,0.0,0.0,0.0,0.0,0.0,6.14604214206e-05,-0.000339082936989,0.0588821284473,0.0,0.0,0.0,0.0,0.0,0.0,0.0,0.0,0.0,0.0,0.0,0.0
98317072006,69,0,honey/haz_cam,0.0,0.0,0.0,-0.0536603368819,0.0322099849582,-0.0596314147115,0.0,0.0,0.0,0.0,0.0,0.0,0.0,0.0,0.0,0.0,0.0,0.0,0.0,0.0,0.0,0.0,0.0,0.0,0.0,0.0,0.0,7.66378361732e-05,-0.000348324654624,0.0597864314914,0.0,0.0,0.0,0.0,0.0,0.0,0.0,0.0,0.0,0.0,0.0,0.0
99338873309,70,0,honey/haz_cam,0.0,0.0,0.0,-0.0156362000853,0.0589985214174,-0.0662632212043,0.0,0.0,0.0,0.0,0.0,0.0,0.0,0.0,0.0,0.0,0.0,0.0,0.0,0.0,0.0,0.0,0.0,0.0,0.0,0.0,0.0,7.54608772695e-05,-0.000366736901924,0.0607129596174,0.0,0.0,0.0,0.0,0.0,0.0,0.0,0.0,0.0,0.0,0.0,0.0
100336396531,71,0,honey/haz_cam,0.0,0.0,0.0,-0.0354600436985,0.0424777977169,-0.0668809115887,0.0,0.0,0.0,0.0,0.0,0.0,0.0,0.0,0.0,0.0,0.0,0.0,0.0,0.0,0.0,0.0,0.0,0.0,0.0,0.0,0.0,7.58380629122e-05,-0.000379460630938,0.0616215988994,0.0,0.0,0.0,0.0,0.0,0.0,0.0,0.0,0.0,0.0,0.0,0.0
101340628494,72,0,honey/haz_cam,0.0,0.0,0.0,-0.0446483902633,0.0383734554052,-0.07736646384,0.0,0.0,0.0,0.0,0.0,0.0,0.0,0.0,0.0,0.0,0.0,0.0,0.0,0.0,0.0,0.0,0.0,0.0,0.0,0.0,0.0,7.52517953515e-05,-0.000390940112993,0.0625283494592,0.0,0.0,0.0,0.0,0.0,0.0,0.0,0.0,0.0,0.0,0.0,0.0
102352384677,73,0,honey/haz_cam,0.0,0.0,0.0,-0.0410179644823,0.0333504751325,-0.0695111304522,0.0,0.0,0.0,0.0,0.0,0.0,0.0,0.0,0.0,0.0,0.0,0.0,0.0,0.0,0.0,0.0,0.0,0.0,0.0,0.0,0.0,7.11008906364e-05,-0.000401828670874,0.0634432584047,0.0,0.0,0.0,0.0,0.0,0.0,0.0,0.0,0.0,0.0,0.0,0.0
103337665440,74,0,honey/haz_cam,0.0,0.0,0.0,-0.0514220781624,0.0400777906179,-0.0664029866457,0.0,0.0,0.0,0.0,0.0,0.0,0.0,0.0,0.0,0.0,0.0,0.0,0.0,0.0,0.0,0.0,0.0,0.0,0.0,0.0,0.0,6.45034015179e-05,-0.000411494402215,0.0643564760685,0.0,0.0,0.0,0.0,0.0,0.0,0.0,0.0,0.0,0.0,0.0,0.0
104385286771,75,0,honey/haz_cam,0.0,0.0,0.0,-0.0358378328383,0.0342930741608,-0.0765548050404,0.0,0.0,0.0,0.0,0.0,0.0,0.0,0.0,0.0,0.0,0.0,0.0,0.0,0.0,0.0,0.0,0.0,0.0,0.0,0.0,0.0,6.34975731373e-05,-0.000419134623371,0.0652879029512,0.0,0.0,0.0,0.0,0.0,0.0,0.0,0.0,0.0,0.0,0.0,0.0
105352688682,76,0,honey/haz_cam,0.0,0.0,0.0,-0.0502680763602,0.0437783412635,-0.0573713183403,0.0,0.0,0.0,0.0,0.0,0.0,0.0,0.0,0.0,0.0,0.0,0.0,0.0,0.0,0.0,0.0,0.0,0.0,0.0,0.0,0.0,5.1986426115e-05,-0.000426685204729,0.0662189349532,0.0,0.0,0.0,0.0,0.0,0.0,0.0,0.0,0.0,0.0,0.0,0.0
106377384536,77,0,honey/haz_cam,0.0,0.0,0.0,-0.0400051735342,0.0311567205936,-0.0522722527385,0.0,0.0,0.0,0.0,0.0,0.0,0.0,0.0,0.0,0.0,0.0,0.0,0.0,0.0,0.0,0.0,0.0,0.0,0.0,0.0,0.0,4.76175919175e-05,-0.000431254971772,0.0671678930521,0.0,0.0,0.0,0.0,0.0,0.0,0.0,0.0,0.0,0.0,0.0,0.0
107336919951,78,0,honey/haz_cam,0.0,0.0,0.0,-0.0260415300727,0.038291849196,-0.0720101296902,0.0,0.0,0.0,0.0,0.0,0.0,0.0,0.0,0.0,0.0,0.0,0.0,0.0,0.0,0.0,0.0,0.0,0.0,0.0,0.0,0.0,4.68157231808e-05,-0.000435372348875,0.0681259259582,0.0,0.0,0.0,0.0,0.0,0.0,0.0,0.0,0.0,0.0,0.0,0.0
108375784326,79,0,honey/haz_cam,0.0,0.0,0.0,-0.0516995973885,0.0286741033196,-0.0483327358961,0.0,0.0,0.0,0.0,0.0,0.0,0.0,0.0,0.0,0.0,0.0,0.0,0.0,0.0,0.0,0.0,0.0,0.0,0.0,0.0,0.0,3.67416068912e-05,-0.000436996575445,0.0690657496452,0.0,0.0,0.0,0.0,0.0,0.0,0.0,0.0,0.0,0.0,0.0,0.0
109328377713,80,0,honey/haz_cam,0.0,0.0,0.0,-0.0539710745215,0.0348248109221,-0.0547423176467,0.0,0.0,0.0,0.0,0.0,0.0,0.0,0.0,0.0,0.0,0.0,0.0,0.0,0.0,0.0,0.0,0.0,0.0,0.0,0.0,0.0,3.51713970304e-05,-0.000436624046415,0.0700246393681,0.0,0.0,0.0,0.0,0.0,0.0,0.0,0.0,0.0,0.0,0.0,0.0
110352429154,81,0,honey/haz_cam,0.0,0.0,0.0,-0.0233349166811,0.0163001827896,-0.0497495532036,0.0,0.0,0.0,0.0,0.0,0.0,0.0,0.0,0.0,0.0,0.0,0.0,0.0,0.0,0.0,0.0,0.0,0.0,0.0,0.0,0.0,3.82531434298e-05,-0.00043222727254,0.0709774941206,0.0,0.0,0.0,0.0,0.0,0.0,0.0,0.0,0.0,0.0,0.0,0.0
111346858528,82,0,honey/haz_cam,0.0,0.0,0.0,-0.0316902212799,0.043384462595,-0.0670208707452,0.0,0.0,0.0,0.0,0.0,0.0,0.0,0.0,0.0,0.0,0.0,0.0,0.0,0.0,0.0,0.0,0.0,0.0,0.0,0.0,0.0,3.47448512912e-05,-0.000434298999608,0.0718974173069,0.0,0.0,0.0,0.0,0.0,0.0,0.0,0.0,0.0,0.0,0.0,0.0
112324608597,83,0,honey/haz_cam,0.0,0.0,0.0,-0.0427149534225,0.0403752587736,-0.0750741139054,0.0,0.0,0.0,0.0,0.0,0.0,0.0,0.0,0.0,0.0,0.0,0.0,0.0,0.0,0.0,0.0,0.0,0.0,0.0,0.0,0.0,3.55672091246e-05,-0.000430977903306,0.0728230923414,0.0,0.0,0.0,0.0,0.0,0.0,0.0,0.0,0.0,0.0,0.0,0.0
113358963481,84,0,honey/haz_cam,0.0,0.0,0.0,-0.0357793457806,0.0143670896068,-0.0560197196901,0.0,0.0,0.0,0.0,0.0,0.0,0.0,0.0,0.0,0.0,0.0,0.0,0.0,0.0,0.0,0.0,0.0,0.0,0.0,0.0,0.0,3.99202108383e-05,-0.000421862117946,0.0737732499838,0.0,0.0,0.0,0.0,0.0,0.0,0.0,0.0,0.0,0.0,0.0,0.0
114358363475,85,0,honey/haz_cam,0.0,0.0,0.0,-0.0432892851532,0.0384679511189,-0.0589851476252,0.0,0.0,0.0,0.0,0.0,0.0,0.0,0.0,0.0,0.0,0.0,0.0,0.0,0.0,0.0,0.0,0.0,0.0,0.0,0.0,0.0,4.03113663197e-05,-0.00042041670531,0.0747135132551,0.0,0.0,0.0,0.0,0.0,0.0,0.0,0.0,0.0,0.0,0.0,0.0
115375547192,86,0,honey/haz_cam,0.0,0.0,0.0,-0.0406280271709,0.0443530865014,-0.0709214583039,0.0,0.0,0.0,0.0,0.0,0.0,0.0,0.0,0.0,0.0,0.0,0.0,0.0,0.0,0.0,0.0,0.0,0.0,0.0,0.0,0.0,4.80487942696e-05,-0.00041542481631,0.0756622105837,0.0,0.0,0.0,0.0,0.0,0.0,0.0,0.0,0.0,0.0,0.0,0.0
116394672676,87,0,honey/haz_cam,0.0,0.0,0.0,-0.0395738184452,0.0343833826482,-0.0778082609177,0.0,0.0,0.0,0.0,0.0,0.0,0.0,0.0,0.0,0.0,0.0,0.0,0.0,0.0,0.0,0.0,0.0,0.0,0.0,0.0,0.0,5.93364238739e-05,-0.000407598912716,0.0766354650259,0.0,0.0,0.0,0.0,0.0,0.0,0.0,0.0,0.0,0.0,0.0,0.0
117328665971,88,0,honey/haz_cam,0.0,0.0,0.0,-0.0172614622861,0.0353507474065,-0.0619751289487,0.0,0.0,0.0,0.0,0.0,0.0,0.0,0.0,0.0,0.0,0.0,0.0,0.0,0.0,0.0,0.0,0.0,0.0,0.0,0.0,0.0,6.6630076617e-05,-0.000402698293328,0.0776128917933,0.0,0.0,0.0,0.0,0.0,0.0,0.0,0.0,0.0,0.0,0.0,0.0
118354737887,89,0,honey/haz_cam,0.0,0.0,0.0,-0.0264919772744,0.0378138050437,-0.0599224045873,0.0,0.0,0.0,0.0,0.0,0.0,0.0,0.0,0.0,0.0,0.0,0.0,0.0,0.0,0.0,0.0,0.0,0.0,0.0,0.0,0.0,7.10072927177e-05,-0.000400204211473,0.0785608738661,0.0,0.0,0.0,0.0,0.0,0.0,0.0,0.0,0.0,0.0,0.0,0.0
119401313175,90,0,honey/haz_cam,0.0,0.0,0.0,-0.0387689881027,0.0434544160962,-0.070264197886,0.0,0.0,0.0,0.0,0.0,0.0,0.0,0.0,0.0,0.0,0.0,0.0,0.0,0.0,0.0,0.0,0.0,0.0,0.0,0.0,0.0,8.06734897196e-05,-0.000397812575102,0.0795059651136,0.0,0.0,0.0,0.0,0.0,0.0,0.0,0.0,0.0,0.0,0.0,0.0
120345785562,91,0,honey/haz_cam,0.0,0.0,0.0,-0.0459926314652,0.0346256792545,-0.0725960358977,0.0,0.0,0.0,0.0,0.0,0.0,0.0,0.0,0.0,0.0,0.0,0.0,0.0,0.0,0.0,0.0,0.0,0.0,0.0,0.0,0.0,9.63320489973e-05,-0.000393833965063,0.080462872982,0.0,0.0,0.0,0.0,0.0,0.0,0.0,0.0,0.0,0.0,0.0,0.0
121344659143,92,0,honey/haz_cam,0.0,0.0,0.0,-0.0362760052085,0.0162037611008,-0.0666044950485,0.0,0.0,0.0,0.0,0.0,0.0,0.0,0.0,0.0,0.0,0.0,0.0,0.0,0.0,0.0,0.0,0.0,0.0,0.0,0.0,0.0,0.00011639209697,-0.000390239059925,0.0814301595092,0.0,0.0,0.0,0.0,0.0,0.0,0.0,0.0,0.0,0.0,0.0,0.0
122351823691,93,0,honey/haz_cam,0.0,0.0,0.0,-0.0269917175174,0.0205225870013,-0.0675424858928,0.0,0.0,0.0,0.0,0.0,0.0,0.0,0.0,0.0,0.0,0.0,0.0,0.0,0.0,0.0,0.0,0.0,0.0,0.0,0.0,0.0,0.000131159991724,-0.000391991809011,0.0823860317469,0.0,0.0,0.0,0.0,0.0,0.0,0.0,0.0,0.0,0.0,0.0,0.0
123342235080,94,0,honey/haz_cam,0.0,0.0,0.0,-0.0397420302033,0.0347043536603,-0.0691413283348,0.0,0.0,0.0,0.0,0.0,0.0,0.0,0.0,0.0,0.0,0.0,0.0,0.0,0.0,0.0,0.0,0.0,0.0,0.0,0.0,0.0,0.000140170333907,-0.000397514551878,0.0833092480898,0.0,0.0,0.0,0.0,0.0,0.0,0.0,0.0,0.0,0.0,0.0,0.0
124378742065,95,0,honey/haz_cam,0.0,0.0,0.0,-0.0428164564073,0.0153038641438,-0.0786741822958,0.0,0.0,0.0,0.0,0.0,0.0,0.0,0.0,0.0,0.0,0.0,0.0,0.0,0.0,0.0,0.0,0.0,0.0,0.0,0.0,0.0,0.000161331379786,-0.000399466603994,0.0842549949884,0.0,0.0,0.0,0.0,0.0,0.0,0.0,0.0,0.0,0.0,0.0,0.0
125338170169,96,0,honey/haz_cam,0.0,0.0,0.0,-0.0351121462882,0.0488339550793,-0.0730466768146,0.0,0.0,0.0,0.0,0.0,0.0,0.0,0.0,0.0,0.0,0.0,0.0,0.0,0.0,0.0,0.0,0.0,0.0,0.0,0.0,0.0,0.000167072052136,-0.000413814559579,0.0852310210466,0.0,0.0,0.0,0.0,0.0,0.0,0.0,0.0,0.0,0.0,0.0,0.0
126372643196,97,0,honey/haz_cam,0.0,0.0,0.0,-0.0305276922882,0.0560660734773,-0.077691718936,0.0,0.0,0.0,0.0,0.0,0.0,0.0,0.0,0.0,0.0,0.0,0.0,0.0,0.0,0.0,0.0,0.0,0.0,0.0,0.0,0.0,0.000180342234671,-0.00042299926281,0.0861883610487,0.0,0.0,0.0,0.0,0.0,0.0,0.0,0.0,0.0,0.0,0.0,0.0
127346234279,98,0,honey/haz_cam,0.0,0.0,0.0,-0.0386860743165,0.0371227450669,-0.0697761550546,0.0,0.0,0.0,0.0,0.0,0.0,0.0,0.0,0.0,0.0,0.0,0.0,0.0,0.0,0.0,0.0,0.0,0.0,0.0,0.0,0.0,0.00019467715174,-0.000431530177593,0.087138839066,0.0,0.0,0.0,0.0,0.0,0.0,0.0,0.0,0.0,0.0,0.0,0.0
128396202275,99,0,honey/haz_cam,0.0,0.0,0.0,-0.0284673403949,0.0538414567709,-0.0675108358264,0.0,0.0,0.0,0.0,0.0,0.0,0.0,0.0,0.0,0.0,0.0,0.0,0.0,0.0,0.0,0.0,0.0,0.0,0.0,0.0,0.0,0.000201923539862,-0.000447881408036,0.0881121307611,0.0,0.0,0.0,0.0,0.0,0.0,0.0,0.0,0.0,0.0,0.0,0.0
129386889317,100,0,honey/haz_cam,0.0,0.0,0.0,-0.0263591073453,0.0477430038154,-0.0539215132594,0.0,0.0,0.0,0.0,0.0,0.0,0.0,0.0,0.0,0.0,0.0,0.0,0.0,0.0,0.0,0.0,0.0,0.0,0.0,0.0,0.0,0.000209463993087,-0.000462957192212,0.0890657603741,0.0,0.0,0.0,0.0,0.0,0.0,0.0,0.0,0.0,0.0,0.0,0.0
130365491341,101,0,honey/haz_cam,0.0,0.0,0.0,-0.0338601395488,0.0355578772724,-0.0767140462995,0.0,0.0,0.0,0.0,0.0,0.0,0.0,0.0,0.0,0.0,0.0,0.0,0.0,0.0,0.0,0.0,0.0,0.0,0.0,0.0,0.0,0.000223495881073,-0.000474302563816,0.0899973064661,0.0,0.0,0.0,0.0,0.0,0.0,0.0,0.0,0.0,0.0,0.0,0.0
131375114533,102,0,honey/haz_cam,0.0,0.0,0.0,-0.0440468788147,0.0230059027672,-0.0609099641442,0.0,0.0,0.0,0.0,0.0,0.0,0.0,0.0,0.0,0.0,0.0,0.0,0.0,0.0,0.0,0.0,0.0,0.0,0.0,0.0,0.0,0.000226462783758,-0.000490978418384,0.0909295380116,0.0,0.0,0.0,0.0,0.0,0.0,0.0,0.0,0.0,0.0,0.0,0.0
132411348016,103,0,honey/haz_cam,0.0,0.0,0.0,-0.0257031749934,0.048986800015,-0.0515467002988,0.0,0.0,0.0,0.0,0.0,0.0,0.0,0.0,0.0,0.0,0.0,0.0,0.0,0.0,0.0,0.0,0.0,0.0,0.0,0.0,0.0,0.000223272538278,-0.000514387094881,0.0919109284878,0.0,0.0,0.0,0.0,0.0,0.0,0.0,0.0,0.0,0.0,0.0,0.0
133356833222,104,0,honey/haz_cam,0.0,0.0,0.0,-0.0359218977392,0.0380240418017,-0.047265265137,0.0,0.0,0.0,0.0,0.0,0.0,0.0,0.0,0.0,0.0,0.0,0.0,0.0,0.0,0.0,0.0,0.0,0.0,0.0,0.0,0.0,0.000224883668125,-0.000532673439011,0.0928650945425,0.0,0.0,0.0,0.0,0.0,0.0,0.0,0.0,0.0,0.0,0.0,0.0
134380046351,105,0,honey/haz_cam,0.0,0.0,0.0,-0.031257700175,0.0393204838037,-0.0735756382346,0.0,0.0,0.0,0.0,0.0,0.0,0.0,0.0,0.0,0.0,0.0,0.0,0.0,0.0,0.0,0.0,0.0,0.0,0.0,0.0,0.0,0.000231385231018,-0.000548427924514,0.0938357710838,0.0,0.0,0.0,0.0,0.0,0.0,0.0,0.0,0.0,0.0,0.0,0.0
135367697814,106,0,honey/haz_cam,0.0,0.0,0.0,-0.0503414422274,0.042137555778,-0.0718377605081,0.0,0.0,0.0,0.0,0.0,0.0,0.0,0.0,0.0,0.0,0.0,0.0,0.0,0.0,0.0,0.0,0.0,0.0,0.0,0.0,0.0,0.000223357230425,-0.000567508395761,0.0948168039322,0.0,0.0,0.0,0.0,0.0,0.0,0.0,0.0,0.0,0.0,0.0,0.0
136357574803,107,0,honey/haz_cam,0.0,0.0,0.0,-0.0266385301948,0.0444279238582,-0.0713760778308,0.0,0.0,0.0,0.0,0.0,0.0,0.0,0.0,0.0,0.0,0.0,0.0,0.0,0.0,0.0,0.0,0.0,0.0,0.0,0.0,0.0,0.000218410044909,-0.000586376525462,0.0957883894444,0.0,0.0,0.0,0.0,0.0,0.0,0.0,0.0,0.0,0.0,0.0,0.0
137416962412,108,0,honey/haz_cam,0.0,0.0,0.0,-0.0412089005113,0.0496776290238,-0.0658702552319,0.0,0.0,0.0,0.0,0.0,0.0,0.0,0.0,0.0,0.0,0.0,0.0,0.0,0.0,0.0,0.0,0.0,0.0,0.0,0.0,0.0,0.000206340104342,-0.000604510772973,0.0967308953404,0.0,0.0,0.0,0.0,0.0,0.0,0.0,0.0,0.0,0.0,0.0,0.0
138350846222,109,0,honey/haz_cam,0.0,0.0,0.0,-0.0473330058157,0.040134575218,-0.0735549852252,0.0,0.0,0.0,0.0,0.0,0.0,0.0,0.0,0.0,0.0,0.0,0.0,0.0,0.0,0.0,0.0,0.0,0.0,0.0,0.0,0.0,0.000199146568775,-0.00061871483922,0.0976861715317,0.0,0.0,0.0,0.0,0.0,0.0,0.0,0.0,0.0,0.0,0.0,0.0
139388564971,110,0,honey/haz_cam,0.0,0.0,0.0,-0.0410708338022,0.0307723768055,-0.0692944973707,0.0,0.0,0.0,0.0,0.0,0.0,0.0,0.0,0.0,0.0,0.0,0.0,0.0,0.0,0.0,0.0,0.0,0.0,0.0,0.0,0.0,0.000189946964383,-0.000629466027021,0.0986577942967,0.0,0.0,0.0,0.0,0.0,0.0,0.0,0.0,0.0,0.0,0.0,0.0
140392284054,111,0,honey/haz_cam,0.0,0.0,0.0,-0.0227650925517,0.0412531048059,-0.0580477677286,0.0,0.0,0.0,0.0,0.0,0.0,0.0,0.0,0.0,0.0,0.0,0.0,0.0,0.0,0.0,0.0,0.0,0.0,0.0,0.0,0.0,0.000177126377821,-0.000640883576125,0.0996476113796,0.0,0.0,0.0,0.0,0.0,0.0,0.0,0.0,0.0,0.0,0.0,0.0
141354151915,112,0,honey/haz_cam,0.0,0.0,0.0,-0.054104115814,0.0256964415312,-0.0640928000212,0.0,0.0,0.0,0.0,0.0,0.0,0.0,0.0,0.0,0.0,0.0,0.0,0.0,0.0,0.0,0.0,0.0,0.0,0.0,0.0,0.0,0.000168910250068,-0.000647256383672,0.100621454418,0.0,0.0,0.0,0.0,0.0,0.0,0.0,0.0,0.0,0.0,0.0,0.0
142379500304,113,0,honey/haz_cam,0.0,0.0,0.0,-0.0394486747682,0.0275644399226,-0.0686368867755,0.0,0.0,0.0,0.0,0.0,0.0,0.0,0.0,0.0,0.0,0.0,0.0,0.0,0.0,0.0,0.0,0.0,0.0,0.0,0.0,0.0,0.000163402408361,-0.000649570138194,0.101656779647,0.0,0.0,0.0,0.0,0.0,0.0,0.0,0.0,0.0,0.0,0.0,0.0
143371863216,114,0,honey/haz_cam,0.0,0.0,0.0,-0.0305075794458,0.0382766164839,-0.076990917325,0.0,0.0,0.0,0.0,0.0,0.0,0.0,0.0,0.0,0.0,0.0,0.0,0.0,0.0,0.0,0.0,0.0,0.0,0.0,0.0,0.0,0.000156864523888,-0.000650645699352,0.102681472898,0.0,0.0,0.0,0.0,0.0,0.0,0.0,0.0,0.0,0.0,0.0,0.0
144366527932,115,0,honey/haz_cam,0.0,0.0,0.0,-0.0580573193729,0.0260866656899,-0.0682542696595,0.0,0.0,0.0,0.0,0.0,0.0,0.0,0.0,0.0,0.0,0.0,0.0,0.0,0.0,0.0,0.0,0.0,0.0,0.0,0.0,0.0,0.000145375728607,-0.00064928480424,0.103666551411,0.0,0.0,0.0,0.0,0.0,0.0,0.0,0.0,0.0,0.0,0.0,0.0
145337668397,116,0,honey/haz_cam,0.0,0.0,0.0,-0.033177152276,0.038917761296,-0.0712741613388,0.0,0.0,0.0,0.0,0.0,0.0,0.0,0.0,0.0,0.0,0.0,0.0,0.0,0.0,0.0,0.0,0.0,0.0,0.0,0.0,0.0,0.000142075121403,-0.00064466195181,0.104701891541,0.0,0.0,0.0,0.0,0.0,0.0,0.0,0.0,0.0,0.0,0.0,0.0
146345494102,117,0,honey/haz_cam,0.0,0.0,0.0,-0.0496613904834,0.0504761077464,-0.0767086818814,0.0,0.0,0.0,0.0,0.0,0.0,0.0,0.0,0.0,0.0,0.0,0.0,0.0,0.0,0.0,0.0,0.0,0.0,0.0,0.0,0.0,0.000132651999593,-0.000643507577479,0.105716437101,0.0,0.0,0.0,0.0,0.0,0.0,0.0,0.0,0.0,0.0,0.0,0.0
147364984944,118,0,honey/haz_cam,0.0,0.0,0.0,-0.036957424134,0.0430832132697,-0.0641227662563,0.0,0.0,0.0,0.0,0.0,0.0,0.0,0.0,0.0,0.0,0.0,0.0,0.0,0.0,0.0,0.0,0.0,0.0,0.0,0.0,0.0,0.000129843130708,-0.000634531490505,0.106749668717,0.0,0.0,0.0,0.0,0.0,0.0,0.0,0.0,0.0,0.0,0.0,0.0
148334590544,119,0,honey/haz_cam,0.0,0.0,0.0,-0.0348411761224,0.0266290362924,-0.0581367053092,0.0,0.0,0.0,0.0,0.0,0.0,0.0,0.0,0.0,0.0,0.0,0.0,0.0,0.0,0.0,0.0,0.0,0.0,0.0,0.0,0.0,0.000133810564876,-0.000622876919806,0.107757776976,0.0,0.0,0.0,0.0,0.0,0.0,0.0,0.0,0.0,0.0,0.0,0.0
149344850494,120,0,honey/haz_cam,0.0,0.0,0.0,-0.0498670525849,0.0368837751448,-0.0597666800022,0.0,0.0,0.0,0.0,0.0,0.0,0.0,0.0,0.0,0.0,0.0,0.0,0.0,0.0,0.0,0.0,0.0,0.0,0.0,0.0,0.0,0.000132692977786,-0.000616816803813,0.108727574348,0.0,0.0,0.0,0.0,0.0,0.0,0.0,0.0,0.0,0.0,0.0,0.0
150361462943,121,0,honey/haz_cam,0.0,0.0,0.0,-0.0348315797746,0.0272519942373,-0.0669839680195,0.0,0.0,0.0,0.0,0.0,0.0,0.0,0.0,0.0,0.0,0.0,0.0,0.0,0.0,0.0,0.0,0.0,0.0,0.0,0.0,0.0,0.000148210674524,-0.000600708648562,0.109713822603,0.0,0.0,0.0,0.0,0.0,0.0,0.0,0.0,0.0,0.0,0.0,0.0
151348752758,122,0,honey/haz_cam,0.0,0.0,0.0,-0.0473715178668,0.0452177189291,-0.0771171450615,0.0,0.0,0.0,0.0,0.0,0.0,0.0,0.0,0.0,0.0,0.0,0.0,0.0,0.0,0.0,0.0,0.0,0.0,0.0,0.0,0.0,0.000152129679918,-0.00059438124299,0.110713347793,0.0,0.0,0.0,0.0,0.0,0.0,0.0,0.0,0.0,0.0,0.0,0.0
152334250901,123,0,honey/haz_cam,0.0,0.0,0.0,-0.0612218901515,0.0393009781837,-0.0772281140089,0.0,0.0,0.0,0.0,0.0,0.0,0.0,0.0,0.0,0.0,0.0,0.0,0.0,0.0,0.0,0.0,0.0,0.0,0.0,0.0,0.0,0.000164499506354,-0.000581515952945,0.111733809114,0.0,0.0,0.0,0.0,0.0,0.0,0.0,0.0,0.0,0.0,0.0,0.0
153411181617,124,0,honey/haz_cam,0.0,0.0,0.0,-0.0444771945477,0.0336231216788,-0.0804907605052,0.0,0.0,0.0,0.0,0.0,0.0,0.0,0.0,0.0,0.0,0.0,0.0,0.0,0.0,0.0,0.0,0.0,0.0,0.0,0.0,0.0,0.000188042409718,-0.000565866008401,0.112746477127,0.0,0.0,0.0,0.0,0.0,0.0,0.0,0.0,0.0,0.0,0.0,0.0
154342413691,125,0,honey/haz_cam,0.0,0.0,0.0,-0.0625665187836,0.0584527738392,-0.071588806808,0.0,0.0,0.0,0.0,0.0,0.0,0.0,0.0,0.0,0.0,0.0,0.0,0.0,0.0,0.0,0.0,0.0,0.0,0.0,0.0,0.0,0.000192173756659,-0.000566184520721,0.113725140691,0.0,0.0,0.0,0.0,0.0,0.0,0.0,0.0,0.0,0.0,0.0,0.0
155354888848,126,0,honey/haz_cam,0.0,0.0,0.0,-0.0375460088253,0.0374109148979,-0.0548334531486,0.0,0.0,0.0,0.0,0.0,0.0,0.0,0.0,0.0,0.0,0.0,0.0,0.0,0.0,0.0,0.0,0.0,0.0,0.0,0.0,0.0,0.000221855472773,-0.000553838908672,0.114717192948,0.0,0.0,0.0,0.0,0.0,0.0,0.0,0.0,0.0,0.0,0.0,0.0
156312854150,127,0,honey/haz_cam,0.0,0.0,0.0,-0.0349402949214,0.0273810159415,-0.0594543591142,0.0,0.0,0.0,0.0,0.0,0.0,0.0,0.0,0.0,0.0,0.0,0.0,0.0,0.0,0.0,0.0,0.0,0.0,0.0,0.0,0.0,0.000246376730502,-0.000545917078853,0.115709915757,0.0,0.0,0.0,0.0,0.0,0.0,0.0,0.0,0.0,0.0,0.0,0.0
157341679338,128,0,honey/haz_cam,0.0,0.0,0.0,-0.0479190051556,0.0380882658064,-0.0615525767207,0.0,0.0,0.0,0.0,0.0,0.0,0.0,0.0,0.0,0.0,0.0,0.0,0.0,0.0,0.0,0.0,0.0,0.0,0.0,0.0,0.0,0.000259765307419,-0.000546745955944,0.116744443774,0.0,0.0,0.0,0.0,0.0,0.0,0.0,0.0,0.0,0.0,0.0,0.0
158362273791,129,0,honey/haz_cam,0.0,0.0,0.0,-0.0389428287745,0.0202035419643,-0.0653080567718,0.0,0.0,0.0,0.0,0.0,0.0,0.0,0.0,0.0,0.0,0.0,0.0,0.0,0.0,0.0,0.0,0.0,0.0,0.0,0.0,0.0,0.000290412455797,-0.000541081652045,0.117775529623,0.0,0.0,0.0,0.0,0.0,0.0,0.0,0.0,0.0,0.0,0.0,0.0
159340766929,130,0,honey/haz_cam,0.0,0.0,0.0,-0.0389927104115,0.0259434971958,-0.0760087221861,0.0,0.0,0.0,0.0,0.0,0.0,0.0,0.0,0.0,0.0,0.0,0.0,0.0,0.0,0.0,0.0,0.0,0.0,0.0,0.0,0.0,0.000310594215989,-0.000543678179383,0.118790797889,0.0,0.0,0.0,0.0,0.0,0.0,0.0,0.0,0.0,0.0,0.0,0.0
160347722749,131,0,honey/haz_cam,0.0,0.0,0.0,-0.0227354541421,0.0210839379579,-0.0769501179457,0.0,0.0,0.0,0.0,0.0,0.0,0.0,0.0,0.0,0.0,0.0,0.0,0.0,0.0,0.0,0.0,0.0,0.0,0.0,0.0,0.0,0.000335341086611,-0.000546494498849,0.119818121195,0.0,0.0,0.0,0.0,0.0,0.0,0.0,0.0,0.0,0.0,0.0,0.0
161368642831,132,0,honey/haz_cam,0.0,0.0,0.0,-0.0692008584738,0.0330735072494,-0.0829684659839,0.0,0.0,0.0,0.0,0.0,0.0,0.0,0.0,0.0,0.0,0.0,0.0,0.0,0.0,0.0,0.0,0.0,0.0,0.0,0.0,0.0,0.000341094564646,-0.00056060962379,0.120803207159,0.0,0.0,0.0,0.0,0.0,0.0,0.0,0.0,0.0,0.0,0.0,0.0
162357574079,133,0,honey/haz_cam,0.0,0.0,0.0,-0.043166551739,0.0315140709281,-0.08273524791,0.0,0.0,0.0,0.0,0.0,0.0,0.0,0.0,0.0,0.0,0.0,0.0,0.0,0.0,0.0,0.0,0.0,0.0,0.0,0.0,0.0,0.000362637918442,-0.000573825091124,0.121838659048,0.0,0.0,0.0,0.0,0.0,0.0,0.0,0.0,0.0,0.0,0.0,0.0
163338822669,134,0,honey/haz_cam,0.0,0.0,0.0,-0.035759113729,0.00325317820534,-0.0917070358992,0.0,0.0,0.0,0.0,0.0,0.0,0.0,0.0,0.0,0.0,0.0,0.0,0.0,0.0,0.0,0.0,0.0,0.0,0.0,0.0,0.0,0.000391120556742,-0.000580365769565,0.122879266739,0.0,0.0,0.0,0.0,0.0,0.0,0.0,0.0,0.0,0.0,0.0,0.0
164353181923,135,0,honey/haz_cam,0.0,0.0,0.0,-0.036577899009,0.0268994793296,-0.0701028630137,0.0,0.0,0.0,0.0,0.0,0.0,0.0,0.0,0.0,0.0,0.0,0.0,0.0,0.0,0.0,0.0,0.0,0.0,0.0,0.0,0.0,0.000387028325349,-0.000603465363383,0.123936325312,0.0,0.0,0.0,0.0,0.0,0.0,0.0,0.0,0.0,0.0,0.0,0.0
165334528276,136,0,honey/haz_cam,0.0,0.0,0.0,-0.0344453267753,0.0254694968462,-0.0559488907456,0.0,0.0,0.0,0.0,0.0,0.0,0.0,0.0,0.0,0.0,0.0,0.0,0.0,0.0,0.0,0.0,0.0,0.0,0.0,0.0,0.0,0.000392955262214,-0.000621089246124,0.124970555305,0.0,0.0,0.0,0.0,0.0,0.0,0.0,0.0,0.0,0.0,0.0,0.0
166354425438,137,0,honey/haz_cam,0.0,0.0,0.0,-0.0500587821007,0.0311472974718,-0.0879223942757,0.0,0.0,0.0,0.0,0.0,0.0,0.0,0.0,0.0,0.0,0.0,0.0,0.0,0.0,0.0,0.0,0.0,0.0,0.0,0.0,0.0,0.000404899707064,-0.000634502619505,0.125975757837,0.0,0.0,0.0,0.0,0.0,0.0,0.0,0.0,0.0,0.0,0.0,0.0
167335649080,138,0,honey/haz_cam,0.0,0.0,0.0,-0.04049981758,0.037286028266,-0.0673879012465,0.0,0.0,0.0,0.0,0.0,0.0,0.0,0.0,0.0,0.0,0.0,0.0,0.0,0.0,0.0,0.0,0.0,0.0,0.0,0.0,0.0,0.000400108285248,-0.000659310957417,0.126990571618,0.0,0.0,0.0,0.0,0.0,0.0,0.0,0.0,0.0,0.0,0.0,0.0
168316706643,139,0,honey/haz_cam,0.0,0.0,0.0,-0.0353178530931,0.0462676733732,-0.0611832253635,0.0,0.0,0.0,0.0,0.0,0.0,0.0,0.0,0.0,0.0,0.0,0.0,0.0,0.0,0.0,0.0,0.0,0.0,0.0,0.0,0.0,0.000395913724788,-0.000681910198182,0.128037691116,0.0,0.0,0.0,0.0,0.0,0.0,0.0,0.0,0.0,0.0,0.0,0.0
169392671010,140,0,honey/haz_cam,0.0,0.0,0.0,-0.0330407842994,0.026622729376,-0.0861167758703,0.0,0.0,0.0,0.0,0.0,0.0,0.0,0.0,0.0,0.0,0.0,0.0,0.0,0.0,0.0,0.0,0.0,0.0,0.0,0.0,0.0,0.00040997331962,-0.000692673493177,0.129084289074,0.0,0.0,0.0,0.0,0.0,0.0,0.0,0.0,0.0,0.0,0.0,0.0
170324573197,141,0,honey/haz_cam,0.0,0.0,0.0,-0.020623696968,0.0551169812679,-0.0897844135761,0.0,0.0,0.0,0.0,0.0,0.0,0.0,0.0,0.0,0.0,0.0,0.0,0.0,0.0,0.0,0.0,0.0,0.0,0.0,0.0,0.0,0.000399990472943,-0.000711574684829,0.130110919476,0.0,0.0,0.0,0.0,0.0,0.0,0.0,0.0,0.0,0.0,0.0,0.0
171359861405,142,0,honey/haz_cam,0.0,0.0,0.0,-0.040192566812,0.0396419540048,-0.0821925103664,0.0,0.0,0.0,0.0,0.0,0.0,0.0,0.0,0.0,0.0,0.0,0.0,0.0,0.0,0.0,0.0,0.0,0.0,0.0,0.0,0.0,0.000393060036004,-0.000731739681214,0.131111726165,0.0,0.0,0.0,0.0,0.0,0.0,0.0,0.0,0.0,0.0,0.0,0.0
172318942514,143,0,honey/haz_cam,0.0,0.0,0.0,-0.0127203669399,0.059520881623,-0.0620090328157,0.0,0.0,0.0,0.0,0.0,0.0,0.0,0.0,0.0,0.0,0.0,0.0,0.0,0.0,0.0,0.0,0.0,0.0,0.0,0.0,0.0,0.000371652655303,-0.000750035978854,0.132200777531,0.0,0.0,0.0,0.0,0.0,0.0,0.0,0.0,0.0,0.0,0.0,0.0
173333508538,144,0,honey/haz_cam,0.0,0.0,0.0,-0.0479495450854,0.033789858222,-0.0636431202292,0.0,0.0,0.0,0.0,0.0,0.0,0.0,0.0,0.0,0.0,0.0,0.0,0.0,0.0,0.0,0.0,0.0,0.0,0.0,0.0,0.0,0.00036434084177,-0.00076707219705,0.133200973272,0.0,0.0,0.0,0.0,0.0,0.0,0.0,0.0,0.0,0.0,0.0,0.0
174357426482,145,0,honey/haz_cam,0.0,0.0,0.0,-0.0525376945734,0.0206318888813,-0.056554403156,0.0,0.0,0.0,0.0,0.0,0.0,0.0,0.0,0.0,0.0,0.0,0.0,0.0,0.0,0.0,0.0,0.0,0.0,0.0,0.0,0.0,0.000352965667844,-0.000774018466473,0.13423588872,0.0,0.0,0.0,0.0,0.0,0.0,0.0,0.0,0.0,0.0,0.0,0.0
175367651807,146,0,honey/haz_cam,0.0,0.0,0.0,-0.0429485067725,0.040501832962,-0.0787392854691,0.0,0.0,0.0,0.0,0.0,0.0,0.0,0.0,0.0,0.0,0.0,0.0,0.0,0.0,0.0,0.0,0.0,0.0,0.0,0.0,0.0,0.000345578417182,-0.000775280874223,0.135331779718,0.0,0.0,0.0,0.0,0.0,0.0,0.0,0.0,0.0,0.0,0.0,0.0
176377269512,147,0,honey/haz_cam,0.0,0.0,0.0,-0.0319971516728,0.0248298961669,-0.0787628516555,0.0,0.0,0.0,0.0,0.0,0.0,0.0,0.0,0.0,0.0,0.0,0.0,0.0,0.0,0.0,0.0,0.0,0.0,0.0,0.0,0.0,0.000340973958373,-0.000770464073867,0.136430591345,0.0,0.0,0.0,0.0,0.0,0.0,0.0,0.0,0.0,0.0,0.0,0.0
177412246514,148,0,honey/haz_cam,0.0,0.0,0.0,-0.050512034446,0.0385359525681,-0.0527216605842,0.0,0.0,0.0,0.0,0.0,0.0,0.0,0.0,0.0,0.0,0.0,0.0,0.0,0.0,0.0,0.0,0.0,0.0,0.0,0.0,0.0,0.000314384698868,-0.000780043657869,0.137506395578,0.0,0.0,0.0,0.0,0.0,0.0,0.0,0.0,0.0,0.0,0.0,0.0
178352753423,149,0,honey/haz_cam,0.0,0.0,0.0,-0.0581330545247,0.0397987477481,-0.0806255862117,0.0,0.0,0.0,0.0,0.0,0.0,0.0,0.0,0.0,0.0,0.0,0.0,0.0,0.0,0.0,0.0,0.0,0.0,0.0,0.0,0.0,0.000313291326165,-0.000771451857872,0.138566225767,0.0,0.0,0.0,0.0,0.0,0.0,0.0,0.0,0.0,0.0,0.0,0.0
179393456364,150,0,honey/haz_cam,0.0,0.0,0.0,-0.0200162697583,0.0261344350874,-0.0756529346108,0.0,0.0,0.0,0.0,0.0,0.0,0.0,0.0,0.0,0.0,0.0,0.0,0.0,0.0,0.0,0.0,0.0,0.0,0.0,0.0,0.0,0.000317223370075,-0.000749571248889,0.139636009932,0.0,0.0,0.0,0.0,0.0,0.0,0.0,0.0,0.0,0.0,0.0,0.0
180353247468,151,0,honey/haz_cam,0.0,0.0,0.0,-0.0498609952629,0.0214401632547,-0.0750074088573,0.0,0.0,0.0,0.0,0.0,0.0,0.0,0.0,0.0,0.0,0.0,0.0,0.0,0.0,0.0,0.0,0.0,0.0,0.0,0.0,0.0,0.000311436131597,-0.000745943747461,0.140638738871,0.0,0.0,0.0,0.0,0.0,0.0,0.0,0.0,0.0,0.0,0.0,0.0
181348392683,152,0,honey/haz_cam,0.0,0.0,0.0,-0.0351550541818,0.0267614070326,-0.0699940174818,0.0,0.0,0.0,0.0,0.0,0.0,0.0,0.0,0.0,0.0,0.0,0.0,0.0,0.0,0.0,0.0,0.0,0.0,0.0,0.0,0.0,0.000314248725772,-0.000730102881789,0.141667813063,0.0,0.0,0.0,0.0,0.0,0.0,0.0,0.0,0.0,0.0,0.0,0.0
182337013641,153,0,honey/haz_cam,0.0,0.0,0.0,-0.0412134192884,0.0313971117139,-0.0666933879256,0.0,0.0,0.0,0.0,0.0,0.0,0.0,0.0,0.0,0.0,0.0,0.0,0.0,0.0,0.0,0.0,0.0,0.0,0.0,0.0,0.0,0.000313313677907,-0.000720474869013,0.142712369561,0.0,0.0,0.0,0.0,0.0,0.0,0.0,0.0,0.0,0.0,0.0,0.0
183315895001,154,0,honey/haz_cam,0.0,0.0,0.0,-0.0170693229884,0.0343308784068,-0.0665745362639,0.0,0.0,0.0,0.0,0.0,0.0,0.0,0.0,0.0,0.0,0.0,0.0,0.0,0.0,0.0,0.0,0.0,0.0,0.0,0.0,0.0,0.000321328639984,-0.000701876357198,0.143797621131,0.0,0.0,0.0,0.0,0.0,0.0,0.0,0.0,0.0,0.0,0.0,0.0
184387316836,155,0,honey/haz_cam,0.0,0.0,0.0,-0.0376466363668,0.0178189966828,-0.0733265429735,0.0,0.0,0.0,0.0,0.0,0.0,0.0,0.0,0.0,0.0,0.0,0.0,0.0,0.0,0.0,0.0,0.0,0.0,0.0,0.0,0.0,0.000330431386828,-0.000689048320055,0.1448443681,0.0,0.0,0.0,0.0,0.0,0.0,0.0,0.0,0.0,0.0,0.0,0.0
185397086499,156,0,honey/haz_cam,0.0,0.0,0.0,-0.0355324484408,0.0319695957005,-0.0800585672259,0.0,0.0,0.0,0.0,0.0,0.0,0.0,0.0,0.0,0.0,0.0,0.0,0.0,0.0,0.0,0.0,0.0,0.0,0.0,0.0,0.0,0.000342244282365,-0.000676635652781,0.145927980542,0.0,0.0,0.0,0.0,0.0,0.0,0.0,0.0,0.0,0.0,0.0,0.0
186380842797,157,0,honey/haz_cam,0.0,0.0,0.0,-0.046322517097,0.0450847558677,-0.0853056907654,0.0,0.0,0.0,0.0,0.0,0.0,0.0,0.0,0.0,0.0,0.0,0.0,0.0,0.0,0.0,0.0,0.0,0.0,0.0,0.0,0.0,0.000353256240487,-0.000666478648782,0.147000402212,0.0,0.0,0.0,0.0,0.0,0.0,0.0,0.0,0.0,0.0,0.0,0.0
187351698561,158,0,honey/haz_cam,0.0,0.0,0.0,-0.0482834205031,0.0382790192962,-0.0637614130974,0.0,0.0,0.0,0.0,0.0,0.0,0.0,0.0,0.0,0.0,0.0,0.0,0.0,0.0,0.0,0.0,0.0,0.0,0.0,0.0,0.0,0.000369016081095,-0.00065404176712,0.148075312376,0.0,0.0,0.0,0.0,0.0,0.0,0.0,0.0,0.0,0.0,0.0,0.0
188323414561,159,0,honey/haz_cam,0.0,0.0,0.0,-0.0419900082052,0.0353638865054,-0.0754781141877,0.0,0.0,0.0,0.0,0.0,0.0,0.0,0.0,0.0,0.0,0.0,0.0,0.0,0.0,0.0,0.0,0.0,0.0,0.0,0.0,0.0,0.000398507341743,-0.00063887052238,0.149167194963,0.0,0.0,0.0,0.0,0.0,0.0,0.0,0.0,0.0,0.0,0.0,0.0
189358751620,160,0,honey/haz_cam,0.0,0.0,0.0,-0.0230274759233,0.0253319256008,-0.0725975930691,0.0,0.0,0.0,0.0,0.0,0.0,0.0,0.0,0.0,0.0,0.0,0.0,0.0,0.0,0.0,0.0,0.0,0.0,0.0,0.0,0.0,0.000429355539382,-0.000624449923635,0.150269031525,0.0,0.0,0.0,0.0,0.0,0.0,0.0,0.0,0.0,0.0,0.0,0.0
190369081348,161,0,honey/haz_cam,0.0,0.0,0.0,-0.0318200364709,0.0422827787697,-0.0554555058479,0.0,0.0,0.0,0.0,0.0,0.0,0.0,0.0,0.0,0.0,0.0,0.0,0.0,0.0,0.0,0.0,0.0,0.0,0.0,0.0,0.0,0.000433463603258,-0.000631581991911,0.151321038604,0.0,0.0,0.0,0.0,0.0,0.0,0.0,0.0,0.0,0.0,0.0,0.0
191321853246,162,0,honey/haz_cam,0.0,0.0,0.0,-0.0244744420052,0.0285829994828,-0.0646053999662,0.0,0.0,0.0,0.0,0.0,0.0,0.0,0.0,0.0,0.0,0.0,0.0,0.0,0.0,0.0,0.0,0.0,0.0,0.0,0.0,0.0,0.000464706681669,-0.000621804967523,0.152332678437,0.0,0.0,0.0,0.0,0.0,0.0,0.0,0.0,0.0,0.0,0.0,0.0
192357608408,163,0,honey/haz_cam,0.0,0.0,0.0,-0.0224658027291,0.0316313952208,-0.0629526600242,0.0,0.0,0.0,0.0,0.0,0.0,0.0,0.0,0.0,0.0,0.0,0.0,0.0,0.0,0.0,0.0,0.0,0.0,0.0,0.0,0.0,0.00048349564895,-0.000622754916549,0.153388589621,0.0,0.0,0.0,0.0,0.0,0.0,0.0,0.0,0.0,0.0,0.0,0.0
193363497181,164,0,honey/haz_cam,0.0,0.0,0.0,-0.0338695272803,0.0172337144613,-0.0632497519255,0.0,0.0,0.0,0.0,0.0,0.0,0.0,0.0,0.0,0.0,0.0,0.0,0.0,0.0,0.0,0.0,0.0,0.0,0.0,0.0,0.0,0.000508424011059,-0.000623062252998,0.154470577836,0.0,0.0,0.0,0.0,0.0,0.0,0.0,0.0,0.0,0.0,0.0,0.0
194362712075,165,0,honey/haz_cam,0.0,0.0,0.0,-0.0302143227309,0.0135632762685,-0.0819997265935,0.0,0.0,0.0,0.0,0.0,0.0,0.0,0.0,0.0,0.0,0.0,0.0,0.0,0.0,0.0,0.0,0.0,0.0,0.0,0.0,0.0,0.000540235836525,-0.000624790787697,0.155556887388,0.0,0.0,0.0,0.0,0.0,0.0,0.0,0.0,0.0,0.0,0.0,0.0
195339114084,166,0,honey/haz_cam,0.0,0.0,0.0,-0.0281819719821,0.0134092262015,-0.0753758922219,0.0,0.0,0.0,0.0,0.0,0.0,0.0,0.0,0.0,0.0,0.0,0.0,0.0,0.0,0.0,0.0,0.0,0.0,0.0,0.0,0.0,0.000561133958399,-0.000637870281935,0.15662997961,0.0,0.0,0.0,0.0,0.0,0.0,0.0,0.0,0.0,0.0,0.0,0.0
196362477971,167,0,honey/haz_cam,0.0,0.0,0.0,-0.0387842021883,0.0457018464804,-0.0541034266353,0.0,0.0,0.0,0.0,0.0,0.0,0.0,0.0,0.0,0.0,0.0,0.0,0.0,0.0,0.0,0.0,0.0,0.0,0.0,0.0,0.0,0.000556641258299,-0.000669781118631,0.157724499702,0.0,0.0,0.0,0.0,0.0,0.0,0.0,0.0,0.0,0.0,0.0,0.0
197355838446,168,0,honey/haz_cam,0.0,0.0,0.0,-0.0151182059199,0.0156093165278,-0.0844459086657,0.0,0.0,0.0,0.0,0.0,0.0,0.0,0.0,0.0,0.0,0.0,0.0,0.0,0.0,0.0,0.0,0.0,0.0,0.0,0.0,0.0,0.000604114029557,-0.000665908679366,0.158817276359,0.0,0.0,0.0,0.0,0.0,0.0,0.0,0.0,0.0,0.0,0.0,0.0
198360236523,169,0,honey/haz_cam,0.0,0.0,0.0,-0.0505525767803,0.0412440933287,-0.077803991735,0.0,0.0,0.0,0.0,0.0,0.0,0.0,0.0,0.0,0.0,0.0,0.0,0.0,0.0,0.0,0.0,0.0,0.0,0.0,0.0,0.0,0.000598128885031,-0.0006999745965,0.159877926111,0.0,0.0,0.0,0.0,0.0,0.0,0.0,0.0,0.0,0.0,0.0,0.0
199391993196,170,0,honey/haz_cam,0.0,0.0,0.0,-0.0412912778556,0.0375361405313,-0.0827455744147,0.0,0.0,0.0,0.0,0.0,0.0,0.0,0.0,0.0,0.0,0.0,0.0,0.0,0.0,0.0,0.0,0.0,0.0,0.0,0.0,0.0,0.000616757199168,-0.000728918239474,0.160965174437,0.0,0.0,0.0,0.0,0.0,0.0,0.0,0.0,0.0,0.0,0.0,0.0
200351108293,171,0,honey/haz_cam,0.0,0.0,0.0,-0.0285258330405,0.0467032827437,-0.075796701014,0.0,0.0,0.0,0.0,0.0,0.0,0.0,0.0,0.0,0.0,0.0,0.0,0.0,0.0,0.0,0.0,0.0,0.0,0.0,0.0,0.0,0.00062051974237,-0.000762743875384,0.162045687437,0.0,0.0,0.0,0.0,0.0,0.0,0.0,0.0,0.0,0.0,0.0,0.0
