%time,field.header.seq,field.header.stamp,field.header.frame_id,field.pose.pose.position.x,field.pose.pose.position.y,field.pose.pose.position.z,field.pose.pose.orientation.x,field.pose.pose.orientation.y,field.pose.pose.orientation.z,field.pose.pose.orientation.w,field.pose.covariance0,field.pose.covariance1,field.pose.covariance2,field.pose.covariance3,field.pose.covariance4,field.pose.covariance5,field.pose.covariance6,field.pose.covariance7,field.pose.covariance8,field.pose.covariance9,field.pose.covariance10,field.pose.covariance11,field.pose.covariance12,field.pose.covariance13,field.pose.covariance14,field.pose.covariance15,field.pose.covariance16,field.pose.covariance17,field.pose.covariance18,field.pose.covariance19,field.pose.covariance20,field.pose.covariance21,field.pose.covariance22,field.pose.covariance23,field.pose.covariance24,field.pose.covariance25,field.pose.covariance26,field.pose.covariance27,field.pose.covariance28,field.pose.covariance29,field.pose.covariance30,field.pose.covariance31,field.pose.covariance32,field.pose.covariance33,field.pose.covariance34,field.pose.covariance35
95300246942,0,0,honey/haz_cam,-0.021848147735,-0.0251853745431,0.0228003673255,0.0222229659557,-0.0243010800332,0.729385495186,0.683309912682,0.000453117478173,-5.60335138289e-06,5.04806666868e-05,0.0,0.0,0.0,-5.60335138289e-06,0.000505956762936,5.61375600228e-06,0.0,0.0,0.0,5.04806703248e-05,5.61375645702e-06,0.00044862437062,0.0,0.0,0.0,0.0,0.0,0.0,0.00138633232564,9.34323725232e-06,-0.000209005418583,0.0,0.0,0.0,9.34323634283e-06,0.0015968659427,9.23747211345e-06,0.0,0.0,0.0,-0.000209005418583,9.23747302295e-06,0.00139121233951
96310419182,1,0,honey/haz_cam,-0.0353843197227,-0.0333156809211,0.0369333066046,0.0411647185683,-0.049250561744,0.754884839058,0.652708649635,0.000793959654402,-1.93523173948e-05,0.000101457640994,0.0,0.0,0.0,-1.93523173948e-05,0.000907696783543,1.77244419319e-05,0.0,0.0,0.0,0.000101457640994,1.77244401129e-05,0.000815150502604,0.0,0.0,0.0,0.0,0.0,0.0,0.00288015045226,2.80200747511e-05,-0.000419507181505,0.0,0.0,0.0,2.80200765701e-05,0.00325968675315,3.97743715439e-05,0.0,0.0,0.0,-0.000419507181505,3.97743751819e-05,0.00278060906567
97273534990,2,0,honey/haz_cam,-0.0443395040929,-0.0370672233403,0.0462870039046,0.0613443255424,-0.0672516450286,0.775330305099,0.624961435795,0.00113888969645,-3.85770799767e-05,0.000149912069901,0.0,0.0,0.0,-3.85770836147e-05,0.001306337188,3.43056199199e-05,0.0,0.0,0.0,0.000149912055349,3.43056199199e-05,0.00118049944285,0.0,0.0,0.0,0.0,0.0,0.0,0.00442450912669,1.45439307744e-05,-0.000611988594756,0.0,0.0,0.0,1.45439325934e-05,0.00499566551298,3.32208692271e-05,0.0,0.0,0.0,-0.000611988652963,3.32208655891e-05,0.00424208445475
98277368190,3,0,honey/haz_cam,-0.0520611703396,-0.0388481020927,0.0525574609637,0.0857505500317,-0.0887485072017,0.800514161587,0.586470127106,0.00148628291208,-6.95129783708e-05,0.00019099227211,0.0,0.0,0.0,-6.95129783708e-05,0.00169747695327,5.95900855842e-05,0.0,0.0,0.0,0.00019099227211,5.95900928602e-05,0.001557258307,0.0,0.0,0.0,0.0,0.0,0.0,0.00612525548786,-3.01755862893e-05,-0.000759400776587,0.0,0.0,0.0,-3.01755844703e-05,0.00690889218822,4.06310173275e-05,0.0,0.0,0.0,-0.000759400776587,4.06310173275e-05,0.00585304154083
99294707791,4,0,honey/haz_cam,-0.0596245899796,-0.0394995771348,0.0565001778305,0.0987947359681,-0.113318361342,0.814061701298,0.560983002186,0.00184622080997,-9.73013011389e-05,0.000229995988775,0.0,0.0,0.0,-9.73013084149e-05,0.0020887395367,8.01080968813e-05,0.0,0.0,0.0,0.000229995988775,8.01080896053e-05,0.00192649057135,0.0,0.0,0.0,0.0,0.0,0.0,0.00790336262435,3.90235891246e-06,-0.000876364647411,0.0,0.0,0.0,3.90234799852e-06,0.00904543884099,0.000114931390272,0.0,0.0,0.0,-0.000876364647411,0.000114931382996,0.00773351313546
100334864605,5,0,honey/haz_cam,-0.0660474449396,-0.0396041274071,0.0587130337954,0.118797287345,-0.134120926261,0.82229244709,0.540123581886,0.0022226863075,-0.000125066464534,0.000265809125267,0.0,0.0,0.0,-0.000125066464534,0.00247665168718,0.000103743172076,0.0,0.0,0.0,0.000265809096163,0.000103743172076,0.00227997009642,0.0,0.0,0.0,0.0,0.0,0.0,0.00970500521362,2.91256583296e-07,-0.000973347574472,0.0,0.0,0.0,2.91255673801e-07,0.0114070773125,0.000186166827916,0.0,0.0,0.0,-0.000973347574472,0.000186166827916,0.0098474714905
101337896775,6,0,honey/haz_cam,-0.0701706260443,-0.0395698621869,0.0595760643482,0.141637533903,-0.1556994766,0.833673655987,0.510572552681,0.00261171068996,-0.000160682247952,0.000294633267913,0.0,0.0,0.0,-0.000160682262504,0.00285613094456,0.000135554364533,0.0,0.0,0.0,0.000294633326121,0.000135554364533,0.00265975110233,0.0,0.0,0.0,0.0,0.0,0.0,0.011730665341,-2.60828019236e-05,-0.00101937458385,0.0,0.0,0.0,-2.60827655438e-05,0.0143532110378,0.000312266143737,0.0,0.0,0.0,-0.00101937458385,0.000312266143737,0.0124852722511
102362059181,7,0,honey/haz_cam,-0.0719311535358,-0.0396541394293,0.0596951320767,0.154198274016,-0.176484525204,0.844051837921,0.482340604067,0.00298269302584,-0.000196580949705,0.000322493928252,0.0,0.0,0.0,-0.000196580964257,0.00323020061478,0.000162919444847,0.0,0.0,0.0,0.000322493928252,0.000162919444847,0.00304657081142,0.0,0.0,0.0,0.0,0.0,0.0,0.0134217906743,-4.42057717009e-05,-0.0010642898269,0.0,0.0,0.0,-4.42058226326e-05,0.0169414877892,0.000469030579552,0.0,0.0,0.0,-0.0010642898269,0.000469030579552,0.0147824753076
103322508062,8,0,honey/haz_cam,-0.071686476469,-0.0397606231272,0.0597081184387,0.167687132955,-0.202148452401,0.853856742382,0.449383586645,0.00336339115165,-0.000240380410105,0.000343989173416,0.0,0.0,0.0,-0.000240380424657,0.00359148019925,0.000193997650058,0.0,0.0,0.0,0.000343989115208,0.000193997635506,0.00344374659471,0.0,0.0,0.0,0.0,0.0,0.0,0.0151563510299,-9.32222174015e-05,-0.00106630567461,0.0,0.0,0.0,-9.32222465053e-05,0.0196024999022,0.000724385899957,0.0,0.0,0.0,-0.00106630567461,0.000724385958165,0.0171540230513
104342491532,9,0,honey/haz_cam,-0.0705104768276,-0.0398116707802,0.0598259568214,0.187994062901,-0.220842048526,0.858452320099,0.423020660877,0.00372750591487,-0.000306394387735,0.000393184076529,0.0,0.0,0.0,-0.000306394416839,0.00393108092248,0.000252256228123,0.0,0.0,0.0,0.000393184134737,0.000252256257227,0.00379593879916,0.0,0.0,0.0,0.0,0.0,0.0,0.0168931670487,-0.000134016183438,-0.0010437394958,0.0,0.0,0.0,-0.000134016314405,0.0221639554948,0.000949766661506,0.0,0.0,0.0,-0.0010437394958,0.000949766603298,0.01948190853
105342886248,10,0,honey/haz_cam,-0.0694739744067,-0.0398205444217,0.0601291507483,0.20365332067,-0.240676805377,0.862508356571,0.395827263594,0.00411536963657,-0.000351155176759,0.000415156129748,0.0,0.0,0.0,-0.000351155089447,0.00427707936615,0.000287541013677,0.0,0.0,0.0,0.000415156100644,0.000287541013677,0.00417989818379,0.0,0.0,0.0,0.0,0.0,0.0,0.0185223389417,-0.000210949336179,-0.00105140043888,0.0,0.0,0.0,-0.000210949365282,0.0243046581745,0.00123544037342,0.0,0.0,0.0,-0.00105140043888,0.00123544060625,0.0213311761618
106434192269,11,0,honey/haz_cam,-0.0690295025706,-0.039823256433,0.0607049241662,0.220734700561,-0.260311275721,0.865859091282,0.365789592266,0.00451977411285,-0.000396890274715,0.000428830273449,0.0,0.0,0.0,-0.000396890216507,0.00461362767965,0.000324920722051,0.0,0.0,0.0,0.000428830273449,0.000324920751154,0.00457788398489,0.0,0.0,0.0,0.0,0.0,0.0,0.0203756336123,-0.000316880672472,-0.00104390236083,0.0,0.0,0.0,-0.000316880788887,0.0267194360495,0.00161369517446,0.0,0.0,0.0,-0.00104390247725,0.00161369517446,0.0234779920429
107317764990,12,0,honey/haz_cam,-0.069549754262,-0.0398177988827,0.0611428767443,0.236829295754,-0.278907835484,0.870419025421,0.329382479191,0.00492110848427,-0.000443599070422,0.000435763009591,0.0,0.0,0.0,-0.000443599099526,0.00492787361145,0.000363218045095,0.0,0.0,0.0,0.000435763009591,0.000363218045095,0.00498780515045,0.0,0.0,0.0,0.0,0.0,0.0,0.0222060177475,-0.000611941912211,-0.000941234873608,0.0,0.0,0.0,-0.000611941737588,0.0287947617471,0.00204481487162,0.0,0.0,0.0,-0.000941234873608,0.00204481463879,0.0253397300839
108358178487,13,0,honey/haz_cam,-0.0706344768405,-0.0398415625095,0.0614796690643,0.250056803226,-0.299813359976,0.871264278889,0.297458708286,0.00532413786277,-0.000488621997647,0.000442920281785,0.0,0.0,0.0,-0.000488621997647,0.0052420347929,0.000390840694308,0.0,0.0,0.0,0.000442920310888,0.000390840723412,0.00539404666051,0.0,0.0,0.0,0.0,0.0,0.0,0.024133676663,-0.000866666377988,-0.000849571428262,0.0,0.0,0.0,-0.000866666436195,0.030807338655,0.00255378894508,0.0,0.0,0.0,-0.000849571428262,0.00255378847942,0.02720634453
109318833573,14,0,honey/haz_cam,-0.0717364028096,-0.0398849509656,0.0617497451603,0.255783885717,-0.324434041977,0.870695829391,0.266843825579,0.00571996159852,-0.000536816951353,0.000441810552729,0.0,0.0,0.0,-0.000536817009561,0.00554360914975,0.000412102730479,0.0,0.0,0.0,0.000441810552729,0.000412102701375,0.005815198645,0.0,0.0,0.0,0.0,0.0,0.0,0.0260890461504,-0.00120771187358,-0.000800181180239,0.0,0.0,0.0,-0.00120771198999,0.0326103121042,0.00306947249919,0.0,0.0,0.0,-0.000800181180239,0.00306947273202,0.0289810374379
110329249578,15,0,honey/haz_cam,-0.0727834776044,-0.0400413535535,0.0618127994239,0.276492834091,-0.333851069212,0.870427846909,0.233345583081,0.0061382134445,-0.000566610600799,0.000445976562332,0.0,0.0,0.0,-0.000566610542592,0.00583481928334,0.000443718599854,0.0,0.0,0.0,0.000445976562332,0.00044371857075,0.00621002865955,0.0,0.0,0.0,0.0,0.0,0.0,0.0282014105469,-0.00165339710657,-0.000573876255658,0.0,0.0,0.0,-0.0016533966409,0.0349262803793,0.00372945447452,0.0,0.0,0.0,-0.000573876313865,0.00372945470735,0.0311560630798
111311034484,16,0,honey/haz_cam,-0.0736651644111,-0.0402231924236,0.0618732199073,0.29575920105,-0.348550677299,0.865955293179,0.202879190445,0.0065702307038,-0.000586491019931,0.000445012818091,0.0,0.0,0.0,-0.000586491019931,0.00613270141184,0.000466370780487,0.0,0.0,0.0,0.000445012788987,0.000466370780487,0.00661115488037,0.0,0.0,0.0,0.0,0.0,0.0,0.0305426996201,-0.00211777421646,-0.000421385193476,0.0,0.0,0.0,-0.00211777468212,0.0373214967549,0.00449391081929,0.0,0.0,0.0,-0.000421385280788,0.00449391081929,0.0334321446717
112321898217,17,0,honey/haz_cam,-0.0741509869695,-0.0404272899032,0.0618419609964,0.30438259244,-0.366732537746,0.862805068493,0.168598428369,0.00698521314189,-0.000611270195805,0.000438661780208,0.0,0.0,0.0,-0.000611270195805,0.00642476044595,0.000466733530629,0.0,0.0,0.0,0.000438661809312,0.000466733501526,0.00703924661502,0.0,0.0,0.0,0.0,0.0,0.0,0.0329440161586,-0.0027288265992,-0.000237461077631,0.0,0.0,0.0,-0.0027288265992,0.0395784862339,0.00530743552372,0.0,0.0,0.0,-0.000237461150391,0.00530743645504,0.0358816161752
113338056015,18,0,honey/haz_cam,-0.0743116885424,-0.0406365804374,0.0617960914969,0.317519366741,-0.381532907486,0.858058154583,0.13171865046,0.00741987582296,-0.000618016987573,0.000426155893365,0.0,0.0,0.0,-0.000618017103989,0.00670995051041,0.000466778234113,0.0,0.0,0.0,0.000426155893365,0.000466778234113,0.00747132720426,0.0,0.0,0.0,0.0,0.0,0.0,0.0357343554497,-0.00369235058315,-6.31703005638e-06,0.0,0.0,0.0,-0.00369235128164,0.0421437695622,0.00627007381991,0.0,0.0,0.0,-6.31697912468e-06,0.00627007428557,0.0388910472393
114327984978,19,0,honey/haz_cam,-0.0743469893932,-0.0407302342355,0.0618696808815,0.328443259001,-0.398353844881,0.851498186588,0.0915953144431,0.0078481733799,-0.000615841359831,0.000411357497796,0.0,0.0,0.0,-0.000615841010585,0.00698419986293,0.000453158165328,0.0,0.0,0.0,0.0004113575269,0.000453158136224,0.00790488347411,0.0,0.0,0.0,0.0,0.0,0.0,0.0386208370328,-0.00465796794742,0.000196695749764,0.0,0.0,0.0,-0.00465796841308,0.0442435219884,0.00732971169055,0.0,0.0,0.0,0.000196695720661,0.00732971169055,0.0418240725994
115309306469,20,0,honey/haz_cam,-0.0742042735219,-0.0408126339316,0.0619744546711,0.342757195234,-0.413748323917,0.84152930975,0.0561955049634,0.00828210357577,-0.000603361753747,0.000404384772992,0.0,0.0,0.0,-0.000603361753747,0.00726998131722,0.000435819645645,0.0,0.0,0.0,0.000404384802096,0.000435819674749,0.00831883773208,0.0,0.0,0.0,0.0,0.0,0.0,0.0415100045502,-0.00554503127933,0.000342247949447,0.0,0.0,0.0,-0.00554503221065,0.0464650280774,0.00844030734152,0.0,0.0,0.0,0.000342247833032,0.00844030734152,0.0447254367173
116310440817,21,0,honey/haz_cam,-0.0738216936588,-0.0407519116998,0.0620774067938,0.347558200359,-0.429083824158,0.833628416061,0.0123978499323,0.00871074385941,-0.000583121203817,0.000387511157896,0.0,0.0,0.0,-0.000583121203817,0.00755597790703,0.000394048634917,0.0,0.0,0.0,0.000387511157896,0.00039404866402,0.00876684486866,0.0,0.0,0.0,0.0,0.0,0.0,0.0446716025472,-0.0069066840224,0.000462662545033,0.0,0.0,0.0,-0.00690668355674,0.0488098151982,0.0094300545752,0.0,0.0,0.0,0.000462662661448,0.0094300545752,0.0484265312552
117320651102,22,0,honey/haz_cam,-0.0735682547092,-0.0406486578286,0.0622067190707,0.349178493023,-0.442823380232,0.825491845608,-0.0233385898173,0.00911760423332,-0.000571032520384,0.000388449319871,0.0,0.0,0.0,-0.000571032636799,0.00787070486695,0.000347594264895,0.0,0.0,0.0,0.000388449290767,0.000347594293999,0.00919377524406,0.0,0.0,0.0,0.0,0.0,0.0,0.0475358255208,-0.00807710364461,0.000423241959652,0.0,0.0,0.0,-0.00807710271329,0.0508221760392,0.0102887460962,0.0,0.0,0.0,0.000423241901444,0.0102887470275,0.0517024919391
118311012838,23,0,honey/haz_cam,-0.0734638869762,-0.0405684746802,0.0623222067952,0.356244057417,-0.444484740496,0.819494783878,-0.0628605857491,0.00951203890145,-0.000522021146026,0.000386565545341,0.0,0.0,0.0,-0.000522021146026,0.00818391516805,0.000328209047439,0.0,0.0,0.0,0.000386565574445,0.000328209047439,0.00962753500789,0.0,0.0,0.0,0.0,0.0,0.0,0.0504433512688,-0.009560668841,0.000339826394338,0.0,0.0,0.0,-0.00956066977233,0.0528091490269,0.0108441989869,0.0,0.0,0.0,0.00033982633613,0.0108441999182,0.0549027696252
119342363127,24,0,honey/haz_cam,-0.0734067037702,-0.0404814444482,0.0624739341438,0.369234740734,-0.452130377293,0.805769026279,-0.0998986288905,0.00990486703813,-0.000486531411298,0.000402014702559,0.0,0.0,0.0,-0.000486531585921,0.00852567330003,0.000316767924232,0.0,0.0,0.0,0.000402014673455,0.000316767924232,0.0100397132337,0.0,0.0,0.0,0.0,0.0,0.0,0.0542241558433,-0.0110649960116,0.000383938953746,0.0,0.0,0.0,-0.0110649950802,0.0545884557068,0.011599553749,0.0,0.0,0.0,0.000383939157473,0.011599553749,0.0586448758841
120301987546,25,0,honey/haz_cam,-0.0733816921711,-0.0403832197189,0.0626441463828,0.388092577457,-0.468082308769,0.782002389431,-0.136948809028,0.0103554045781,-0.000425177539,0.000402433390263,0.0,0.0,0.0,-0.000425177713623,0.00884240027517,0.000259773631115,0.0,0.0,0.0,0.000402433390263,0.000259773602011,0.0104371039197,0.0,0.0,0.0,0.0,0.0,0.0,0.0582482293248,-0.0120674930513,0.000216950749746,0.0,0.0,0.0,-0.0120674939826,0.0564202554524,0.0131878387183,0.0,0.0,0.0,0.000216950575123,0.0131878396496,0.0627708807588
121317769959,26,0,honey/haz_cam,-0.0732916072011,-0.0403167717159,0.0627811774611,0.40328836441,-0.485790342093,0.756840586662,-0.168991848826,0.010807286948,-0.000376191135729,0.000412033725297,0.0,0.0,0.0,-0.000376190961106,0.00918854773045,0.000190902428585,0.0,0.0,0.0,0.000412033696193,0.000190902428585,0.010818737559,0.0,0.0,0.0,0.0,0.0,0.0,0.0621875450015,-0.0130558442324,-4.36096161138e-06,0.0,0.0,0.0,-0.0130558433011,0.0587012693286,0.0148269319907,0.0,0.0,0.0,-4.36064874521e-06,0.0148269310594,0.06715272367
122307430306,27,0,honey/haz_cam,-0.0733381509781,-0.0402387045324,0.0629438906908,0.417738318443,-0.495585590601,0.727606713772,-0.224672809243,0.0112113459036,-0.000260287401034,0.000405023776693,0.0,0.0,0.0,-0.000260287342826,0.00952202547342,0.000107959720481,0.0,0.0,0.0,0.000405023805797,0.000107959705929,0.0112118199468,0.0,0.0,0.0,0.0,0.0,0.0,0.0671166628599,-0.0148657942191,-0.000379336386686,0.0,0.0,0.0,-0.0148657942191,0.0594351477921,0.0160546824336,0.0,0.0,0.0,-0.000379336444894,0.016054680571,0.0724545717239
123317585626,28,0,honey/haz_cam,-0.0733379647136,-0.040208555758,0.0630342140794,0.426659047604,-0.501533806324,0.705518126488,-0.262049257755,0.011612852104,-0.000184604898095,0.00043503541383,0.0,0.0,0.0,-0.000184604636161,0.00990829244256,4.78294678032e-05,0.0,0.0,0.0,0.000435035384726,4.78294714412e-05,0.0116101633757,0.0,0.0,0.0,0.0,0.0,0.0,0.0710838213563,-0.0165823567659,-0.000883048982359,0.0,0.0,0.0,-0.0165823567659,0.0615224316716,0.0170154403895,0.0,0.0,0.0,-0.000883049040567,0.0170154422522,0.0769809186459
124287491245,29,0,honey/haz_cam,-0.0733945071697,-0.0401913970709,0.0631139725447,0.441818535328,-0.507818460464,0.673632979393,-0.305180460215,0.0119797205552,-0.000107065672637,0.00048433925258,0.0,0.0,0.0,-0.000107065759948,0.0103835919872,-1.75237437361e-06,0.0,0.0,0.0,0.000484339281684,-1.75237437361e-06,0.0120077785105,0.0,0.0,0.0,0.0,0.0,0.0,0.0769647359848,-0.0188613831997,-0.00149267690722,0.0,0.0,0.0,-0.018861381337,0.0629891753197,0.0180835891515,0.0,0.0,0.0,-0.0014926767908,0.0180835928768,0.0829140543938
125286984533,30,0,honey/haz_cam,-0.0734256282449,-0.040194042027,0.0631528943777,0.45022007823,-0.512201726437,0.650623440742,-0.334126025438,0.0123758958653,-5.2638566558e-05,0.000529295532033,0.0,0.0,0.0,-5.2638570196e-05,0.0108080767095,-4.22712619184e-05,0.0,0.0,0.0,0.000529295590241,-4.22712728323e-05,0.01238795463,0.0,0.0,0.0,0.0,0.0,0.0,0.0813314542174,-0.0206980910152,-0.00214071548544,0.0,0.0,0.0,-0.0206980891526,0.0655851364136,0.0192085113376,0.0,0.0,0.0,-0.00214071548544,0.019208509475,0.0880625024438
126288698060,31,0,honey/haz_cam,-0.0734663903713,-0.0401960425079,0.0631986111403,0.444408863783,-0.523827075958,0.622433900833,-0.375075936317,0.0127533255145,-2.38922712015e-05,0.000577734026592,0.0,0.0,0.0,-2.38922311837e-05,0.0112422360107,-0.000132150424179,0.0,0.0,0.0,0.0005777340848,-0.000132150409627,0.012735712342,0.0,0.0,0.0,0.0,0.0,0.0,0.0859147533774,-0.0225411504507,-0.00262047653086,0.0,0.0,0.0,-0.0225411523134,0.066482052207,0.01947786659,0.0,0.0,0.0,-0.0026204767637,0.0194778684527,0.0934602990746
127298631383,32,0,honey/haz_cam,-0.0735213160515,-0.0402112826705,0.063227802515,0.452853232622,-0.523816645145,0.590152263641,-0.415042459965,0.0131170125678,5.04937961523e-05,0.000636567652691,0.0,0.0,0.0,5.04937488586e-05,0.0116976005957,-0.000169146122062,0.0,0.0,0.0,0.000636567652691,-0.00016914610751,0.0131187178195,0.0,0.0,0.0,0.0,0.0,0.0,0.0918129608035,-0.0248238686472,-0.00361647689715,0.0,0.0,0.0,-0.0248238686472,0.0682795718312,0.0202606655657,0.0,0.0,0.0,-0.00361647666432,0.0202606655657,0.100066356361
128299600457,33,0,honey/haz_cam,-0.0735484957695,-0.0402292199433,0.0632368028164,0.466668754816,-0.527545690536,0.556714355946,-0.440437108278,0.013509397395,0.000100224162452,0.00070255366154,0.0,0.0,0.0,0.000100224300695,0.0121532306075,-0.000187229481526,0.0,0.0,0.0,0.00070255366154,-0.000187229481526,0.0134580666199,0.0,0.0,0.0,0.0,0.0,0.0,0.0971674993634,-0.0262845717371,-0.00469628395513,0.0,0.0,0.0,-0.0262845735997,0.0699679553509,0.0216820165515,0.0,0.0,0.0,-0.00469628442079,0.0216820165515,0.106128275394
129320419053,34,0,honey/haz_cam,-0.0735434219241,-0.0402205735445,0.0632611215115,-0.457767426968,0.532502412796,-0.527640998363,0.478000998497,0.0138713726774,0.000109234904812,0.000770257320255,0.0,0.0,0.0,0.000109234912088,0.0126337334514,-0.000237103871768,0.0,0.0,0.0,0.000770257378463,-0.000237103871768,0.0138168036938,0.0,0.0,0.0,0.0,0.0,0.0,0.102095246315,-0.0279315859079,-0.00549311097711,0.0,0.0,0.0,-0.0279315859079,0.0708281844854,0.0213730614632,0.0,0.0,0.0,-0.00549311144277,0.0213730614632,0.111853592098
130300620243,35,0,honey/haz_cam,-0.073418840766,-0.0405226796865,0.0632629618049,-0.462242931128,0.539330482483,-0.496549397707,0.4988912642,0.0142675964162,0.000118834970635,0.000838669249788,0.0,0.0,0.0,0.000118834956083,0.0130969639868,-0.000251838093391,0.0,0.0,0.0,0.000838669249788,-0.000251838093391,0.0141281429678,0.0,0.0,0.0,0.0,0.0,0.0,0.106317445636,-0.0285221058875,-0.00636878749356,0.0,0.0,0.0,-0.0285221040249,0.0717921182513,0.0224647130817,0.0,0.0,0.0,-0.00636878795922,0.0224647130817,0.116834148765
131310367626,36,0,honey/haz_cam,-0.0733623057604,-0.0404947176576,0.0632668435574,-0.461453229189,0.542317509651,-0.457959353924,0.532189309597,0.0146349556744,0.000121740362374,0.000915374723263,0.0,0.0,0.0,0.000121740362374,0.0135787436739,-0.00026260575396,0.0,0.0,0.0,0.000915374606848,-0.000262605783064,0.0144521240145,0.0,0.0,0.0,0.0,0.0,0.0,0.111579157412,-0.028959531337,-0.00752593902871,0.0,0.0,0.0,-0.0289595331997,0.0713058039546,0.0223168693483,0.0,0.0,0.0,-0.00752593949437,0.0223168712109,0.122664682567
132381472338,37,0,honey/haz_cam,-0.0732336193323,-0.0404455661774,0.0632673576474,-0.460506647825,0.540671229362,-0.423174738884,0.562610924244,0.0150074018165,0.000121814751765,0.000988278770819,0.0,0.0,0.0,0.000121814737213,0.0140702547505,-0.000249553646427,0.0,0.0,0.0,0.000988278887235,-0.000249553646427,0.0148190911859,0.0,0.0,0.0,0.0,0.0,0.0,0.116582602262,-0.0295042805374,-0.00870592426509,0.0,0.0,0.0,-0.0295042786747,0.0718535706401,0.0218870490789,0.0,0.0,0.0,-0.00870592612773,0.0218870472163,0.128370270133
133323919613,38,0,honey/haz_cam,-0.0731027126312,-0.0403894856572,0.0632532313466,-0.464796572924,0.534530639648,-0.387121409178,0.590235292912,0.0153601476923,0.000127185950987,0.0010620461544,0.0,0.0,0.0,0.000127186038299,0.0145473740995,-0.000209382735193,0.0,0.0,0.0,0.0010620461544,-0.000209382720641,0.0151903256774,0.0,0.0,0.0,0.0,0.0,0.0,0.121323987842,-0.0293559003621,-0.00996037572622,0.0,0.0,0.0,-0.0293559022248,0.0716122016311,0.0213034842163,0.0,0.0,0.0,-0.00996037665755,0.0213034842163,0.133173108101
134325071550,39,0,honey/haz_cam,-0.0729729682207,-0.0403590090573,0.0632351264358,-0.467101722956,0.531893610954,-0.349546134472,0.613777041435,0.0157485101372,0.000108336600533,0.00113044679165,0.0,0.0,0.0,0.000108336556877,0.0150220142677,-0.000168211816344,0.0,0.0,0.0,0.00113044667523,-0.000168211772689,0.0155416140333,0.0,0.0,0.0,0.0,0.0,0.0,0.125305607915,-0.0284083820879,-0.0110781844705,0.0,0.0,0.0,-0.0284083839506,0.0712185055017,0.0207244921476,0.0,0.0,0.0,-0.0110781844705,0.0207244902849,0.137639448047
135327755999,40,0,honey/haz_cam,-0.0728950798512,-0.040364112705,0.0632286816835,-0.46773070097,0.530070066452,-0.318829119205,0.631348788738,0.0161482319236,8.22462679935e-05,0.00118915573694,0.0,0.0,0.0,8.22462534416e-05,0.0154853444546,-0.000128578423755,0.0,0.0,0.0,0.00118915573694,-0.000128578423755,0.0158890895545,0.0,0.0,0.0,0.0,0.0,0.0,0.12869758904,-0.0279968269169,-0.0119857518002,0.0,0.0,0.0,-0.0279968269169,0.0715430900455,0.020101999864,0.0,0.0,0.0,-0.0119857527316,0.020101999864,0.141871973872
136335949951,41,0,honey/haz_cam,-0.0727978572249,-0.0403676554561,0.0632179155946,-0.4755448699,0.523264348507,-0.287555843592,0.646036207676,0.0165317282081,7.90901831351e-05,0.00124274555128,0.0,0.0,0.0,7.90901685832e-05,0.0159388203174,-6.07085894444e-05,0.0,0.0,0.0,0.0012427456677,-6.07085821684e-05,0.0162582397461,0.0,0.0,0.0,0.0,0.0,0.0,0.13325381279,-0.0271952506155,-0.0131886601448,0.0,0.0,0.0,-0.0271952524781,0.0716038569808,0.0195671394467,0.0,0.0,0.0,-0.0131886582822,0.0195671375841,0.146674990654
137340034519,42,0,honey/haz_cam,-0.0727481544018,-0.0403753258288,0.0632131174207,-0.480893939734,0.510177612305,-0.263167768717,0.662723243237,0.0168633442372,7.35012654332e-05,0.0012955191778,0.0,0.0,0.0,7.35013236408e-05,0.0163871832192,1.02697385955e-05,0.0,0.0,0.0,0.00129551929422,1.02697240436e-05,0.0166803505272,0.0,0.0,0.0,0.0,0.0,0.0,0.13750860095,-0.026455681771,-0.0141221620142,0.0,0.0,0.0,-0.026455681771,0.0717877969146,0.0182184278965,0.0,0.0,0.0,-0.0141221620142,0.0182184278965,0.150073155761
138320414260,43,0,honey/haz_cam,-0.0727209821343,-0.0403900891542,0.0632092282176,-0.486935436726,0.509091675282,-0.227038294077,0.672437846661,0.0172975286841,5.37706182513e-05,0.00133933860343,0.0,0.0,0.0,5.37705745955e-05,0.016824292019,8.48939453135e-05,0.0,0.0,0.0,0.00133933860343,8.48939380376e-05,0.0170082524419,0.0,0.0,0.0,0.0,0.0,0.0,0.141414478421,-0.0249335095286,-0.015144248493,0.0,0.0,0.0,-0.0249335113913,0.0717482343316,0.0181339196861,0.0,0.0,0.0,-0.015144248493,0.0181339196861,0.155082762241
139301251718,44,0,honey/haz_cam,-0.0727130025625,-0.0404059104621,0.0632056370378,-0.489526122808,0.491685926914,-0.202812239528,0.690996229649,0.0176079217345,3.02099142573e-05,0.00138622394297,0.0,0.0,0.0,3.02098578686e-05,0.0172636695206,0.000166787693161,0.0,0.0,0.0,0.00138622394297,0.000166787693161,0.0174714233726,0.0,0.0,0.0,0.0,0.0,0.0,0.146102622151,-0.0239461492747,-0.0157769918442,0.0,0.0,0.0,-0.0239461492747,0.0722772106528,0.0163613799959,0.0,0.0,0.0,-0.0157769918442,0.0163613799959,0.158306032419
140415140081,45,0,honey/haz_cam,-0.0727135166526,-0.0404204577208,0.0632051825523,-0.483026564121,0.484980523586,-0.161853983998,0.710831880569,0.018011810258,-4.26659898949e-05,0.00142581330147,0.0,0.0,0.0,-4.26659789809e-05,0.0176666881889,0.000245642993832,0.0,0.0,0.0,0.00142581330147,0.00024564305204,0.0178554710001,0.0,0.0,0.0,0.0,0.0,0.0,0.149994626641,-0.0222202502191,-0.0160372350365,0.0,0.0,0.0,-0.0222202502191,0.0715803578496,0.0147435851395,0.0,0.0,0.0,-0.0160372368991,0.0147435842082,0.162530392408
141337848058,46,0,honey/haz_cam,-0.0727004855871,-0.0404222160578,0.0632123202085,-0.483775049448,0.475237846375,-0.126707106829,0.723916769028,0.0184107143432,-6.96118659107e-05,0.00143866392318,0.0,0.0,0.0,-6.9611822255e-05,0.0180843565613,0.000347281718859,0.0,0.0,0.0,0.00143866415601,0.000347281718859,0.0182922966778,0.0,0.0,0.0,0.0,0.0,0.0,0.153329655528,-0.0192222576588,-0.0164413545281,0.0,0.0,0.0,-0.0192222576588,0.071427218616,0.0143462093547,0.0,0.0,0.0,-0.0164413582534,0.0143462084234,0.166109532118
142337803514,47,0,honey/haz_cam,-0.0726988017559,-0.0404273793101,0.0632116869092,-0.481753021479,0.466019034386,-0.0838163495064,0.737369954586,0.0188377462327,-0.000123431847896,0.00145618745591,0.0,0.0,0.0,-0.000123431877,0.0184600036591,0.000443462166004,0.0,0.0,0.0,0.00145618745591,0.000443462195108,0.0186891518533,0.0,0.0,0.0,0.0,0.0,0.0,0.156758546829,-0.0168812274933,-0.0167342759669,0.0,0.0,0.0,-0.0168812274933,0.0712269693613,0.0126523477957,0.0,0.0,0.0,-0.0167342759669,0.0126523477957,0.170499280095
143347629412,48,0,honey/haz_cam,-0.072679027915,-0.0404273420572,0.0631980001926,-0.478533178568,0.450172692537,-0.0467203892767,0.752440810204,0.0192273631692,-0.000175128006958,0.00146547344048,0.0,0.0,0.0,-0.000175127890543,0.0188332274556,0.000536174862646,0.0,0.0,0.0,0.00146547355689,0.000536174920853,0.0191543363035,0.0,0.0,0.0,0.0,0.0,0.0,0.160482674837,-0.0149229569361,-0.0167331025004,0.0,0.0,0.0,-0.0149229560047,0.0721148997545,0.0107373800129,0.0,0.0,0.0,-0.0167331025004,0.0107373800129,0.174165815115
144347571360,49,0,honey/haz_cam,-0.0726505219936,-0.040419396013,0.0631818845868,-0.473258823156,0.434907317162,-0.00557022402063,0.766061425209,0.0196415353566,-0.000228927936405,0.00146388087887,0.0,0.0,0.0,-0.000228927732678,0.019176851958,0.000626440276392,0.0,0.0,0.0,0.00146388099529,0.000626440218184,0.0196114834398,0.0,0.0,0.0,0.0,0.0,0.0,0.163352385163,-0.012758443132,-0.0163745246828,0.0,0.0,0.0,-0.0127584412694,0.0728136301041,0.00852516852319,0.0,0.0,0.0,-0.0163745228201,0.00852516852319,0.177433773875
145302344068,50,0,honey/haz_cam,-0.0726381242275,-0.0404108017683,0.0631649121642,-0.465793550014,0.418024122715,0.0315520837903,0.779291987419,0.0200503952801,-0.000283676752588,0.00145839643665,0.0,0.0,0.0,-0.000283676607069,0.0195100158453,0.000696978066117,0.0,0.0,0.0,0.00145839643665,0.000696978124324,0.0200916975737,0.0,0.0,0.0,0.0,0.0,0.0,0.165732458234,-0.0115871718153,-0.015612567775,0.0,0.0,0.0,-0.011587170884,0.0742069929838,0.00650371098891,0.0,0.0,0.0,-0.0156125687063,0.00650371145457,0.179806753993
146322205586,51,0,honey/haz_cam,-0.0726060494781,-0.0404095686972,0.0631495341659,-0.461399912834,0.39030495286,0.0663124099374,0.793961048126,0.02039591223,-0.000340362865245,0.00143651361577,0.0,0.0,0.0,-0.000340362777933,0.0198221728206,0.000765814795159,0.0,0.0,0.0,0.00143651361577,0.000765814795159,0.0206351224333,0.0,0.0,0.0,0.0,0.0,0.0,0.168040186167,-0.0108119724318,-0.0144074363634,0.0,0.0,0.0,-0.0108119724318,0.0763613805175,0.00407773628831,0.0,0.0,0.0,-0.0144074363634,0.00407773628831,0.180846005678
147347521696,52,0,honey/haz_cam,-0.0725494325161,-0.0404019542038,0.063137434423,-0.446931391954,0.372266322374,0.0906848534942,0.808359861374,0.0207791104913,-0.000414963957155,0.00142797420267,0.0,0.0,0.0,-0.000414963549701,0.0201551038772,0.000768227153458,0.0,0.0,0.0,0.00142797420267,0.000768227037042,0.0211458280683,0.0,0.0,0.0,0.0,0.0,0.0,0.170098587871,-0.0122157195583,-0.0133494604379,0.0,0.0,0.0,-0.0122157214209,0.0782747119665,0.00291273207404,0.0,0.0,0.0,-0.0133494585752,0.00291273230687,0.181805118918
148317498792,53,0,honey/haz_cam,-0.0725246369839,-0.0404109507799,0.0631374493241,-0.438786685467,0.348644345999,0.137191087008,0.816756606102,0.0212226230651,-0.00044101694948,0.00137760338839,0.0,0.0,0.0,-0.000441017124103,0.0204168744385,0.000824473972898,0.0,0.0,0.0,0.00137760350481,0.000824473856483,0.0216556303203,0.0,0.0,0.0,0.0,0.0,0.0,0.171463131905,-0.0116841755807,-0.0117898657918,0.0,0.0,0.0,-0.0116841774434,0.0797917544842,0.00102747383062,0.0,0.0,0.0,-0.0117898657918,0.0010274737142,0.184137567878
149287334083,54,0,honey/haz_cam,-0.0725483745337,-0.0404251143336,0.063141644001,-0.432447344065,0.323712736368,0.187769025564,0.820330202579,0.0216857697815,-0.000427777966252,0.00131479825359,0.0,0.0,0.0,-0.000427778490121,0.0206768959761,0.000879380793776,0.0,0.0,0.0,0.00131479837,0.000879380851984,0.0221692435443,0.0,0.0,0.0,0.0,0.0,0.0,0.173662602901,-0.011519446969,-0.0103178266436,0.0,0.0,0.0,-0.0115194488317,0.0817379280925,-0.000437794777099,0.0,0.0,0.0,-0.0103178257123,-0.000437795097241,0.18816678226
150287102565,55,0,honey/haz_cam,-0.0725204572082,-0.040436655283,0.0631406679749,-0.425885260105,0.297980695963,0.227838873863,0.823357820511,0.0220961216837,-0.000410431879573,0.00126808776986,0.0,0.0,0.0,-0.000410431966884,0.0209547914565,0.000901874736883,0.0,0.0,0.0,0.00126808776986,0.000901874969713,0.0226865746081,0.0,0.0,0.0,0.0,0.0,0.0,0.175916388631,-0.0119999032468,-0.00894762575626,0.0,0.0,0.0,-0.0119999032468,0.0839025527239,-0.00169063964859,0.0,0.0,0.0,-0.00894762575626,-0.00169063941576,0.191103547812
151307402127,56,0,honey/haz_cam,-0.0725171715021,-0.0404410324991,0.0631352066994,-0.415230602026,0.274636805058,0.259700328112,0.82747399807,0.0225182324648,-0.000404056103434,0.00123423233163,0.0,0.0,0.0,-0.00040405621985,0.021266868338,0.000884805107489,0.0,0.0,0.0,0.00123423233163,0.000884805049282,0.0232156254351,0.0,0.0,0.0,0.0,0.0,0.0,0.177770674229,-0.0136520611122,-0.00771491182968,0.0,0.0,0.0,-0.0136520620435,0.086459711194,-0.00254414253868,0.0,0.0,0.0,-0.00771491182968,-0.00254414300434,0.19329084456
152307422993,57,0,honey/haz_cam,-0.0725145637989,-0.0404493696988,0.0631151944399,-0.397464543581,0.258176118135,0.306418865919,0.825514316559,0.0230117514729,-0.00034534765291,0.00120725645684,0.0,0.0,0.0,-0.000345348293195,0.0215333718807,0.000864813860971,0.0,0.0,0.0,0.00120725645684,0.000864813802764,0.0236809421331,0.0,0.0,0.0,0.0,0.0,0.0,0.177953332663,-0.013476382941,-0.00599900586531,0.0,0.0,0.0,-0.0134763810784,0.0864639133215,-0.00313214934431,0.0,0.0,0.0,-0.00599900586531,-0.00313214887865,0.195051208138
153319630548,58,0,honey/haz_cam,-0.072517670691,-0.0404581427574,0.0630970150232,-0.378832638264,0.241655930877,0.34970587492,0.822066485882,0.0234907548875,-0.000276921928162,0.0011910754256,0.0,0.0,0.0,-0.000276922510238,0.0218196567148,0.000824741204269,0.0,0.0,0.0,0.00119107565843,0.000824741262477,0.0241418741643,0.0,0.0,0.0,0.0,0.0,0.0,0.177155956626,-0.0135069359094,-0.00431381911039,0.0,0.0,0.0,-0.013506937772,0.0866190865636,-0.00389217678457,0.0,0.0,0.0,-0.00431381911039,-0.00389217678457,0.195509031415
154350645251,59,0,honey/haz_cam,-0.0725065544248,-0.0404594503343,0.0630868375301,-0.369771510363,0.21914896369,0.390403777361,0.81414180994,0.023895798251,-0.000175431458047,0.00116439117119,0.0,0.0,0.0,-0.000175431414391,0.0221387315542,0.000817191728856,0.0,0.0,0.0,0.00116439117119,0.000817191612441,0.0246182661504,0.0,0.0,0.0,0.0,0.0,0.0,0.176102995872,-0.0134333688766,-0.0028796910774,0.0,0.0,0.0,-0.0134333726019,0.0876593440771,-0.00464457878843,0.0,0.0,0.0,-0.0028796910774,-0.00464457878843,0.19594438374
155351218631,60,0,honey/haz_cam,-0.072513461113,-0.0404638722539,0.0630711242557,-0.349872231483,0.194495812058,0.427108883858,0.810763895512,0.0243283454329,-0.000115120732517,0.00115351646673,0.0,0.0,0.0,-0.000115121096314,0.0224693398923,0.00072884967085,0.0,0.0,0.0,0.00115351646673,0.00072884967085,0.0251236800104,0.0,0.0,0.0,0.0,0.0,0.0,0.175804615021,-0.0142803145573,-0.00133606314193,0.0,0.0,0.0,-0.0142803164199,0.0884138867259,-0.00493794912472,0.0,0.0,0.0,-0.00133606314193,-0.00493794912472,0.195894658566
156321815941,61,0,honey/haz_cam,-0.0724975019693,-0.0404676757753,0.0630539283156,-0.334730029106,0.172767460346,0.464164018631,0.801659703255,0.0247194133699,-1.89078346011e-05,0.00115621590521,0.0,0.0,0.0,-1.89073143702e-05,0.0228165406734,0.000677005620673,0.0,0.0,0.0,0.00115621602163,0.000677005678881,0.0255810916424,0.0,0.0,0.0,0.0,0.0,0.0,0.174718677998,-0.0141259757802,5.79812331125e-05,0.0,0.0,0.0,-0.0141259785742,0.0884319171309,-0.0053671351634,0.0,0.0,0.0,5.79812913202e-05,-0.0053671351634,0.195481240749
157332127424,62,0,honey/haz_cam,-0.0724883675575,-0.0404570773244,0.0630465224385,-0.327733248472,0.146972313523,0.497292637825,0.789740025997,0.0250682737678,8.32303558127e-05,0.00114383664913,0.0,0.0,0.0,8.32304504002e-05,0.0232151709497,0.000657369964756,0.0,0.0,0.0,0.00114383676555,0.000657369964756,0.026079595089,0.0,0.0,0.0,0.0,0.0,0.0,0.173041328788,-0.0143318939954,0.00107230152935,0.0,0.0,0.0,-0.0143318912014,0.0896932557225,-0.00551159167662,0.0,0.0,0.0,0.00107230176218,-0.00551159214228,0.194969892502
158322102841,63,0,honey/haz_cam,-0.0724872127175,-0.0404666848481,0.0630362406373,-0.312357068062,0.132737264037,0.52624219656,0.779668033123,0.0254797004163,0.000161700678291,0.00117511884309,0.0,0.0,0.0,0.00016169945593,0.0236255675554,0.000604266708251,0.0,0.0,0.0,0.00117511872668,0.000604266708251,0.0265185944736,0.0,0.0,0.0,0.0,0.0,0.0,0.172184824944,-0.0148123102263,0.00204351148568,0.0,0.0,0.0,-0.0148123083636,0.0901427716017,-0.00506092282012,0.0,0.0,0.0,0.00204351148568,-0.00506092328578,0.19491019845
159353361945,64,0,honey/haz_cam,-0.0724730789661,-0.0404721349478,0.063040047884,-0.29264330864,0.106401897967,0.558442831039,0.768881857395,0.0258598867804,0.000224171584705,0.00120383594185,0.0,0.0,0.0,0.000224170842557,0.0240391977131,0.000504780211486,0.0,0.0,0.0,0.00120383605827,0.000504780211486,0.026997063309,0.0,0.0,0.0,0.0,0.0,0.0,0.171995699406,-0.0157531760633,0.0030355558265,0.0,0.0,0.0,-0.0157531742007,0.0899548605084,-0.0050938311033,0.0,0.0,0.0,0.0030355558265,-0.0050938311033,0.194808334112
160344908377,65,0,honey/haz_cam,-0.0724668577313,-0.0404762811959,0.0630465075374,-0.275374531746,0.082146845758,0.589571237564,0.754868030548,0.0262022987008,0.000296189624351,0.00124251190573,0.0,0.0,0.0,0.00029618939152,0.0244632940739,0.000432149943663,0.0,0.0,0.0,0.00124251190573,0.00043215000187,0.0274436473846,0.0,0.0,0.0,0.0,0.0,0.0,0.171559765935,-0.0163527354598,0.00396864535287,0.0,0.0,0.0,-0.0163527298719,0.0891991779208,-0.00490653002635,0.0,0.0,0.0,0.00396864442155,-0.00490652956069,0.194611683488
161311805370,66,0,honey/haz_cam,-0.0724490433931,-0.0404839105904,0.0630512908101,-0.250162929296,0.0543611235917,0.623099267483,0.739060103893,0.0265643931925,0.000350771792,0.00129838928115,0.0,0.0,0.0,0.000350771239027,0.024911718443,0.00032376073068,0.0,0.0,0.0,0.00129838939756,0.000323760643369,0.0278858896345,0.0,0.0,0.0,0.0,0.0,0.0,0.172077178955,-0.0165876187384,0.00498042441905,0.0,0.0,0.0,-0.0165876206011,0.0876073092222,-0.00457080919296,0.0,0.0,0.0,0.00498042488471,-0.00457080872729,0.195179596543
162317659706,67,0,honey/haz_cam,-0.0724546611309,-0.0404885262251,0.063060939312,-0.224893704057,0.0293033048511,0.652803003788,0.722780406475,0.0269428566098,0.000387778272852,0.00137058272958,0.0,0.0,0.0,0.000387778185541,0.0253863185644,0.00022375556,0.0,0.0,0.0,0.00137058272958,0.00022375556,0.0283123403788,0.0,0.0,0.0,0.0,0.0,0.0,0.172513335943,-0.0166351590306,0.00575209222734,0.0,0.0,0.0,-0.0166351646185,0.0862309113145,-0.00452903425321,0.0,0.0,0.0,0.005752092693,-0.00452903518453,0.195668250322
163313596579,68,0,honey/haz_cam,-0.072462528944,-0.0404889695346,0.0630722492933,-0.199108272791,0.0121485581622,0.679487109184,0.706048667431,0.0273522268981,0.000421400327468,0.00146351172589,0.0,0.0,0.0,0.000421400181949,0.0258720554411,0.000154730005306,0.0,0.0,0.0,0.0014635118423,0.000154729932547,0.0286910925061,0.0,0.0,0.0,0.0,0.0,0.0,0.172688618302,-0.0161681864411,0.00658647622913,0.0,0.0,0.0,-0.0161681883037,0.0849732086062,-0.0041293031536,0.0,0.0,0.0,0.00658647529781,-0.0041293031536,0.196399360895
164333933359,69,0,honey/haz_cam,-0.0724722966552,-0.0404888950288,0.0630833357573,-0.16465677321,-0.0101499147713,0.708109974861,0.686559855938,0.0277805235237,0.000421689997893,0.00157689361367,0.0,0.0,0.0,0.000421688921051,0.0263751782477,5.42440284335e-05,0.0,0.0,0.0,0.00157689361367,5.42440575373e-05,0.0290441755205,0.0,0.0,0.0,0.0,0.0,0.0,0.172865211964,-0.0152755863965,0.00763612566516,0.0,0.0,0.0,-0.0152755929157,0.0828316137195,-0.00420369906351,0.0,0.0,0.0,0.00763612473384,-0.00420369906351,0.196881040931
165374781744,70,0,honey/haz_cam,-0.0724916011095,-0.0404925756156,0.0630848184228,-0.146820694208,-0.0387310236692,0.729512512684,0.666898906231,0.028093656525,0.000415050395532,0.00164420669898,0.0,0.0,0.0,0.000415049580624,0.0268924720585,1.20698005048e-05,0.0,0.0,0.0,0.00164420658257,1.20698005048e-05,0.0294737499207,0.0,0.0,0.0,0.0,0.0,0.0,0.173346474767,-0.0156205203384,0.0079001551494,0.0,0.0,0.0,-0.0156205212697,0.0820113345981,-0.00429134909064,0.0,0.0,0.0,0.00790015608072,-0.00429134909064,0.197928920388
166315892549,71,0,honey/haz_cam,-0.0724970847368,-0.0404949598014,0.0630876421928,-0.12581372261,-0.0631909668446,0.750246584415,0.645992994308,0.0284493975341,0.000400083925342,0.00172710744664,0.0,0.0,0.0,0.000400083634304,0.0274078920484,-1.88104131666e-05,0.0,0.0,0.0,0.00172710733023,-1.88103840628e-05,0.0298836380243,0.0,0.0,0.0,0.0,0.0,0.0,0.173790231347,-0.0157567020506,0.00841349177063,0.0,0.0,0.0,-0.0157567057759,0.0811180397868,-0.00437113875523,0.0,0.0,0.0,0.00841348990798,-0.00437113875523,0.198916018009
167319793928,72,0,honey/haz_cam,-0.0725024938583,-0.0404951497912,0.0630915537477,-0.10581445694,-0.0858430564404,0.768872559071,0.624714314938,0.02880743891,0.000372694717953,0.00180969689973,0.0,0.0,0.0,0.000372694397811,0.0279165320098,-3.55148476956e-05,0.0,0.0,0.0,0.00180969689973,-3.55148767994e-05,0.0302844252437,0.0,0.0,0.0,0.0,0.0,0.0,0.174001678824,-0.0155711397529,0.00893514789641,0.0,0.0,0.0,-0.0155711378902,0.0803356021643,-0.00451444322243,0.0,0.0,0.0,0.00893514882773,-0.00451444368809,0.199627965689
168319251045,73,0,honey/haz_cam,-0.0725030824542,-0.0404909588397,0.0630999132991,-0.0877609029412,-0.104715496302,0.775911927223,0.61586689949,0.0292061790824,0.000309691706207,0.00187995948363,0.0,0.0,0.0,0.000309692026349,0.0283865947276,-9.64499049587e-05,0.0,0.0,0.0,0.00187995948363,-9.64498758549e-05,0.0306233391166,0.0,0.0,0.0,0.0,0.0,0.0,0.174424856901,-0.0163960661739,0.00891159381717,0.0,0.0,0.0,-0.0163960624486,0.0802596732974,-0.00492586754262,0.0,0.0,0.0,0.00891159381717,-0.00492586754262,0.200245320797
169328905395,74,0,honey/haz_cam,-0.0725068002939,-0.0404888764024,0.063105173409,-0.070228099823,-0.13433547318,0.7911708951,0.592511057854,0.029518108815,0.000244068403845,0.00194234075025,0.0,0.0,0.0,0.000244068738539,0.0288871079683,-0.000105048238765,0.0,0.0,0.0,0.00194234098308,-0.000105048282421,0.0310591179878,0.0,0.0,0.0,0.0,0.0,0.0,0.174812152982,-0.0161466095597,0.00918850582093,0.0,0.0,0.0,-0.0161466132849,0.0793078914285,-0.00551819615066,0.0,0.0,0.0,0.00918850675225,-0.00551819708198,0.200941026211
170320413174,75,0,honey/haz_cam,-0.0725038051605,-0.0404853522778,0.0631057396531,-0.0575560182333,-0.177655398846,0.812995910645,0.551508843899,0.0297126695514,0.000162686104886,0.00194320699666,0.0,0.0,0.0,0.000162686468684,0.029400145635,-5.58757783438e-05,0.0,0.0,0.0,0.00194320711307,-5.58758074476e-05,0.0316321663558,0.0,0.0,0.0,0.0,0.0,0.0,0.173603460193,-0.0165815334767,0.00920149404556,0.0,0.0,0.0,-0.0165815316141,0.0777903273702,-0.00645344378427,0.0,0.0,0.0,0.00920149497688,-0.00645344331861,0.202284350991
171301019494,76,0,honey/haz_cam,-0.0725089237094,-0.0404787249863,0.0631159320474,-0.0364452376962,-0.206003829837,0.818258047104,0.535430848598,0.030130892992,4.32164451922e-05,0.00199980731122,0.0,0.0,0.0,4.321614324e-05,0.0298938360065,-0.000114824986667,0.0,0.0,0.0,0.00199980707839,-0.000114825001219,0.0320311710238,0.0,0.0,0.0,0.0,0.0,0.0,0.174018293619,-0.0155570562929,0.00932451989502,0.0,0.0,0.0,-0.0155570572242,0.0776538103819,-0.00758302211761,0.0,0.0,0.0,0.00932451989502,-0.00758302118629,0.202412739396
172321574755,77,0,honey/haz_cam,-0.0725065544248,-0.040475256741,0.0631198808551,-0.0151864504442,-0.230355933309,0.825365543365,0.515242934227,0.0305383671075,-6.30820140941e-05,0.00206234795041,0.0,0.0,0.0,-6.30818831269e-05,0.0303627289832,-0.000129575782921,0.0,0.0,0.0,0.00206234818324,-0.000129575855681,0.0324099846184,0.0,0.0,0.0,0.0,0.0,0.0,0.174778997898,-0.0140802785754,0.0100024519488,0.0,0.0,0.0,-0.0140802739188,0.0772270411253,-0.00840165745467,0.0,0.0,0.0,0.0100024510175,-0.00840165559202,0.202539116144
173321604162,78,0,honey/haz_cam,-0.0725067779422,-0.0404732562602,0.0631211176515,0.0180369000882,-0.253794997931,0.83077019453,0.495058089495,0.031071677804,-0.000201925053261,0.00215219450183,0.0,0.0,0.0,-0.000201924907742,0.0308358315378,-0.000144902864122,0.0,0.0,0.0,0.00215219450183,-0.000144902878674,0.0327138826251,0.0,0.0,0.0,0.0,0.0,0.0,0.174696028233,-0.0117881810293,0.0114415735006,0.0,0.0,0.0,-0.0117881810293,0.0774699449539,-0.0093144197017,0.0,0.0,0.0,0.0114415735006,-0.00931441877037,0.201985374093
174312705657,79,0,honey/haz_cam,-0.0725102648139,-0.040462076664,0.0631158798933,0.0361254736781,-0.281607598066,0.834263801575,0.472646772861,0.0315430946648,-0.000345027510775,0.00213368865661,0.0,0.0,0.0,-0.000345027598087,0.0314283706248,-0.000173598775291,0.0,0.0,0.0,0.00213368888944,-0.000173598789843,0.0331264138222,0.0,0.0,0.0,0.0,0.0,0.0,0.17716768384,-0.00829643942416,0.0127462856472,0.0,0.0,0.0,-0.00829643942416,0.0772335827351,-0.0062781078741,0.0,0.0,0.0,0.0127462856472,-0.00627810740843,0.204165890813
175315793500,80,0,honey/haz_cam,-0.0725091248751,-0.040459394455,0.063117288053,0.049881927669,-0.309297412634,0.836043775082,0.450418233871,0.0319174602628,-0.000468436366646,0.00214191107079,0.0,0.0,0.0,-0.000468436774099,0.0318715162575,-0.000185347453225,0.0,0.0,0.0,0.00214191130362,-0.000185347511433,0.0335661433637,0.0,0.0,0.0,0.0,0.0,0.0,0.177730962634,-0.00710888253525,0.0130673497915,0.0,0.0,0.0,-0.00710888253525,0.0779441818595,-0.00738608045503,0.0,0.0,0.0,0.0130673488602,-0.00738608045503,0.204184055328
176305978450,81,0,honey/haz_cam,-0.072510458529,-0.0404579043388,0.0631186142564,0.0673558786511,-0.338033258915,0.835887670517,0.427185207605,0.0323500558734,-0.000611808616668,0.00214751344174,0.0,0.0,0.0,-0.00061180855846,0.032317597419,-0.000203374409466,0.0,0.0,0.0,0.00214751344174,-0.000203374394914,0.0339849889278,0.0,0.0,0.0,0.0,0.0,0.0,0.178828269243,-0.00585415633395,0.0136757828295,0.0,0.0,0.0,-0.00585415586829,0.0793584659696,-0.00849347468466,0.0,0.0,0.0,0.0136757818982,-0.00849347468466,0.2042362988
177345603927,82,0,honey/haz_cam,-0.0725181400776,-0.0404572971165,0.063120290637,0.0835572704673,-0.355829715729,0.839680075645,0.40167081356,0.032816182822,-0.000708077161107,0.00216873525642,0.0,0.0,0.0,-0.0007080771029,0.0327392406762,-0.000164189797943,0.0,0.0,0.0,0.00216873525642,-0.000164189783391,0.0344241186976,0.0,0.0,0.0,0.0,0.0,0.0,0.1797080338,-0.00449341675267,0.0147798564285,0.0,0.0,0.0,-0.00449341489002,0.0806513726711,-0.00861365068704,0.0,0.0,0.0,0.0147798573598,-0.00861365161836,0.20529255271
178336129622,83,0,honey/haz_cam,-0.0725238770247,-0.0404561758041,0.0631221979856,0.103886328638,-0.377748966217,0.841737747192,0.371469557285,0.0333042107522,-0.000828351650853,0.00217943848111,0.0,0.0,0.0,-0.000828351592645,0.0331315211952,-0.000125844322611,0.0,0.0,0.0,0.00217943871394,-0.000125844293507,0.0348495841026,0.0,0.0,0.0,0.0,0.0,0.0,0.180821046233,-0.00344071676955,0.0162879172713,0.0,0.0,0.0,-0.00344071816653,0.0819931030273,-0.00893038511276,0.0,0.0,0.0,0.0162879172713,-0.00893038418144,0.206120550632
179378375605,84,0,honey/haz_cam,-0.0725344568491,-0.0404540412128,0.0631260126829,0.12446475774,-0.402017205954,0.840838253498,0.34041211009,0.0338150188327,-0.000958943623118,0.00217169476673,0.0,0.0,0.0,-0.000958944146987,0.0335202813148,-0.00010746337648,0.0,0.0,0.0,0.0021716945339,-0.000107463347376,0.0352877676487,0.0,0.0,0.0,0.0,0.0,0.0,0.182507902384,-0.00307029346004,0.0177811160684,0.0,0.0,0.0,-0.00307029369287,0.0839391648769,-0.00920135620981,0.0,0.0,0.0,0.0177811216563,-0.00920135527849,0.207091122866
180317996206,85,0,honey/haz_cam,-0.0725538060069,-0.0404465049505,0.0631368383765,0.151148200035,-0.416736572981,0.84054428339,0.311397880316,0.0344017148018,-0.00104895292316,0.00219632219523,0.0,0.0,0.0,-0.00104895280674,0.0338670909405,-3.82958278351e-05,0.0,0.0,0.0,0.00219632219523,-3.82958278351e-05,0.0356521382928,0.0,0.0,0.0,0.0,0.0,0.0,0.18393099308,-0.00339880911633,0.0198401492089,0.0,0.0,0.0,-0.0033988088835,0.0857061296701,-0.00829098001122,0.0,0.0,0.0,0.0198401492089,-0.00829098001122,0.208465993404
181319215397,86,0,honey/haz_cam,-0.0725667253137,-0.0404416248202,0.0631433576345,0.175112649798,-0.437813878059,0.835993051529,0.280657917261,0.0349799841642,-0.00115499272943,0.00218472303823,0.0,0.0,0.0,-0.00115499249659,0.0342196114361,-1.19881678984e-05,0.0,0.0,0.0,0.00218472327106,-1.19881678984e-05,0.0360657274723,0.0,0.0,0.0,0.0,0.0,0.0,0.18634404242,-0.0035663023591,0.0216718316078,0.0,0.0,0.0,-0.00356630142778,0.0880754962564,-0.00747872237116,0.0,0.0,0.0,0.0216718316078,-0.0074787219055,0.20988163352
182319588640,87,0,honey/haz_cam,-0.0725751891732,-0.0404376350343,0.0631457418203,0.201308950782,-0.452781826258,0.830449581146,0.254588603973,0.0355767011642,-0.00122122303583,0.0021929605864,0.0,0.0,0.0,-0.00122122326866,0.0345360003412,4.23626843258e-05,0.0,0.0,0.0,0.0021929605864,4.23625970143e-05,0.0364069119096,0.0,0.0,0.0,0.0,0.0,0.0,0.188825622201,-0.00419608457014,0.0235465764999,0.0,0.0,0.0,-0.0041960850358,0.0898923203349,-0.00606495095417,0.0,0.0,0.0,0.0235465764999,-0.00606495048851,0.211274519563
183323695678,88,0,honey/haz_cam,-0.0725685432553,-0.0404387004673,0.0631439611316,0.223217219114,-0.471511781216,0.826496779919,0.211547553539,0.0361512899399,-0.00126301893033,0.00215104711242,0.0,0.0,0.0,-0.0012630186975,0.0348056145012,9.14234915399e-05,0.0,0.0,0.0,0.00215104687959,9.14235206437e-05,0.0369083546102,0.0,0.0,0.0,0.0,0.0,0.0,0.190029829741,-0.00566653627902,0.0256433915347,0.0,0.0,0.0,-0.00566653581336,0.0906476974487,-0.00472448859364,0.0,0.0,0.0,0.0256433933973,-0.0047244890593,0.213573247194
184303858510,89,0,honey/haz_cam,-0.0725656226277,-0.0404401570559,0.0631419718266,0.239656716585,-0.484295874834,0.822759449482,0.176316782832,0.0366851575673,-0.00127084506676,0.00213294802234,0.0,0.0,0.0,-0.00127084495034,0.0351050756872,0.000127486186102,0.0,0.0,0.0,0.00213294825517,0.000127486215206,0.0373949930072,0.0,0.0,0.0,0.0,0.0,0.0,0.191936329007,-0.00760803651065,0.0270418617874,0.0,0.0,0.0,-0.00760803744197,0.0913903042674,-0.00318596605211,0.0,0.0,0.0,0.0270418617874,-0.00318596558645,0.216527059674
185325482182,90,0,honey/haz_cam,-0.0725570842624,-0.0404419153929,0.0631374046206,0.252609193325,-0.492022305727,0.820725858212,0.143214374781,0.037188064307,-0.00124928064179,0.00212212232873,0.0,0.0,0.0,-0.00124928052537,0.035412799567,0.000169044695213,0.0,0.0,0.0,0.00212212232873,0.000169044637005,0.0378944054246,0.0,0.0,0.0,0.0,0.0,0.0,0.192950591445,-0.00941554643214,0.0280792526901,0.0,0.0,0.0,-0.00941554550081,0.0915357545018,-0.00227098120376,0.0,0.0,0.0,0.0280792526901,-0.00227098166943,0.219225525856
186345128686,91,0,honey/haz_cam,-0.0725533440709,-0.0404434427619,0.0631357356906,0.269615709782,-0.50508838892,0.81186580658,0.114304624498,0.0377520881593,-0.00125845964067,0.00210368377157,0.0,0.0,0.0,-0.00125845940784,0.0357444733381,0.000164124518051,0.0,0.0,0.0,0.00210368377157,0.000164124547155,0.0383417494595,0.0,0.0,0.0,0.0,0.0,0.0,0.195263192058,-0.0113429808989,0.0292597990483,0.0,0.0,0.0,-0.0113429818302,0.09309592098,-0.00116368255112,0.0,0.0,0.0,0.0292597971857,-0.00116368255112,0.221025198698
187304354059,92,0,honey/haz_cam,-0.072553306818,-0.0404458194971,0.0631342306733,0.294427365065,-0.518540382385,0.798009514809,0.087221853435,0.0383755117655,-0.00125352374744,0.00208848435432,0.0,0.0,0.0,-0.00125352386385,0.0360440053046,0.000166303128935,0.0,0.0,0.0,0.00208848388866,0.000166303070728,0.0386998355389,0.0,0.0,0.0,0.0,0.0,0.0,0.197933778167,-0.0133408587426,0.0305479206145,0.0,0.0,0.0,-0.0133408596739,0.094677194953,0.00103365874384,0.0,0.0,0.0,0.0305479206145,0.00103365862742,0.221497669816
188343593079,93,0,honey/haz_cam,-0.0725545734167,-0.0404490865767,0.0631300359964,0.32221904397,-0.525592625141,0.785298109055,0.0568551644683,0.0390437021852,-0.00117584795225,0.00207367958501,0.0,0.0,0.0,-0.00117584783584,0.0363440215588,0.000217059932766,0.0,0.0,0.0,0.00207367958501,0.000217059874558,0.0390945710242,0.0,0.0,0.0,0.0,0.0,0.0,0.201137408614,-0.0156616158783,0.031508281827,0.0,0.0,0.0,-0.015661617741,0.0956009477377,0.0040132519789,0.0,0.0,0.0,0.0315082855523,0.0040132519789,0.223573341966
189364826358,94,0,honey/haz_cam,-0.0725547149777,-0.0404490083456,0.0631296336651,0.333341300488,-0.540368080139,0.772346735001,0.0190961584449,0.0395299866796,-0.00114740955178,0.00204425724223,0.0,0.0,0.0,-0.00114740978461,0.036646079272,0.000147944199853,0.0,0.0,0.0,0.00204425724223,0.000147944287164,0.0395824834704,0.0,0.0,0.0,0.0,0.0,0.0,0.203707337379,-0.0183184985071,0.0323590673506,0.0,0.0,0.0,-0.0183184985071,0.0954755172133,0.00471418863162,0.0,0.0,0.0,0.0323590673506,0.0047141877003,0.226011395454
190314487650,95,0,honey/haz_cam,-0.0725512504578,-0.0404499806464,0.0631279721856,0.352884560823,-0.550479590893,0.756499111652,-0.0123248603195,0.0400581099093,-0.00107957504224,0.00203075376339,0.0,0.0,0.0,-0.00107957480941,0.0369607172906,0.000124263489852,0.0,0.0,0.0,0.00203075376339,0.000124263431644,0.0399340093136,0.0,0.0,0.0,0.0,0.0,0.0,0.207440346479,-0.0201678723097,0.0330835096538,0.0,0.0,0.0,-0.0201678741723,0.0958084538579,0.00742142042145,0.0,0.0,0.0,0.0330835171044,0.00742142088711,0.228471308947
191314987104,96,0,honey/haz_cam,-0.0725475996733,-0.0404478982091,0.063129581511,0.370033383369,-0.564813911915,0.736063718796,-0.0476321652532,0.0406210571527,-0.00103196280543,0.00200350699015,0.0,0.0,0.0,-0.0010319625726,0.0372980497777,3.15366160066e-05,0.0,0.0,0.0,0.00200350699015,3.15366160066e-05,0.0403471030295,0.0,0.0,0.0,0.0,0.0,0.0,0.211917161942,-0.0233462434262,0.0337382890284,0.0,0.0,0.0,-0.0233462397009,0.0967372730374,0.00928535591811,0.0,0.0,0.0,0.0337382815778,0.00928535498679,0.231370523572
192305246461,97,0,honey/haz_cam,-0.0725343450904,-0.0404471382499,0.0631303340197,0.392652273178,-0.575273394585,0.712910413742,-0.0814948230982,0.0412344969809,-0.000920031685382,0.00198891758919,0.0,0.0,0.0,-0.000920031627174,0.0376455895603,-1.35161581056e-05,0.0,0.0,0.0,0.00198891735636,-1.35161872095e-05,0.0407349057496,0.0,0.0,0.0,0.0,0.0,0.0,0.217981651425,-0.0242200884968,0.0338564887643,0.0,0.0,0.0,-0.0242200884968,0.0968192219734,0.0127332983539,0.0,0.0,0.0,0.0338564887643,0.0127332983539,0.235584184527
193321622042,98,0,honey/haz_cam,-0.0725409761071,-0.0404452830553,0.0631311833858,0.409174472094,-0.583385229111,0.691744565964,-0.117154479027,0.0417889878154,-0.000798157940153,0.00199131295085,0.0,0.0,0.0,-0.000798158056568,0.0380346737802,-7.12745604687e-05,0.0,0.0,0.0,0.00199131271802,-7.12746186764e-05,0.0411720462143,0.0,0.0,0.0,0.0,0.0,0.0,0.223548263311,-0.0246230512857,0.0337456278503,0.0,0.0,0.0,-0.0246230512857,0.0961715579033,0.014857981354,0.0,0.0,0.0,0.0337456315756,0.0148579832166,0.240480899811
194321809834,99,0,honey/haz_cam,-0.0725605711341,-0.0404434017837,0.06313803792,0.424706190825,-0.585926055908,0.673363387585,-0.151310548186,0.0422850959003,-0.000645386928227,0.00201730476692,0.0,0.0,0.0,-0.000645386928227,0.0384244322777,-9.13819530979e-05,0.0,0.0,0.0,0.00201730476692,-9.13819822017e-05,0.0416155457497,0.0,0.0,0.0,0.0,0.0,0.0,0.227823451161,-0.0246999412775,0.0333902984858,0.0,0.0,0.0,-0.0246999431401,0.0946646928787,0.0169686377048,0.0,0.0,0.0,0.0333902984858,0.0169686395675,0.24460247159
195341915845,100,0,honey/haz_cam,-0.0725566521287,-0.0404408499599,0.0631416812539,0.430567026138,-0.591931462288,0.656471848488,-0.182405278087,0.042667530477,-0.000562521803658,0.00205288920552,0.0,0.0,0.0,-0.000562521803658,0.0388726405799,-0.000164800803759,0.0,0.0,0.0,0.00205288920552,-0.000164800774655,0.0419954024255,0.0,0.0,0.0,0.0,0.0,0.0,0.23241648078,-0.0240984167904,0.033042833209,0.0,0.0,0.0,-0.0240984205157,0.0934052318335,0.0175343547016,0.0,0.0,0.0,0.033042833209,0.0175343547016,0.249412387609
196345895092,101,0,honey/haz_cam,-0.0725229606032,-0.0404387190938,0.0631453096867,0.433902293444,-0.597311317921,0.638141870499,-0.21845073998,0.0430868342519,-0.000481280003441,0.00209886417724,0.0,0.0,0.0,-0.000481279945234,0.0393336154521,-0.000254445621977,0.0,0.0,0.0,0.00209886417724,-0.000254445621977,0.0425012223423,0.0,0.0,0.0,0.0,0.0,0.0,0.236412480474,-0.0229976903647,0.0327263660729,0.0,0.0,0.0,-0.0229976885021,0.0918888747692,0.0174543764442,0.0,0.0,0.0,0.0327263697982,0.0174543764442,0.253846377134
197331742075,102,0,honey/haz_cam,-0.0725175514817,-0.0404392667115,0.0631444454193,0.437452375889,-0.606747210026,0.617446959019,-0.243413031101,0.0435583926737,-0.000461940071546,0.00213681138121,0.0,0.0,0.0,-0.00046193995513,0.0398280136287,-0.000356207136065,0.0,0.0,0.0,0.00213681114838,-0.000356207194272,0.0429021120071,0.0,0.0,0.0,0.0,0.0,0.0,0.24090065062,-0.0207220986485,0.0320606306195,0.0,0.0,0.0,-0.0207221042365,0.0915669947863,0.0180216822773,0.0,0.0,0.0,0.0320606268942,0.01802168414,0.257306754589
198332303947,103,0,honey/haz_cam,-0.0725558251143,-0.0404438227415,0.0631411522627,-0.456226378679,0.612617909908,-0.584509074688,0.273684978485,0.0441138036549,-0.000338593701599,0.00217936770059,0.0,0.0,0.0,-0.000338593643392,0.0403113253415,-0.000387933978345,0.0,0.0,0.0,0.00217936770059,-0.000387933949241,0.0432079397142,0.0,0.0,0.0,0.0,0.0,0.0,0.247833445668,-0.0165664013475,0.030548427254,0.0,0.0,0.0,-0.0165664013475,0.0898917242885,0.0200614370406,0.0,0.0,0.0,0.0305484253913,0.0200614370406,0.262134820223
199322081772,104,0,honey/haz_cam,-0.0725527331233,-0.0404437854886,0.0631439685822,-0.461302608252,0.615398943424,-0.563759624958,0.301092416048,0.0445436649024,-0.000277857965557,0.00224191485904,0.0,0.0,0.0,-0.000277857645415,0.0408091247082,-0.000435594411101,0.0,0.0,0.0,0.00224191485904,-0.000435594440205,0.0436154827476,0.0,0.0,0.0,0.0,0.0,0.0,0.251488655806,-0.0142523571849,0.0298617798835,0.0,0.0,0.0,-0.0142523571849,0.0887698382139,0.0195459406823,0.0,0.0,0.0,0.0298617798835,0.0195459425449,0.266038686037
200311817849,105,0,honey/haz_cam,-0.072549469769,-0.0404435992241,0.063145853579,-0.475953817368,0.622437536716,-0.532830238342,0.319575965405,0.0451382659376,-0.000228393764701,0.00227668322623,0.0,0.0,0.0,-0.000228392906138,0.0413327328861,-0.000461920688394,0.0,0.0,0.0,0.0022766829934,-0.00046192080481,0.0438857749104,0.0,0.0,0.0,0.0,0.0,0.0,0.257554292679,-0.0102175148204,0.0280006527901,0.0,0.0,0.0,-0.010217516683,0.0886231735349,0.0212534070015,0.0,0.0,0.0,0.0280006527901,0.0212534088641,0.26965674758
201313011918,106,0,honey/haz_cam,-0.0725471824408,-0.0404430180788,0.0631468966603,-0.483028948307,0.623907089233,-0.507813036442,0.345754623413,0.0455813594162,-0.000166114055901,0.0023448895663,0.0,0.0,0.0,-0.000166113779414,0.0418407097459,-0.000476363056805,0.0,0.0,0.0,0.0023448895663,-0.000476363085909,0.0442526564002,0.0,0.0,0.0,0.0,0.0,0.0,0.262294143438,-0.00783904734999,0.0270159319043,0.0,0.0,0.0,-0.00783904921263,0.0876271575689,0.0218105521053,0.0,0.0,0.0,0.0270159356296,0.021810553968,0.274544626474
202314362497,107,0,honey/haz_cam,-0.0725598558784,-0.0404400974512,0.0631504878402,-0.496777743101,0.62263250351,-0.478939682245,0.368991404772,0.0460627824068,-6.48599962005e-05,0.00240491470322,0.0,0.0,0.0,-6.48596469546e-05,0.0423468127847,-0.000441856187535,0.0,0.0,0.0,0.00240491493605,-0.000441856274847,0.0445748567581,0.0,0.0,0.0,0.0,0.0,0.0,0.268240720034,-0.00482081994414,0.0253387354314,0.0,0.0,0.0,-0.00482082180679,0.0864150524139,0.0230458900332,0.0,0.0,0.0,0.0253387354314,0.0230458881706,0.280232429504
203297789637,108,0,honey/haz_cam,-0.0725742727518,-0.0404378995299,0.0631513223052,-0.501028716564,0.629836916924,-0.445365071297,0.392329990864,0.0465914309025,-8.21683788672e-05,0.00244944542646,0.0,0.0,0.0,-8.2168407971e-05,0.0428947471082,-0.000480977294501,0.0,0.0,0.0,0.00244944519363,-0.000480977294501,0.0448565594852,0.0,0.0,0.0,0.0,0.0,0.0,0.274837106466,-0.00268590496853,0.0239133816212,0.0,0.0,0.0,-0.00268590752967,0.0863114744425,0.023684900254,0.0,0.0,0.0,0.0239133834839,0.0236848965287,0.285722076893
204309744046,109,0,honey/haz_cam,-0.0725775137544,-0.0404408201575,0.0631435960531,-0.497843414545,0.627056419849,-0.420656144619,0.426611810923,0.0469165220857,-6.00819803367e-05,0.0025587331038,0.0,0.0,0.0,-6.00818639214e-05,0.0434275902808,-0.00048422042164,0.0,0.0,0.0,0.00255873263814,-0.00048422042164,0.0453284531832,0.0,0.0,0.0,0.0,0.0,0.0,0.278928667307,-0.00181064754725,0.023545878008,0.0,0.0,0.0,-0.001810647198,0.0850368887186,0.0221904050559,0.0,0.0,0.0,0.023545878008,0.0221904069185,0.290158390999
205320399549,110,0,honey/haz_cam,-0.0726528391242,-0.0404391996562,0.0631459280849,-0.503940761089,0.621286690235,-0.399047553539,0.448112249374,0.047311887145,3.91296634916e-06,0.00263407011516,0.0,0.0,0.0,3.91248886444e-06,0.0439555458724,-0.000437647948274,0.0,0.0,0.0,0.00263406988233,-0.000437647890067,0.0457283742726,0.0,0.0,0.0,0.0,0.0,0.0,0.284576803446,6.91507011652e-08,0.0226816721261,0.0,0.0,0.0,6.67059794068e-08,0.0843698978424,0.0201443098485,0.0,0.0,0.0,0.0226816721261,0.0201443098485,0.296918779612
206300862577,111,0,honey/haz_cam,-0.0726180300117,-0.0404376015067,0.0631475746632,-0.518233716488,0.616677999496,-0.368463933468,0.46408316493,0.0478197298944,0.000116760093078,0.00267924391665,0.0,0.0,0.0,0.000116760405945,0.0444936901331,-0.000316681776894,0.0,0.0,0.0,0.00267924391665,-0.000316681835102,0.0460719764233,0.0,0.0,0.0,0.0,0.0,0.0,0.289405703545,0.00584579166025,0.0204572882503,0.0,0.0,0.0,0.00584579911083,0.084044829011,0.020908407867,0.0,0.0,0.0,0.020457290113,0.020908407867,0.30198481679
207350912440,112,0,honey/haz_cam,-0.0726103112102,-0.0404382348061,0.0631467700005,-0.522871077061,0.610692560673,-0.33620351553,0.490534722805,0.0482517555356,0.000152202192112,0.00275726243854,0.0,0.0,0.0,0.000152202759637,0.0450482517481,-0.000237884814851,0.0,0.0,0.0,0.00275726243854,-0.00023788496037,0.0465121790767,0.0,0.0,0.0,0.0,0.0,0.0,0.294187963009,0.008305657655,0.0196039807051,0.0,0.0,0.0,0.00830566044897,0.0835561007261,0.0206121969968,0.0,0.0,0.0,0.0196039788425,0.0206121969968,0.307747095823
