%time,field.header.seq,field.header.stamp,field.header.frame_id,field.pose.pose.position.x,field.pose.pose.position.y,field.pose.pose.position.z,field.pose.pose.orientation.x,field.pose.pose.orientation.y,field.pose.pose.orientation.z,field.pose.pose.orientation.w,field.pose.covariance0,field.pose.covariance1,field.pose.covariance2,field.pose.covariance3,field.pose.covariance4,field.pose.covariance5,field.pose.covariance6,field.pose.covariance7,field.pose.covariance8,field.pose.covariance9,field.pose.covariance10,field.pose.covariance11,field.pose.covariance12,field.pose.covariance13,field.pose.covariance14,field.pose.covariance15,field.pose.covariance16,field.pose.covariance17,field.pose.covariance18,field.pose.covariance19,field.pose.covariance20,field.pose.covariance21,field.pose.covariance22,field.pose.covariance23,field.pose.covariance24,field.pose.covariance25,field.pose.covariance26,field.pose.covariance27,field.pose.covariance28,field.pose.covariance29,field.pose.covariance30,field.pose.covariance31,field.pose.covariance32,field.pose.covariance33,field.pose.covariance34,field.pose.covariance35
29330689418,0,0,honey/haz_cam,-0.0199224576354,0.00670384475961,0.00435798801482,0.0266942735761,-0.0268103890121,0.734071075916,0.678017795086,0.000399991928134,-4.14768202006e-08,1.64043774475e-06,0.0,0.0,0.0,-4.14768202006e-08,0.000413366331486,3.23073159336e-08,0.0,0.0,0.0,1.64043774475e-06,3.23073372499e-08,0.000400060001994,0.0,0.0,0.0,0.0,0.0,0.0,0.0015567985829,1.75264833757e-08,-6.45137833999e-06,0.0,0.0,0.0,1.75264531777e-08,0.00156154134311,1.15205498474e-08,0.0,0.0,0.0,-6.45137833999e-06,1.1520493004e-08,0.00159202609211
30302252283,1,0,honey/haz_cam,-0.0329494252801,0.00713847903535,0.00824035704136,0.0478585362434,-0.0440641529858,0.756290972233,0.650992751122,0.000796406995505,-1.12858901957e-06,4.5914562179e-06,0.0,0.0,0.0,-1.12858913326e-06,0.000822051428258,9.32061482217e-07,0.0,0.0,0.0,4.5914562179e-06,9.3206136853e-07,0.000797378597781,0.0,0.0,0.0,0.0,0.0,0.0,0.00316088763066,-4.27101440437e-06,-1.23028567032e-05,0.0,0.0,0.0,-4.27101485911e-06,0.00318087730557,2.05497258321e-06,0.0,0.0,0.0,-1.23028567032e-05,2.05497235584e-06,0.00324716977775
31342299325,2,0,honey/haz_cam,-0.0417385585606,0.00720632076263,0.0114922737703,0.0722934529185,-0.0660842061043,0.778531253338,0.619915664196,0.00119755871128,-3.44701652466e-06,8.78805622051e-06,0.0,0.0,0.0,-3.44701652466e-06,0.00123318389524,2.98235249829e-06,0.0,0.0,0.0,8.78805622051e-06,2.98235295304e-06,0.00119928934146,0.0,0.0,0.0,0.0,0.0,0.0,0.00490371556953,-1.65136734722e-05,-1.45858052747e-06,0.0,0.0,0.0,-1.65136698342e-05,0.00501208472997,1.13833193609e-05,0.0,0.0,0.0,-1.45858075484e-06,1.13833193609e-05,0.00512388022617
32311995146,3,0,honey/haz_cam,-0.0475745797157,0.00719657540321,0.0139835411683,0.0899840667844,-0.0796437487006,0.79849332571,0.589888095856,0.00159493088722,-6.48846526019e-06,1.26946388264e-05,0.0,0.0,0.0,-6.48846616969e-06,0.00164050946478,5.26836402059e-06,0.0,0.0,0.0,1.26946379169e-05,5.26836447534e-06,0.00159892672673,0.0,0.0,0.0,0.0,0.0,0.0,0.00664010364562,-4.01963698096e-05,2.82364508166e-05,0.0,0.0,0.0,-4.01963698096e-05,0.00700493296608,2.52559311775e-05,0.0,0.0,0.0,2.82364508166e-05,2.52559311775e-05,0.00710991350934
33311807340,4,0,honey/haz_cam,-0.0510290674865,0.0072272727266,0.0155601622537,0.115756958723,-0.0952381938696,0.812178015709,0.563823282719,0.00199655327015,-9.8806058304e-06,1.69447066583e-05,0.0,0.0,0.0,-9.8806067399e-06,0.002049052855,8.70058283908e-06,0.0,0.0,0.0,1.69447048393e-05,8.70058374858e-06,0.00199988810346,0.0,0.0,0.0,0.0,0.0,0.0,0.00839872751385,-7.99595873104e-05,8.34597158246e-05,0.0,0.0,0.0,-7.99595873104e-05,0.00938752200454,5.70064221392e-05,0.0,0.0,0.0,8.34597085486e-05,5.70064221392e-05,0.00939751602709
34472644105,5,0,honey/haz_cam,-0.0525168292224,0.00735133094713,0.0162312444299,0.138597249985,-0.116266921163,0.827085614204,0.532167494297,0.00240126019344,-1.4636942069e-05,2.12536106119e-05,0.0,0.0,0.0,-1.46369411596e-05,0.00245832186192,1.31078750201e-05,0.0,0.0,0.0,2.12536106119e-05,1.31078722916e-05,0.00240449653938,0.0,0.0,0.0,0.0,0.0,0.0,0.0101612973958,-0.000159260845976,0.000173054606421,0.0,0.0,0.0,-0.000159260845976,0.0123149994761,0.000120534481539,0.0,0.0,0.0,0.000173054606421,0.000120534481539,0.0120524512604
35429727049,6,0,honey/haz_cam,-0.0529912598431,0.00747082242742,0.0164333302528,0.156422957778,-0.138200059533,0.841964364052,0.497522413731,0.00280187954195,-2.03690724447e-05,2.52915142482e-05,0.0,0.0,0.0,-2.03690706257e-05,0.00286224880256,1.78407262865e-05,0.0,0.0,0.0,2.52915142482e-05,1.78407262865e-05,0.0028063156642,0.0,0.0,0.0,0.0,0.0,0.0,0.011897707358,-0.00028553060838,0.000314315839205,0.0,0.0,0.0,-0.00028553060838,0.0149543182924,0.000215351625229,0.0,0.0,0.0,0.000314315839205,0.000215351596125,0.0143393110484
36390874720,7,0,honey/haz_cam,-0.0530211105943,0.00756376795471,0.0164540335536,0.179760813713,-0.149602308869,0.850533127785,0.471061110497,0.00320468959399,-2.47690404649e-05,2.89307718049e-05,0.0,0.0,0.0,-2.47690422839e-05,0.00326760276221,2.27537984756e-05,0.0,0.0,0.0,2.89307718049e-05,2.27538021136e-05,0.00320789776742,0.0,0.0,0.0,0.0,0.0,0.0,0.0137000586838,-0.000423556630267,0.000448329432402,0.0,0.0,0.0,-0.000423556659371,0.0176592748612,0.000326413748553,0.0,0.0,0.0,0.000448329315986,0.000326413748553,0.0166322309524
37493729104,8,0,honey/haz_cam,-0.0530700720847,0.00760075170547,0.0165058318526,0.202552199364,-0.17116458714,0.861101329327,0.433796882629,0.00361034763046,-3.13971904689e-05,3.19353639497e-05,0.0,0.0,0.0,-3.13971868309e-05,0.00367076462135,2.90351981675e-05,0.0,0.0,0.0,3.19353675877e-05,2.90351981675e-05,0.0036133187823,0.0,0.0,0.0,0.0,0.0,0.0,0.0157004334033,-0.000670658773743,0.000713848217856,0.0,0.0,0.0,-0.000670658715535,0.0205406751484,0.000533345155418,0.0,0.0,0.0,0.000713848217856,0.000533345155418,0.0190835874528
38468854908,9,0,honey/haz_cam,-0.0533816106617,0.00758602796122,0.0166986938566,0.227021127939,-0.183516040444,0.867387831211,0.403015643358,0.00401754444465,-3.63738836313e-05,3.47699278791e-05,0.0,0.0,0.0,-3.63738799933e-05,0.00407519843429,3.51183916791e-05,0.0,0.0,0.0,3.47699278791e-05,3.51183989551e-05,0.00401896797121,0.0,0.0,0.0,0.0,0.0,0.0,0.0177591945976,-0.000929729954805,0.000977518153377,0.0,0.0,0.0,-0.000929729896598,0.0233208462596,0.000767726683989,0.0,0.0,0.0,0.000977518269792,0.000767726683989,0.0214906800538
39376975158,10,0,honey/haz_cam,-0.0540039725602,0.00754435220733,0.0170428138226,0.249646559358,-0.202754318714,0.87140083313,0.37044262886,0.00442784931511,-4.19646603405e-05,3.68748114852e-05,0.0,0.0,0.0,-4.19646567025e-05,0.0044793128036,4.13335328631e-05,0.0,0.0,0.0,3.68748114852e-05,4.13335328631e-05,0.00442762533203,0.0,0.0,0.0,0.0,0.0,0.0,0.0200156923383,-0.00126339914277,0.00131727720145,0.0,0.0,0.0,-0.00126339914277,0.0261487551033,0.00110024935566,0.0,0.0,0.0,0.00131727720145,0.00110024935566,0.0240149646997
40456900413,11,0,honey/haz_cam,-0.0548850372434,0.00750131485984,0.0175177697092,0.270847976208,-0.21874396503,0.876540362835,0.332369238138,0.00484196934849,-4.76377026644e-05,3.80493693228e-05,0.0,0.0,0.0,-4.76377063023e-05,0.00488431425765,4.75955093862e-05,0.0,0.0,0.0,3.80493693228e-05,4.75955057482e-05,0.00484112929553,0.0,0.0,0.0,0.0,0.0,0.0,0.0224346574396,-0.00171976804268,0.00174327986315,0.0,0.0,0.0,-0.00171976804268,0.0291417241096,0.00152171053924,0.0,0.0,0.0,0.00174327986315,0.00152171077207,0.0268698632717
41386799696,12,0,honey/haz_cam,-0.0556022152305,0.00748074473813,0.0178917534649,0.283554285765,-0.23947173357,0.880021452904,0.296331495047,0.00525035709143,-5.37117412023e-05,3.92064393964e-05,0.0,0.0,0.0,-5.37117448403e-05,0.0052836285904,5.21257425135e-05,0.0,0.0,0.0,3.92064393964e-05,5.21257388755e-05,0.00525011355057,0.0,0.0,0.0,0.0,0.0,0.0,0.0249206833541,-0.00223147217184,0.00226236437447,0.0,0.0,0.0,-0.00223147240467,0.0314572006464,0.00199538469315,0.0,0.0,0.0,0.0022623646073,0.00199538446032,0.0292783118784
42377995713,13,0,honey/haz_cam,-0.05623152107,0.00747368717566,0.0182121694088,0.301979482174,-0.253208488226,0.880294680595,0.264149308205,0.00566242123023,-5.75860904064e-05,4.01807556045e-05,0.0,0.0,0.0,-5.75860904064e-05,0.00568564562127,5.70457013964e-05,0.0,0.0,0.0,4.01807592425e-05,5.70456977584e-05,0.00566096184775,0.0,0.0,0.0,0.0,0.0,0.0,0.0275497101247,-0.00273650023155,0.00274645187892,0.0,0.0,0.0,-0.00273649999872,0.0339809395373,0.00252691470087,0.0,0.0,0.0,0.00274645187892,0.00252691470087,0.0318995118141
43466438984,14,0,honey/haz_cam,-0.0567559525371,0.00747678242624,0.0184698998928,0.318667024374,-0.264157474041,0.881841242313,0.225893750787,0.00607726536691,-6.12742660451e-05,4.02018267778e-05,0.0,0.0,0.0,-6.12742660451e-05,0.00608780514449,6.18625927018e-05,0.0,0.0,0.0,4.02018267778e-05,6.18625999778e-05,0.00607589120045,0.0,0.0,0.0,0.0,0.0,0.0,0.0303824096918,-0.00342772039585,0.00331971375272,0.0,0.0,0.0,-0.00342772062868,0.0367847643793,0.00315939309075,0.0,0.0,0.0,0.00331971375272,0.00315939309075,0.0350381247699
44385150728,15,0,honey/haz_cam,-0.0571061111987,0.00748425861821,0.0186326354742,0.326387673616,-0.278321802616,0.882462143898,0.193050161004,0.00648728897795,-6.55877738609e-05,4.09509266319e-05,0.0,0.0,0.0,-6.55877665849e-05,0.00648824311793,6.41680380795e-05,0.0,0.0,0.0,4.09509302699e-05,6.41680380795e-05,0.006487573497,0.0,0.0,0.0,0.0,0.0,0.0,0.0330837294459,-0.00410556513816,0.00383472023532,0.0,0.0,0.0,-0.00410556513816,0.0391239225864,0.00371559802443,0.0,0.0,0.0,0.00383471976966,0.0037155977916,0.0378628596663
45494620308,16,0,honey/haz_cam,-0.0573424957693,0.00749322259799,0.0187342464924,0.334555804729,-0.289228349924,0.882752835751,0.158640012145,0.00690381694585,-6.90265296726e-05,4.1243591113e-05,0.0,0.0,0.0,-6.90265296726e-05,0.00689369719476,6.64422477712e-05,0.0,0.0,0.0,4.1243591113e-05,6.64422404952e-05,0.00690567214042,0.0,0.0,0.0,0.0,0.0,0.0,0.0359385311604,-0.00490012671798,0.00435017375275,0.0,0.0,0.0,-0.00490012625232,0.0419382080436,0.00431460002437,0.0,0.0,0.0,0.00435017328709,0.00431460002437,0.0413307733834
46343027211,17,0,honey/haz_cam,-0.0574681311846,0.0075001497753,0.0187829304487,0.351602911949,-0.299263447523,0.879591464996,0.114609852433,0.00731804128736,-7.0346002758e-05,3.88936314266e-05,0.0,0.0,0.0,-7.0346002758e-05,0.00728902593255,6.99691590853e-05,0.0,0.0,0.0,3.88936314266e-05,6.99691663613e-05,0.00732002127916,0.0,0.0,0.0,0.0,0.0,0.0,0.0394685901701,-0.00596239976585,0.00506730657071,0.0,0.0,0.0,-0.00596239930019,0.044567361474,0.00524153234437,0.0,0.0,0.0,0.00506730610505,0.00524153234437,0.0449882112443
47394195238,18,0,honey/haz_cam,-0.0575249828398,0.00750439800322,0.0188008658588,0.376088291407,-0.315139889717,0.868562400341,0.0695960745215,0.00774257490411,-7.03024634277e-05,3.49092879333e-05,0.0,0.0,0.0,-7.03024707036e-05,0.0076900087297,7.17844086466e-05,0.0,0.0,0.0,3.49092879333e-05,7.17844231986e-05,0.00774431461468,0.0,0.0,0.0,0.0,0.0,0.0,0.0439552925527,-0.00713358307257,0.00587767735124,0.0,0.0,0.0,-0.00713358260691,0.0479139313102,0.00657928967848,0.0,0.0,0.0,0.00587767735124,0.00657929060981,0.0495648607612
48353086964,19,0,honey/haz_cam,-0.0575381480157,0.00750571489334,0.0188048779964,0.392235696316,-0.32957303524,0.858057022095,0.0356495790184,0.00816597975791,-6.95171038387e-05,3.42880084645e-05,0.0,0.0,0.0,-6.95170965628e-05,0.00809618923813,7.17951188562e-05,0.0,0.0,0.0,3.42880048265e-05,7.17951188562e-05,0.00816656369716,0.0,0.0,0.0,0.0,0.0,0.0,0.0480658747256,-0.00808258447796,0.00649771979079,0.0,0.0,0.0,-0.00808258447796,0.0507649667561,0.00770301558077,0.0,0.0,0.0,0.00649772025645,0.00770301558077,0.053552325815
49372881903,20,0,honey/haz_cam,-0.0575480498374,0.0075049395673,0.0188133306801,0.402626812458,-0.342029064894,0.849062263966,-0.000993372988887,0.00859096739441,-6.82666650391e-05,3.35956865456e-05,0.0,0.0,0.0,-6.8266679591e-05,0.00850489083678,7.02398101566e-05,0.0,0.0,0.0,3.35956865456e-05,7.02398028807e-05,0.00859150290489,0.0,0.0,0.0,0.0,0.0,0.0,0.0522035807371,-0.0092039424926,0.00708771310747,0.0,0.0,0.0,-0.00920394435525,0.0535727627575,0.0087525723502,0.0,0.0,0.0,0.00708771310747,0.00875257141888,0.0579627901316
50341851581,21,0,honey/haz_cam,-0.0575769133866,0.00750348251313,0.0188333149999,0.411939710379,-0.355812340975,0.837963163853,-0.0389992035925,0.00901668798178,-6.63607061142e-05,3.27539128193e-05,0.0,0.0,0.0,-6.63606988383e-05,0.008913686499,6.72345413477e-05,0.0,0.0,0.0,3.27539128193e-05,6.72345267958e-05,0.00901678856462,0.0,0.0,0.0,0.0,0.0,0.0,0.0567383728921,-0.0104185529053,0.00766490539536,0.0,0.0,0.0,-0.0104185538366,0.0562425926328,0.00989677384496,0.0,0.0,0.0,0.00766490539536,0.00989677384496,0.0626294016838
51342023593,22,0,honey/haz_cam,-0.0576134026051,0.00750181265175,0.0188595317304,0.424102365971,-0.367203116417,0.824572563171,-0.0733419209719,0.00943841505796,-6.29483911325e-05,3.28589776473e-05,0.0,0.0,0.0,-6.29483765806e-05,0.00932088680565,6.4483989263e-05,0.0,0.0,0.0,3.28589776473e-05,6.4483989263e-05,0.00943797733635,0.0,0.0,0.0,0.0,0.0,0.0,0.0614536479115,-0.0114957820624,0.00820390321314,0.0,0.0,0.0,-0.0114957811311,0.0586247965693,0.0111163761467,0.0,0.0,0.0,0.00820390228182,0.0111163752154,0.0670144185424
52363351778,23,0,honey/haz_cam,-0.0576775707304,0.00749990623444,0.0188983380795,0.429845780134,-0.3746278584,0.813654899597,-0.113366775215,0.00986622553319,-5.87432696193e-05,3.27794768964e-05,0.0,0.0,0.0,-5.87432659813e-05,0.00973463431001,6.10907372902e-05,0.0,0.0,0.0,3.27794805344e-05,6.10907372902e-05,0.00986704975367,0.0,0.0,0.0,0.0,0.0,0.0,0.0662271305919,-0.0128893535584,0.00868402700871,0.0,0.0,0.0,-0.0128893554211,0.0613241754472,0.0121417045593,0.0,0.0,0.0,0.00868402700871,0.0121417054906,0.0725320130587
53371473925,24,0,honey/haz_cam,-0.0577368922532,0.00749820657074,0.0189345665276,0.444325119257,-0.383656531572,0.79476749897,-0.154036566615,0.0102884732187,-5.19769128005e-05,3.19930295518e-05,0.0,0.0,0.0,-5.19769128005e-05,0.0101426523179,5.66473390791e-05,0.0,0.0,0.0,3.19930295518e-05,5.6647342717e-05,0.0102904820815,0.0,0.0,0.0,0.0,0.0,0.0,0.0720677301288,-0.0141196157783,0.00921477843076,0.0,0.0,0.0,-0.014119617641,0.0636469423771,0.0136378565803,0.0,0.0,0.0,0.00921477843076,0.0136378565803,0.0780362561345
54353706545,25,0,honey/haz_cam,-0.0578009523451,0.00749692181125,0.0189699456096,0.456349313259,-0.400558620691,0.771542489529,-0.189789369702,0.0107153551653,-4.78139991174e-05,3.25485307258e-05,0.0,0.0,0.0,-4.78139991174e-05,0.0105546098202,4.89859739901e-05,0.0,0.0,0.0,3.25485270878e-05,4.89859630761e-05,0.0107145579532,0.0,0.0,0.0,0.0,0.0,0.0,0.0783911123872,-0.0150970490649,0.00961432978511,0.0,0.0,0.0,-0.0150970509276,0.0659418925643,0.0152092454955,0.0,0.0,0.0,0.00961432885379,0.0152092482895,0.0835973545909
55378871410,26,0,honey/haz_cam,-0.0578608326614,0.0074958903715,0.0190014820546,0.46458157897,-0.409420877695,0.751852631569,-0.226397484541,0.0111434562132,-4.11804903706e-05,3.42191342497e-05,0.0,0.0,0.0,-4.11804903706e-05,0.0109735261649,4.26605438406e-05,0.0,0.0,0.0,3.42191378877e-05,4.26605547545e-05,0.0111422613263,0.0,0.0,0.0,0.0,0.0,0.0,0.0843627825379,-0.0161416586488,0.00990172661841,0.0,0.0,0.0,-0.0161416605115,0.0681687071919,0.0164430793375,0.0,0.0,0.0,0.00990172568709,0.0164430812001,0.0895935148001
56350704699,27,0,honey/haz_cam,-0.0579031407833,0.00749480165541,0.0190249122679,0.478700906038,-0.420702517033,0.727453172207,-0.254295766354,0.0115715498105,-3.57624157914e-05,3.75724812329e-05,0.0,0.0,0.0,-3.57624121534e-05,0.0113915838301,3.7686790165e-05,0.0,0.0,0.0,3.75724921469e-05,3.7686793803e-05,0.0115669043735,0.0,0.0,0.0,0.0,0.0,0.0,0.0906485691667,-0.016610417515,0.0101565029472,0.0,0.0,0.0,-0.016610417515,0.0703805461526,0.0180397070944,0.0,0.0,0.0,0.0101565029472,0.0180397089571,0.0948437899351
57312783608,28,0,honey/haz_cam,-0.0579371340573,0.00749515043572,0.0190426819026,0.491314202547,-0.417975157499,0.704294323921,-0.296439617872,0.0119965542108,-2.42054447881e-05,3.88163425669e-05,0.0,0.0,0.0,-2.42054411501e-05,0.0118120554835,3.50633636117e-05,0.0,0.0,0.0,3.88163389289e-05,3.50633672497e-05,0.0119989467785,0.0,0.0,0.0,0.0,0.0,0.0,0.0971879139543,-0.0174625199288,0.0102777341381,0.0,0.0,0.0,-0.0174625162035,0.0723182559013,0.019286904484,0.0,0.0,0.0,0.0102777350694,0.0192869007587,0.101931586862
58363468322,29,0,honey/haz_cam,-0.0579592622817,0.00749565381557,0.0190528351814,0.506416261196,-0.403444439173,0.682556450367,-0.338956475258,0.0124167110771,-1.03559223135e-05,3.83712722396e-05,0.0,0.0,0.0,-1.03559250419e-05,0.0122296139598,3.81473182642e-05,0.0,0.0,0.0,3.83712722396e-05,3.81473073503e-05,0.0124352397397,0.0,0.0,0.0,0.0,0.0,0.0,0.103425823152,-0.0180934816599,0.0102280247957,0.0,0.0,0.0,-0.0180934816599,0.0743101239204,0.020496442914,0.0,0.0,0.0,0.0102280247957,0.0204964410514,0.109108246863
59366611874,30,0,honey/haz_cam,-0.0579696036875,0.00749605242163,0.0190580226481,0.515281438828,-0.394136190414,0.658785045147,-0.380977094173,0.0128339938819,2.17149295167e-06,3.97469266318e-05,0.0,0.0,0.0,2.17150113713e-06,0.0126517144963,3.56576565537e-05,0.0,0.0,0.0,3.97469266318e-05,3.56576638296e-05,0.0128669086844,0.0,0.0,0.0,0.0,0.0,0.0,0.110030144453,-0.0187921896577,0.0102018499747,0.0,0.0,0.0,-0.0187921896577,0.075886875391,0.021401681006,0.0,0.0,0.0,0.0102018518373,0.021401681006,0.116470292211
60377170805,31,0,honey/haz_cam,-0.0579743348062,0.00749684590846,0.0190601143986,0.523797869682,-0.396346241236,0.626108109951,-0.420158833265,0.0132622895762,1.11758581625e-05,4.40638286818e-05,0.0,0.0,0.0,1.11758672574e-05,0.0130860349163,2.61007880908e-05,0.0,0.0,0.0,4.40638286818e-05,2.61007735389e-05,0.0133018419147,0.0,0.0,0.0,0.0,0.0,0.0,0.117732256651,-0.01889436692,0.0101708695292,0.0,0.0,0.0,-0.0188943687826,0.0774859413505,0.022481162101,0.0,0.0,0.0,0.0101708695292,0.0224811602384,0.124211706221
61385547750,32,0,honey/haz_cam,-0.0579769350588,0.00749692041427,0.0190611071885,0.53458160162,-0.399290978909,0.595056056976,-0.447992235422,0.0136832073331,1.77851397893e-05,5.1378414355e-05,0.0,0.0,0.0,1.77851379703e-05,0.0135118477046,1.96360269911e-05,0.0,0.0,0.0,5.1378407079e-05,1.9636041543e-05,0.0137261357158,0.0,0.0,0.0,0.0,0.0,0.0,0.124668337405,-0.018430031836,0.0101361945271,0.0,0.0,0.0,-0.0184300299734,0.0788960754871,0.0237328372896,0.0,0.0,0.0,0.0101361963898,0.0237328354269,0.130202755332
62353680842,33,0,honey/haz_cam,-0.057978451252,0.00749743264169,0.0190614517778,0.521128118038,-0.396117478609,0.571534633636,-0.494837462902,0.0140991220251,2.56201965385e-05,5.56715895073e-05,0.0,0.0,0.0,2.56202038145e-05,0.0139329880476,1.26565309984e-05,0.0,0.0,0.0,5.56715895073e-05,1.26565309984e-05,0.014151330106,0.0,0.0,0.0,0.0,0.0,0.0,0.131608650088,-0.019792098552,0.0100619466975,0.0,0.0,0.0,-0.0197921004146,0.0798737630248,0.0228438861668,0.0,0.0,0.0,0.0100619466975,0.0228438861668,0.138789474964
63362966767,34,0,honey/haz_cam,-0.0579806640744,0.0074973567389,0.0190622527152,-0.52486538887,0.389886081219,-0.546064674854,0.52375382185,0.0145246172324,3.14768003591e-05,6.23875966994e-05,0.0,0.0,0.0,3.1476811273e-05,0.01437362656,9.26432039705e-06,0.0,0.0,0.0,6.23875966994e-05,9.26431312109e-06,0.0145879974589,0.0,0.0,0.0,0.0,0.0,0.0,0.13787817955,-0.0196432638913,0.00998014304787,0.0,0.0,0.0,-0.019643265754,0.0817937031388,0.0232808589935,0.0,0.0,0.0,0.00998014304787,0.0232808589935,0.145711615682
64371894920,35,0,honey/haz_cam,-0.0579820871353,0.0074973385781,0.0190630219877,-0.530047237873,0.382666289806,-0.517841994762,0.551774978638,0.0149490814656,3.64847292076e-05,6.95044145687e-05,0.0,0.0,0.0,3.64847292076e-05,0.0148149784654,6.75563251207e-06,0.0,0.0,0.0,6.95044218446e-05,6.75564706398e-06,0.0150245074183,0.0,0.0,0.0,0.0,0.0,0.0,0.144250974059,-0.019110687077,0.00983742531389,0.0,0.0,0.0,-0.0191106889397,0.0834984630346,0.0237288828939,0.0,0.0,0.0,0.00983742531389,0.0237288828939,0.152579426765
65430871515,36,0,honey/haz_cam,-0.0579845122993,0.0074974396266,0.0190639961511,-0.529131770134,0.382325828075,-0.485758781433,0.581278204918,0.0153762791306,3.78407421522e-05,7.86351447459e-05,0.0,0.0,0.0,3.78407457902e-05,0.015256957151,7.62674346788e-07,0.0,0.0,0.0,7.86351447459e-05,7.62688898703e-07,0.015455451794,0.0,0.0,0.0,0.0,0.0,0.0,0.151219934225,-0.0185721274465,0.00982778239995,0.0,0.0,0.0,-0.0185721255839,0.0849048495293,0.0237523205578,0.0,0.0,0.0,0.00982778333127,0.0237523205578,0.159708738327
66391047396,37,0,honey/haz_cam,-0.0579866357148,0.00749748805538,0.0190648473799,-0.52373790741,0.375897496939,-0.45645019412,0.613231122494,0.0157911572605,3.85834573535e-05,8.6472799012e-05,0.0,0.0,0.0,3.85834573535e-05,0.0156907942146,-2.68963913186e-06,0.0,0.0,0.0,8.64728135639e-05,-2.68961002803e-06,0.0158803965896,0.0,0.0,0.0,0.0,0.0,0.0,0.157904267311,-0.018304836005,0.00982833281159,0.0,0.0,0.0,-0.0183048341423,0.0860152840614,0.0232202187181,0.0,0.0,0.0,0.00982833374292,0.0232202187181,0.166924789548
67348468571,38,0,honey/haz_cam,-0.0579886101186,0.00749755231664,0.01906558685,-0.515565812588,0.368917435408,-0.425853312016,0.645554065704,0.0162133034319,3.75347408408e-05,9.41558173508e-05,0.0,0.0,0.0,3.75347444788e-05,0.0161320492625,-5.57976682103e-06,0.0,0.0,0.0,9.41558246268e-05,-5.57979592486e-06,0.0163121521473,0.0,0.0,0.0,0.0,0.0,0.0,0.164722114801,-0.0179693270475,0.00984141230583,0.0,0.0,0.0,-0.0179693270475,0.0874590277672,0.0223116446286,0.0,0.0,0.0,0.00984141137451,0.0223116446286,0.17464877665
68337376948,39,0,honey/haz_cam,-0.0579907335341,0.00749755604193,0.0190663244575,-0.513698101044,0.366155028343,-0.395498931408,0.667551338673,0.0166399907321,3.47849891114e-05,0.000103655729617,0.0,0.0,0.0,3.47849891114e-05,0.0165727250278,-6.88639056534e-06,0.0,0.0,0.0,0.000103655729617,-6.88637601343e-06,0.0167412683368,0.0,0.0,0.0,0.0,0.0,0.0,0.170847445726,-0.0169389303774,0.00989823974669,0.0,0.0,0.0,-0.0169389303774,0.0890980288386,0.0221274197102,0.0,0.0,0.0,0.00989823974669,0.0221274178475,0.180863037705
69407960824,40,0,honey/haz_cam,-0.0579939708114,0.00749770831317,0.0190671402961,-0.50591647625,0.358114033937,-0.358942478895,0.69782692194,0.0170745570213,3.00093852275e-05,0.000111393688712,0.0,0.0,0.0,3.00093870464e-05,0.0170261058956,-7.42794100006e-06,0.0,0.0,0.0,0.000111393688712,-7.42795555198e-06,0.0171832684427,0.0,0.0,0.0,0.0,0.0,0.0,0.177789375186,-0.0159764289856,0.0100609436631,0.0,0.0,0.0,-0.0159764308482,0.0910164117813,0.0211133994162,0.0,0.0,0.0,0.0100609427318,0.0211133975536,0.188913449645
70355969719,41,0,honey/haz_cam,-0.0579954907298,0.00749775161967,0.0190675687045,-0.497696191072,0.350366860628,-0.322446286678,0.724961578846,0.0174947287887,2.33497885347e-05,0.00011927732703,0.0,0.0,0.0,2.33497848967e-05,0.0174626093358,-6.94549407854e-06,0.0,0.0,0.0,0.000119277319754,-6.94552318237e-06,0.01760882698,0.0,0.0,0.0,0.0,0.0,0.0,0.184447437525,-0.0147678349167,0.0103082451969,0.0,0.0,0.0,-0.0147678349167,0.0923097729683,0.0200591105968,0.0,0.0,0.0,0.0103082451969,0.0200591087341,0.195875748992
71345319141,42,0,honey/haz_cam,-0.057997841388,0.00749788526446,0.0190682243556,-0.489672005177,0.33925062418,-0.28652921319,0.750353634357,0.0179240610451,1.57760750881e-05,0.000125877544633,0.0,0.0,0.0,1.5776080545e-05,0.0179072506726,-4.66816436528e-06,0.0,0.0,0.0,0.000125877544633,-4.66816436528e-06,0.0180463474244,0.0,0.0,0.0,0.0,0.0,0.0,0.190602049232,-0.0135343158618,0.0105984285474,0.0,0.0,0.0,-0.0135343167931,0.0942856296897,0.0190087631345,0.0,0.0,0.0,0.0105984276161,0.0190087649971,0.203038468957
72344338441,43,0,honey/haz_cam,-0.0579995177686,0.00749809108675,0.019068704918,-0.479046970606,0.330732285976,-0.249367207289,0.773915708065,0.0183625333011,6.19664069745e-06,0.000132596484036,0.0,0.0,0.0,6.19663887846e-06,0.0183558948338,-2.54333326666e-06,0.0,0.0,0.0,0.000132596498588,-2.54336237049e-06,0.0184870157391,0.0,0.0,0.0,0.0,0.0,0.0,0.196693181992,-0.0122171482071,0.0110186534002,0.0,0.0,0.0,-0.0122171472758,0.0964209660888,0.0177349876612,0.0,0.0,0.0,0.0110186524689,0.0177349895239,0.20990164578
73357024553,44,0,honey/haz_cam,-0.0580004788935,0.00749812973663,0.0190690141171,-0.468195796013,0.323538571596,-0.217900007963,0.79286468029,0.0187922623008,-3.0770900139e-06,0.000139009163831,0.0,0.0,0.0,-3.07708478431e-06,0.018792161718,-2.97727268617e-07,0.0,0.0,0.0,0.000139009163831,-2.97712716701e-07,0.0189171433449,0.0,0.0,0.0,0.0,0.0,0.0,0.202121213078,-0.0111284768209,0.0114294989035,0.0,0.0,0.0,-0.0111284749582,0.0982270166278,0.0165446791798,0.0,0.0,0.0,0.0114294989035,0.0165446791798,0.21553145349
74365941347,45,0,honey/haz_cam,-0.0580011345446,0.00749820750207,0.0190692152828,-0.458044558764,0.313087314367,-0.181953027844,0.811827540398,0.0192213188857,-1.35174414027e-05,0.000144262667163,0.0,0.0,0.0,-1.35174350362e-05,0.019226135686,3.6686869862e-06,0.0,0.0,0.0,0.000144262681715,3.6686869862e-06,0.0193481184542,0.0,0.0,0.0,0.0,0.0,0.0,0.207416400313,-0.00961350928992,0.0119345728308,0.0,0.0,0.0,-0.0096135083586,0.100199058652,0.0153505848721,0.0,0.0,0.0,0.0119345737621,0.0153505867347,0.2213871032
75374158278,46,0,honey/haz_cam,-0.0580015443265,0.00749827735126,0.0190693270415,-0.442066043615,0.300582736731,-0.142438352108,0.833029568195,0.0196664109826,-2.59556800302e-05,0.000147349055624,0.0,0.0,0.0,-2.59556563833e-05,0.0196727514267,7.49715127313e-06,0.0,0.0,0.0,0.000147349070176,7.49716582504e-06,0.0197946932167,0.0,0.0,0.0,0.0,0.0,0.0,0.212999224663,-0.00816770270467,0.0126280887052,0.0,0.0,0.0,-0.00816770270467,0.102749444544,0.0135251982138,0.0,0.0,0.0,0.0126280887052,0.0135251963511,0.227992087603
76351970427,47,0,honey/haz_cam,-0.0580020844936,0.00749833974987,0.0190694574267,-0.427491039038,0.289685815573,-0.113403357565,0.848806619644,0.0201111808419,-3.62308783224e-05,0.000150360210682,0.0,0.0,0.0,-3.62308819604e-05,0.0201174039394,9.71019198914e-06,0.0,0.0,0.0,0.000150360210682,9.71017743723e-06,0.0202410314232,0.0,0.0,0.0,0.0,0.0,0.0,0.217485979199,-0.00732286972925,0.0131479511037,0.0,0.0,0.0,-0.00732286972925,0.105230741203,0.0119766769931,0.0,0.0,0.0,0.0131479501724,0.0119766769931,0.233253926039
77431629231,48,0,honey/haz_cam,-0.0580028668046,0.00749840959907,0.0190696641803,-0.41253349185,0.282864183187,-0.0838827267289,0.861839354038,0.0205516256392,-4.62337884528e-05,0.000154050605488,0.0,0.0,0.0,-4.62337920908e-05,0.020552996546,1.20556496768e-05,0.0,0.0,0.0,0.00015405062004,1.20556351249e-05,0.0206761751324,0.0,0.0,0.0,0.0,0.0,0.0,0.222032517195,-0.00639990856871,0.0137801747769,0.0,0.0,0.0,-0.00639990856871,0.107440769672,0.0106115844101,0.0,0.0,0.0,0.0137801766396,0.0106115853414,0.237668484449
78369554024,49,0,honey/haz_cam,-0.0580034814775,0.00749847013503,0.0190698187798,-0.394349843264,0.271644920111,-0.0458613596857,0.876694560051,0.0210000667721,-5.82747816225e-05,0.000155552726937,0.0,0.0,0.0,-5.82747961744e-05,0.020991710946,1.54938334163e-05,0.0,0.0,0.0,0.000155552712386,1.54938479682e-05,0.02111947909,0.0,0.0,0.0,0.0,0.0,0.0,0.226850062609,-0.00503341294825,0.0146863153204,0.0,0.0,0.0,-0.00503341341391,0.110019013286,0.00893565267324,0.0,0.0,0.0,0.0146863134578,0.00893565267324,0.242787376046
79347962329,50,0,honey/haz_cam,-0.0580042600632,0.00749860191718,0.0190699994564,-0.373970270157,0.257121473551,-0.0110769746825,0.891017019749,0.0214379914105,-6.95588678354e-05,0.000155214656843,0.0,0.0,0.0,-6.95588605595e-05,0.0214200876653,1.71827996382e-05,0.0,0.0,0.0,0.000155214656843,1.7182843294e-05,0.0215568002313,0.0,0.0,0.0,0.0,0.0,0.0,0.231085389853,-0.00415150821209,0.0155781572685,0.0,0.0,0.0,-0.00415150914341,0.112423300743,0.00701997196302,0.0,0.0,0.0,0.0155781535432,0.00701997196302,0.247324317694
80381789535,51,0,honey/haz_cam,-0.0580043569207,0.00749859493226,0.0190700050443,-0.350172102451,0.242369785905,0.0294642355293,0.904304981232,0.0218840520829,-8.12271900941e-05,0.0001534079056,0.0,0.0,0.0,-8.12271755422e-05,0.0218495577574,1.86945198948e-05,0.0,0.0,0.0,0.000153407876496,1.86945198948e-05,0.0219970140606,0.0,0.0,0.0,0.0,0.0,0.0,0.235481098294,-0.0028981314972,0.016719808802,0.0,0.0,0.0,-0.00289813196287,0.115062996745,0.00493161054328,0.0,0.0,0.0,0.0167198106647,0.00493161054328,0.251798301935
81352676524,52,0,honey/haz_cam,-0.0580047555268,0.00749873509631,0.0190701130778,-0.317945063114,0.237119287252,0.0566383972764,0.916229605675,0.0223397035152,-9.07269859454e-05,0.000153053770191,0.0,0.0,0.0,-9.07269641175e-05,0.0222905855626,1.33091834869e-05,0.0,0.0,0.0,0.000153053784743,1.33091980388e-05,0.0224384330213,0.0,0.0,0.0,0.0,0.0,0.0,0.239719077945,-0.00293979421258,0.0172984674573,0.0,0.0,0.0,-0.00293979421258,0.117913007736,0.00233386876062,0.0,0.0,0.0,0.0172984693199,0.00233386852778,0.254285424948
82340797339,53,0,honey/haz_cam,-0.0580054037273,0.00749881658703,0.0190702807158,-0.298490703106,0.224688485265,0.094728961587,0.922737181187,0.0228034444153,-9.84636717476e-05,0.000152146152686,0.0,0.0,0.0,-9.84636717476e-05,0.0227329600602,1.52478260134e-05,0.0,0.0,0.0,0.000152146167238,1.52478405653e-05,0.022891541943,0.0,0.0,0.0,0.0,0.0,0.0,0.243334695697,-0.00164810777642,0.0184000972658,0.0,0.0,0.0,-0.00164810754359,0.120953246951,0.00124589097686,0.0,0.0,0.0,0.0184000972658,0.00124589132611,0.25823700428
83402800795,54,0,honey/haz_cam,-0.0580054968596,0.00749892415479,0.0190702863038,-0.284257978201,0.217871293426,0.123964078724,0.925398111343,0.023265959695,-0.000102847312519,0.000153200220666,0.0,0.0,0.0,-0.000102847297967,0.0231779497117,1.74366068677e-05,0.0,0.0,0.0,0.000153200206114,1.74365777639e-05,0.0233423244208,0.0,0.0,0.0,0.0,0.0,0.0,0.246157392859,-0.000552642042749,0.0191756635904,0.0,0.0,0.0,-0.000552642159164,0.123726144433,0.000790989899542,0.0,0.0,0.0,0.0191756635904,0.000790990132373,0.260958373547
84423250974,55,0,honey/haz_cam,-0.0580058321357,0.00749891716987,0.0190704073757,-0.264153152704,0.207735538483,0.157242625952,0.928624212742,0.0237274318933,-0.000107998777821,0.000152483233251,0.0,0.0,0.0,-0.000107998777821,0.0236176475883,1.78183581738e-05,0.0,0.0,0.0,0.000152483189595,1.78183581738e-05,0.0237911231816,0.0,0.0,0.0,0.0,0.0,0.0,0.249403983355,0.000349635258317,0.0201664883643,0.0,0.0,0.0,0.000349635258317,0.126432716846,-0.000222025060793,0.0,0.0,0.0,0.0201664865017,-0.000222025293624,0.26390466094
85350828724,56,0,honey/haz_cam,-0.0580065101385,0.00749908527359,0.01907055825,-0.24410264194,0.189596816897,0.190167397261,0.931827366352,0.024186084047,-0.00011217436986,0.000149945335579,0.0,0.0,0.0,-0.000112174348033,0.024056667462,1.56896967383e-05,0.0,0.0,0.0,0.000149945335579,1.56896967383e-05,0.0242456253618,0.0,0.0,0.0,0.0,0.0,0.0,0.251832693815,0.00096950045554,0.0211691129953,0.0,0.0,0.0,0.000969500222709,0.129196956754,-0.00110444705933,0.0,0.0,0.0,0.0211691148579,-0.00110444752499,0.267296642065
86330239048,57,0,honey/haz_cam,-0.0580068230629,0.00749931298196,0.0190705750138,-0.230053678155,0.166571170092,0.225406005979,0.931944489479,0.0246464181691,-0.000112565969175,0.000147260871017,0.0,0.0,0.0,-0.000112565991003,0.0244968011975,1.40885604196e-05,0.0,0.0,0.0,0.000147260871017,1.40885895235e-05,0.024707082659,0.0,0.0,0.0,0.0,0.0,0.0,0.253027737141,0.00184541998897,0.0220243595541,0.0,0.0,0.0,0.00184541998897,0.131934285164,-0.00133428233676,0.0,0.0,0.0,0.0220243595541,-0.00133428280242,0.271214395761
87318601558,58,0,honey/haz_cam,-0.0580078363419,0.00749942101538,0.0190708860755,-0.205831557512,0.159985855222,0.262689858675,0.928994655609,0.0251167174429,-0.000112738613097,0.000147138300235,0.0,0.0,0.0,-0.000112738613097,0.0249368157238,1.33697685669e-05,0.0,0.0,0.0,0.000147138314787,1.33697685669e-05,0.0251543968916,0.0,0.0,0.0,0.0,0.0,0.0,0.256281465292,0.00276940315962,0.0231505893171,0.0,0.0,0.0,0.00276940339245,0.134583026171,-0.00161652744282,0.0,0.0,0.0,0.0231505911797,-0.00161652767565,0.273165762424
88379096684,59,0,honey/haz_cam,-0.0580082908273,0.0074995062314,0.0190709698945,-0.197792753577,0.134602412581,0.291629701853,0.926127076149,0.0255835000426,-0.000109387408884,0.000145717160194,0.0,0.0,0.0,-0.000109387394332,0.0253910832107,1.00303332147e-05,0.0,0.0,0.0,0.000145717174746,1.00303041108e-05,0.0256288126111,0.0,0.0,0.0,0.0,0.0,0.0,0.256247758865,0.00320759182796,0.0234435517341,0.0,0.0,0.0,0.0032075913623,0.137291684747,-0.00189963669982,0.0,0.0,0.0,0.0234435535967,-0.00189963728189,0.277328014374
89338191056,60,0,honey/haz_cam,-0.0580084659159,0.00749940611422,0.0190709978342,-0.173929750919,0.123395115137,0.329317301512,0.919821321964,0.0260508805513,-0.000106068269815,0.000145542886457,0.0,0.0,0.0,-0.000106068277091,0.0258303191513,7.68474365032e-06,0.0,0.0,0.0,0.000145542871905,7.68471454649e-06,0.0260774698108,0.0,0.0,0.0,0.0,0.0,0.0,0.258573830128,0.0039568268694,0.0245947968215,0.0,0.0,0.0,0.00395682733506,0.139542400837,-0.00231396313757,0.0,0.0,0.0,0.0245947968215,-0.00231396313757,0.279110193253
90337053185,61,0,honey/haz_cam,-0.0580090470612,0.00749956257641,0.0190711170435,-0.148975864053,0.104253783822,0.360667407513,0.914798021317,0.0265125948936,-0.000103947349999,0.000144419886055,0.0,0.0,0.0,-0.000103947357275,0.0262733250856,4.48301662459e-08,0.0,0.0,0.0,0.000144419871503,4.48592700764e-08,0.0265299770981,0.0,0.0,0.0,0.0,0.0,0.0,0.260403245687,0.00370391667821,0.0255090612918,0.0,0.0,0.0,0.00370391621254,0.141786918044,-0.00302973180078,0.0,0.0,0.0,0.0255090612918,-0.00302973203361,0.281368613243
91349388830,62,0,honey/haz_cam,-0.0580093301833,0.00749976374209,0.019071104005,-0.128269284964,0.078494951129,0.385601729155,0.910327315331,0.0269709844142,-0.000102086130937,0.000143558470882,0.0,0.0,0.0,-0.000102086109109,0.0267231259495,-1.0693920558e-05,0.0,0.0,0.0,0.000143558470882,-1.0693920558e-05,0.0269890613854,0.0,0.0,0.0,0.0,0.0,0.0,0.261245012283,0.00290318089537,0.0259116906673,0.0,0.0,0.0,0.0029031811282,0.144053220749,-0.00394458929077,0.0,0.0,0.0,0.0259116906673,-0.00394459022209,0.284269332886
92339016127,63,0,honey/haz_cam,-0.0580100044608,0.00749990576878,0.0190712958574,-0.105296432972,0.0672452673316,0.414664149284,0.901356458664,0.0274418797344,-9.7278461908e-05,0.000145403857459,0.0,0.0,0.0,-9.7278454632e-05,0.0271767061204,-1.53468572535e-05,0.0,0.0,0.0,0.000145403872011,-1.53468281496e-05,0.0274441465735,0.0,0.0,0.0,0.0,0.0,0.0,0.263659507036,0.00289353146218,0.0267010889947,0.0,0.0,0.0,0.00289353169501,0.146290495992,-0.00395530788228,0.0,0.0,0.0,0.0267010889947,-0.00395530788228,0.286169052124
93297497017,64,0,honey/haz_cam,-0.0580116510391,0.00749926827848,0.01907020621,-0.0830740705132,0.0366667583585,0.38261654973,0.919433474541,0.027893288061,-0.000108487256512,0.000147800077684,0.0,0.0,0.0,-0.000108487271063,0.0276400335133,-5.04561248817e-05,0.0,0.0,0.0,0.000147800077684,-5.04560666741e-05,0.0278874710202,0.0,0.0,0.0,0.0,0.0,0.0,0.261812895536,-0.00184057722799,0.0228724181652,0.0,0.0,0.0,-0.00184057699516,0.148147195578,-0.00812345836312,0.0,0.0,0.0,0.0228724200279,-0.00812345743179,0.288547486067
94300566190,65,0,honey/haz_cam,-0.0580127499998,0.00749931484461,0.019070520997,-0.057332649827,0.0184261035174,0.412588894367,0.908924043179,0.0283614676446,-0.000103872094769,0.000151578584337,0.0,0.0,0.0,-0.000103872080217,0.0280953459442,-5.59763138881e-05,0.0,0.0,0.0,0.000151578613441,-5.59762847843e-05,0.0283396225423,0.0,0.0,0.0,0.0,0.0,0.0,0.263470679522,-0.00202432041988,0.0236405357718,0.0,0.0,0.0,-0.00202432018705,0.150166332722,-0.0091100782156,0.0,0.0,0.0,0.0236405376345,-0.0091100782156,0.290118634701
95309633024,66,0,honey/haz_cam,-0.0580134913325,0.00749917095527,0.0190706830472,-0.0344038046896,0.0148039702326,0.44746273756,0.893517374992,0.0288328491151,-9.43409759202e-05,0.000157685848535,0.0,0.0,0.0,-9.43409831962e-05,0.0285456106067,-5.28074415342e-05,0.0,0.0,0.0,0.000157685848535,-5.28074415342e-05,0.0287865269929,0.0,0.0,0.0,0.0,0.0,0.0,0.265632748604,-0.00102261116263,0.0246053524315,0.0,0.0,0.0,-0.00102261092979,0.151748523116,-0.00828697439283,0.0,0.0,0.0,0.0246053505689,-0.00828697532415,0.290810316801
96297939132,67,0,honey/haz_cam,-0.0580152869225,0.00749921379611,0.0190710648894,0.00751989660785,-0.000865127483848,0.480868071318,0.876759707928,0.0292996298522,-9.12130053621e-05,0.00016024026263,0.0,0.0,0.0,-9.1213012638e-05,0.0289954151958,-5.89964365645e-05,0.0,0.0,0.0,0.000160240277182,-5.89964656683e-05,0.029217524454,0.0,0.0,0.0,0.0,0.0,0.0,0.268779307604,-0.00153679447249,0.0257162135094,0.0,0.0,0.0,-0.00153679493815,0.153121337295,-0.00922561250627,0.0,0.0,0.0,0.0257162135094,-0.00922561064363,0.290555208921
97297784219,68,0,honey/haz_cam,-0.0580161325634,0.00749934557825,0.0190710928291,0.0527480281889,-0.0276017561555,0.491333335638,0.868934035301,0.0297732111067,-0.000101427132904,0.000156905312906,0.0,0.0,0.0,-0.000101427096524,0.0294731054455,-7.37865775591e-05,0.0,0.0,0.0,0.000156905312906,-7.37866066629e-05,0.0296571366489,0.0,0.0,0.0,0.0,0.0,0.0,0.27129265666,-0.00435227528214,0.0251338966191,0.0,0.0,0.0,-0.00435227528214,0.155620291829,-0.0119350561872,0.0,0.0,0.0,0.0251338984817,-0.0119350524619,0.289791941643
98317072006,69,0,honey/haz_cam,-0.0580169372261,0.00749950204045,0.0190713424236,0.0830833464861,-0.0299548171461,0.516659915447,0.851622700691,0.0302456133068,-9.61076002568e-05,0.000160759445862,0.0,0.0,0.0,-9.61076002568e-05,0.02992862463,-7.05186612322e-05,0.0,0.0,0.0,0.000160759445862,-7.05187194399e-05,0.0300956256688,0.0,0.0,0.0,0.0,0.0,0.0,0.274518758059,-0.00437969621271,0.0257017277181,0.0,0.0,0.0,-0.00437969621271,0.157067880034,-0.0111838597804,0.0,0.0,0.0,0.0257017258555,-0.0111838616431,0.289664328098
99338873309,70,0,honey/haz_cam,-0.0580176375806,0.00749959703535,0.0190715268254,0.103900663555,-0.05375334993,0.542130410671,0.83211094141,0.0307053867728,-8.90095470822e-05,0.00016934168525,0.0,0.0,0.0,-8.90095325303e-05,0.0303877927363,-7.21143223927e-05,0.0,0.0,0.0,0.000169341699802,-7.21142641851e-05,0.0305497311056,0.0,0.0,0.0,0.0,0.0,0.0,0.275504082441,-0.00495040323585,0.0261408276856,0.0,0.0,0.0,-0.00495040323585,0.158344745636,-0.0115183377638,0.0,0.0,0.0,0.0261408295482,-0.0115183377638,0.291778773069
100336396531,71,0,honey/haz_cam,-0.05801827088,0.00749971624464,0.0190717093647,0.128262206912,-0.0652329027653,0.568184554577,0.81022131443,0.0311740655452,-8.08522672742e-05,0.000176594781806,0.0,0.0,0.0,-8.08522599982e-05,0.0308485627174,-6.84347978677e-05,0.0,0.0,0.0,0.000176594767254,-6.84347978677e-05,0.0310009270906,0.0,0.0,0.0,0.0,0.0,0.0,0.277735978365,-0.0050731501542,0.0267033968121,0.0,0.0,0.0,-0.00507315061986,0.159454613924,-0.0109361549839,0.0,0.0,0.0,0.0267033986747,-0.0109361559153,0.29307565093
101340628494,72,0,honey/haz_cam,-0.058019310236,0.0074998033233,0.0190720055252,0.154577329755,-0.0729859918356,0.597854495049,0.783165097237,0.0316314920783,-6.92094981787e-05,0.000183933021617,0.0,0.0,0.0,-6.92095127306e-05,0.0312957838178,-6.08212722e-05,0.0,0.0,0.0,0.000183933021617,-6.08213013038e-05,0.0314391925931,0.0,0.0,0.0,0.0,0.0,0.0,0.280093044043,-0.00466861156747,0.0273466166109,0.0,0.0,0.0,-0.00466861156747,0.159812256694,-0.00984570477158,0.0,0.0,0.0,0.0273466166109,-0.0098457057029,0.293884783983
102352384677,73,0,honey/haz_cam,-0.0580200962722,0.00749987037852,0.0190722309053,0.177927300334,-0.0790935829282,0.623427629471,0.757246673107,0.0321005880833,-5.84595327382e-05,0.000190941267647,0.0,0.0,0.0,-5.84595363762e-05,0.0317580401897,-5.27388292539e-05,0.0,0.0,0.0,0.000190941282199,-5.27388292539e-05,0.0318924002349,0.0,0.0,0.0,0.0,0.0,0.0,0.282430917025,-0.00423898175359,0.027775356546,0.0,0.0,0.0,-0.00423898175359,0.160658597946,-0.0087865088135,0.0,0.0,0.0,0.027775356546,-0.00878650974482,0.295154333115
103337665440,74,0,honey/haz_cam,-0.0580206997693,0.00749992392957,0.0190723817796,0.207073077559,-0.0840666815639,0.646365106106,0.729564487934,0.0325618945062,-4.98437875649e-05,0.000195762069779,0.0,0.0,0.0,-4.9843773013e-05,0.0322108604014,-4.40660915046e-05,0.0,0.0,0.0,0.000195762055228,-4.40660915046e-05,0.0323301963508,0.0,0.0,0.0,0.0,0.0,0.0,0.285221874714,-0.00391925685108,0.028124878183,0.0,0.0,0.0,-0.00391925731674,0.161201432347,-0.00774873513728,0.0,0.0,0.0,0.028124878183,-0.00774873560295,0.295344412327
104385286771,75,0,honey/haz_cam,-0.0580218620598,0.00749996351078,0.0190727263689,0.22781406343,-0.0928512960672,0.671591937542,0.698886334896,0.0330316834152,-3.79324665118e-05,0.000204027805012,0.0,0.0,0.0,-3.79324774258e-05,0.0326806418598,-3.38296704285e-05,0.0,0.0,0.0,0.000204027805012,-3.38296413247e-05,0.032794803381,0.0,0.0,0.0,0.0,0.0,0.0,0.287060081959,-0.00326010189019,0.0284959990531,0.0,0.0,0.0,-0.00326010165736,0.161869674921,-0.00689197983593,0.0,0.0,0.0,0.0284959971905,-0.00689197983593,0.297475278378
105352688682,76,0,honey/haz_cam,-0.0580227188766,0.00750003242865,0.0190729089081,0.257214456797,-0.0977272987366,0.688348710537,0.671166539192,0.0335043706,-3.20949729939e-05,0.000207104254514,0.0,0.0,0.0,-3.20949220622e-05,0.0331461541355,-2.46907729888e-05,0.0,0.0,0.0,0.000207104254514,-2.46908020927e-05,0.0332435742021,0.0,0.0,0.0,0.0,0.0,0.0,0.290215611458,-0.00283538899384,0.0286311320961,0.0,0.0,0.0,-0.00283538922668,0.162715941668,-0.0061434279196,0.0,0.0,0.0,0.0286311302334,-0.00614342838526,0.297846257687
106377384536,77,0,honey/haz_cam,-0.0580230094492,0.00750008923933,0.0190729908645,0.278635799885,-0.101072251797,0.703383266926,0.646062552929,0.0339867509902,-2.48682299571e-05,0.000211107137147,0.0,0.0,0.0,-2.48681972153e-05,0.0336259454489,-1.51011790877e-05,0.0,0.0,0.0,0.000211107137147,-1.51012081915e-05,0.0337117761374,0.0,0.0,0.0,0.0,0.0,0.0,0.292857497931,-0.00230721151456,0.0286683924496,0.0,0.0,0.0,-0.00230721128173,0.163982257247,-0.00512446090579,0.0,0.0,0.0,0.0286683887243,-0.00512446137145,0.299286276102
107336919951,78,0,honey/haz_cam,-0.0580232702196,0.00750011159107,0.0190730690956,0.296620100737,-0.114222474396,0.72198164463,0.614581525326,0.0344509184361,-1.8335365894e-05,0.000219923764234,0.0,0.0,0.0,-1.83353458851e-05,0.0340961664915,-4.9091981964e-06,0.0,0.0,0.0,0.000219923749682,-4.90908178108e-06,0.0341796241701,0.0,0.0,0.0,0.0,0.0,0.0,0.294265717268,-0.00208161142655,0.0290585160255,0.0,0.0,0.0,-0.00208161119372,0.164485663176,-0.00461384654045,0.0,0.0,0.0,0.0290585160255,-0.00461384560913,0.301515191793
108375784326,79,0,honey/haz_cam,-0.0580236688256,0.00750014651567,0.0190731454641,0.319891542196,-0.111464329064,0.735011935234,0.587367832661,0.0349355228245,-8.93794003787e-06,0.000220678775804,0.0,0.0,0.0,-8.93796277524e-06,0.0345755293965,7.97587381385e-06,0.0,0.0,0.0,0.0002206787467,7.97587381385e-06,0.0346457436681,0.0,0.0,0.0,0.0,0.0,0.0,0.297204166651,-0.000946969143115,0.0288864821196,0.0,0.0,0.0,-0.000946969143115,0.165698587894,-0.00331236445345,0.0,0.0,0.0,0.0288864821196,-0.00331236538477,0.302275121212
109328377713,80,0,honey/haz_cam,-0.0580241605639,0.00750019866973,0.0190732516348,0.345214873552,-0.110523350537,0.747877001762,0.556138038635,0.0354186221957,5.55566941784e-07,0.000220842615818,0.0,0.0,0.0,5.55559438453e-07,0.0350540094078,2.18246368604e-05,0.0,0.0,0.0,0.00022084263037,2.18248114834e-05,0.0351124964654,0.0,0.0,0.0,0.0,0.0,0.0,0.300070226192,0.000329598813551,0.0287482161075,0.0,0.0,0.0,0.000329599104589,0.166738659143,-0.00196953071281,0.0,0.0,0.0,0.0287482142448,-0.00196953024715,0.30315092206
110352429154,81,0,honey/haz_cam,-0.0580242723227,0.00750022288412,0.019073298201,0.354906857014,-0.114872202277,0.759881019592,0.532376110554,0.0358691848814,6.76911668052e-06,0.0002271689591,0.0,0.0,0.0,6.76907438901e-06,0.035514421761,3.19239406963e-05,0.0,0.0,0.0,0.0002271689591,3.1923824281e-05,0.0355708859861,0.0,0.0,0.0,0.0,0.0,0.0,0.301554769278,0.00096039858181,0.0289157144725,0.0,0.0,0.0,0.000960398232564,0.16772761941,-0.00134345493279,0.0,0.0,0.0,0.0289157144725,-0.00134345539846,0.305384814739
111346858528,82,0,honey/haz_cam,-0.0580246224999,0.00750025361776,0.0190733950585,0.375653684139,-0.126171559095,0.771144628525,0.498296618462,0.0363261662424,9.54194365477e-06,0.000231779849855,0.0,0.0,0.0,9.54189636104e-06,0.0359732657671,4.38852875959e-05,0.0,0.0,0.0,0.000231779849855,4.38854040112e-05,0.0360288470984,0.0,0.0,0.0,0.0,0.0,0.0,0.303684741259,0.0013519579079,0.0294118709862,0.0,0.0,0.0,0.00135195814073,0.168360128999,-0.000964755192399,0.0,0.0,0.0,0.0294118709862,-0.000964754843153,0.307338237762
112324608597,83,0,honey/haz_cam,-0.0580250099301,0.00750028062612,0.019073497504,0.396703958511,-0.133723989129,0.784084558487,0.458207160234,0.0367870889604,1.60636864166e-05,0.000234698469285,0.0,0.0,0.0,1.60636991495e-05,0.0364374034107,5.95480196353e-05,0.0,0.0,0.0,0.000234698469285,5.95480778429e-05,0.0364952348173,0.0,0.0,0.0,0.0,0.0,0.0,0.305513232946,0.00239479518496,0.029984805733,0.0,0.0,0.0,0.00239479495212,0.169166967273,-2.02356568479e-06,0.0,0.0,0.0,0.0299848075956,-2.02356568479e-06,0.30973303318
113358963481,84,0,honey/haz_cam,-0.0580253340304,0.00750030949712,0.0190736055374,0.406562328339,-0.134028241038,0.796012580395,0.427908837795,0.0372557602823,2.4352919354e-05,0.000238533699303,0.0,0.0,0.0,2.43529557338e-05,0.0369176454842,7.38513699616e-05,0.0,0.0,0.0,0.000238533684751,7.3851311754e-05,0.0369778387249,0.0,0.0,0.0,0.0,0.0,0.0,0.306761771441,0.00366110005416,0.0301672909409,0.0,0.0,0.0,0.00366110051982,0.171052575111,0.00103558308911,0.0,0.0,0.0,0.0301672928035,0.00103558285628,0.312968462706
114358363475,85,0,honey/haz_cam,-0.058025803417,0.00750035140663,0.0190737191588,0.426846474409,-0.136916086078,0.803035140038,0.392669349909,0.0377151407301,3.04056939058e-05,0.000238470558543,0.0,0.0,0.0,3.04057120957e-05,0.0373771488667,8.79794097273e-05,0.0,0.0,0.0,0.000238470529439,8.79792933119e-05,0.0374376103282,0.0,0.0,0.0,0.0,0.0,0.0,0.308993786573,0.00483567779884,0.0305600967258,0.0,0.0,0.0,0.00483567779884,0.172424390912,0.00193377130199,0.0,0.0,0.0,0.0305600930005,0.00193377153482,0.314891695976
115375547192,86,0,honey/haz_cam,-0.0580259114504,0.00750035746023,0.0190737470984,0.447310656309,-0.14429846406,0.80940502882,0.352069795132,0.0381947383285,3.43674146279e-05,0.000238618187723,0.0,0.0,0.0,3.43674255419e-05,0.03785584867,0.00010211954941,0.0,0.0,0.0,0.000238618202275,0.000102119432995,0.03792418167,0.0,0.0,0.0,0.0,0.0,0.0,0.311100125313,0.00560183916241,0.0313807986677,0.0,0.0,0.0,0.00560183869675,0.174173280597,0.00279973284341,0.0,0.0,0.0,0.0313807986677,0.00279973307624,0.317788541317
116394672676,87,0,honey/haz_cam,-0.0580262690783,0.00750038027763,0.0190738551319,0.462089270353,-0.151582792401,0.81737691164,0.308852136135,0.0386724807322,3.84840386687e-05,0.000239962828346,0.0,0.0,0.0,3.84840423067e-05,0.0383389256895,0.000117354502436,0.0,0.0,0.0,0.000239962842898,0.000117354502436,0.0384224578738,0.0,0.0,0.0,0.0,0.0,0.0,0.312394827604,0.00633348012343,0.0324159488082,0.0,0.0,0.0,0.00633348012343,0.176122456789,0.00351556250826,0.0,0.0,0.0,0.0324159488082,0.00351556227542,0.32174500823
117328665971,88,0,honey/haz_cam,-0.0580262131989,0.00750034023076,0.0190738495439,0.474187284708,-0.164199709892,0.819535970688,0.276666015387,0.039145026356,3.57360695489e-05,0.000243644375587,0.0,0.0,0.0,3.57360950147e-05,0.0388088896871,0.000124886195408,0.0,0.0,0.0,0.000243644331931,0.000124886311824,0.0389079935849,0.0,0.0,0.0,0.0,0.0,0.0,0.314317971468,0.00572282914072,0.0334740690887,0.0,0.0,0.0,0.00572282867506,0.177923232317,0.00346831115894,0.0,0.0,0.0,0.0334740653634,0.00346831069328,0.324531316757
118354737887,89,0,honey/haz_cam,-0.0580262094736,0.00750033417717,0.0190738495439,0.488084346056,-0.172661796212,0.82044839859,0.242537528276,0.0396115109324,3.64881343557e-05,0.000244948809268,0.0,0.0,0.0,3.64881270798e-05,0.039272069931,0.000133651643409,0.0,0.0,0.0,0.000244948809268,0.000133651585202,0.0393850542605,0.0,0.0,0.0,0.0,0.0,0.0,0.316748440266,0.00578065495938,0.0345187671483,0.0,0.0,0.0,0.00578065542504,0.179864138365,0.00404083775356,0.0,0.0,0.0,0.0345187708735,0.00404083821923,0.327450424433
119401313175,90,0,honey/haz_cam,-0.058026496321,0.00750035280362,0.019073927775,0.504040420055,-0.178999602795,0.820855438709,0.200242727995,0.0400848500431,4.0240061935e-05,0.000243404690991,0.0,0.0,0.0,4.02400837629e-05,0.0397422872484,0.000144861856825,0.0,0.0,0.0,0.000243404676439,0.000144861915032,0.0398736447096,0.0,0.0,0.0,0.0,0.0,0.0,0.31899818778,0.00619491236284,0.0358279645443,0.0,0.0,0.0,0.00619491143152,0.18213994801,0.00495765823871,0.0,0.0,0.0,0.0358279645443,0.00495765823871,0.331004202366
120345785562,91,0,honey/haz_cam,-0.0580267868936,0.00750040309504,0.019074017182,0.515819370747,-0.181698039174,0.822633683681,0.155525684357,0.0405586436391,4.59669790871e-05,0.000241077985265,0.0,0.0,0.0,4.59669645352e-05,0.0402202568948,0.000157928006956,0.0,0.0,0.0,0.000241077999817,0.000157928006956,0.0403734818101,0.0,0.0,0.0,0.0,0.0,0.0,0.320503026247,0.00676395045593,0.0371007844806,0.0,0.0,0.0,0.00676395138726,0.184872716665,0.00625037169084,0.0,0.0,0.0,0.0371007844806,0.0062503721565,0.335849702358
121344659143,92,0,honey/haz_cam,-0.0580269731581,0.00750041287392,0.0190740823746,0.518867194653,-0.185080304742,0.826310455799,0.117181181908,0.0410262867808,4.70844279334e-05,0.000241773814196,0.0,0.0,0.0,4.70844497613e-05,0.0406980477273,0.000168263723026,0.0,0.0,0.0,0.0002417738433,0.000168263723026,0.0408771261573,0.0,0.0,0.0,0.0,0.0,0.0,0.320919901133,0.00648263469338,0.0381674245,0.0,0.0,0.0,0.00648263469338,0.187773540616,0.0070152906701,0.0,0.0,0.0,0.0381674282253,0.00701528973877,0.341018766165
122351823691,93,0,honey/haz_cam,-0.0580274350941,0.00750045245513,0.0190742462873,0.522309064865,-0.192525818944,0.826852142811,0.080255150795,0.0414821617305,4.5034186769e-05,0.000242807422183,0.0,0.0,0.0,4.50341722171e-05,0.0411574020982,0.00017410358123,0.0,0.0,0.0,0.000242807422183,0.00017410358123,0.0413649939001,0.0,0.0,0.0,0.0,0.0,0.0,0.322202205658,0.00585439009592,0.0394580252469,0.0,0.0,0.0,0.00585439056158,0.190157100558,0.00742203649133,0.0,0.0,0.0,0.0394580252469,0.007422036957,0.345677673817
123342235080,94,0,honey/haz_cam,-0.0580277517438,0.00750047713518,0.0190743394196,0.53110486269,-0.195368006825,0.82360380888,0.0378669463098,0.0419320426881,4.85227028548e-05,0.000239642598899,0.0,0.0,0.0,4.85227101308e-05,0.0416092686355,0.000181590206921,0.0,0.0,0.0,0.000239642584347,0.000181590265129,0.0418422408402,0.0,0.0,0.0,0.0,0.0,0.0,0.323886543512,0.00543235288933,0.0408681854606,0.0,0.0,0.0,0.00543235242367,0.192700892687,0.00859603378922,0.0,0.0,0.0,0.0408681854606,0.00859603472054,0.350256890059
124378742065,95,0,honey/haz_cam,-0.0580280385911,0.00750048691407,0.0190744493157,0.529985189438,-0.198718696833,0.824360013008,-0.00743888970464,0.0424069091678,4.72970750707e-05,0.000235897663515,0.0,0.0,0.0,4.72971223644e-05,0.0420928299427,0.00018915279361,0.0,0.0,0.0,0.000235897678067,0.00018915279361,0.0423646643758,0.0,0.0,0.0,0.0,0.0,0.0,0.323912411928,0.00388529594056,0.0420572161674,0.0,0.0,0.0,0.0038852954749,0.196144357324,0.00922504812479,0.0,0.0,0.0,0.0420572161674,0.00922504812479,0.357156664133
125338170169,96,0,honey/haz_cam,-0.0580280348659,0.00750046269968,0.0190744623542,0.542125284672,-0.203195586801,0.813720166683,-0.0516662821174,0.0428806096315,5.16862855875e-05,0.000232130041695,0.0,0.0,0.0,5.16862928635e-05,0.0425597578287,0.000190547696548,0.0,0.0,0.0,0.000232130041695,0.000190547696548,0.0428580120206,0.0,0.0,0.0,0.0,0.0,0.0,0.32750800252,0.00281909201294,0.0438515096903,0.0,0.0,0.0,0.0028190924786,0.19873522222,0.0108804889023,0.0,0.0,0.0,0.043851505965,0.0108804870397,0.361948996782
126372643196,97,0,honey/haz_cam,-0.0580285340548,0.00750055210665,0.0190745778382,0.555576860905,-0.210138648748,0.79857647419,-0.09721044451,0.043359991163,5.60370535823e-05,0.000229559853324,0.0,0.0,0.0,5.60370281164e-05,0.0430274829268,0.000187478945008,0.0,0.0,0.0,0.000229559853324,0.000187478770385,0.0433530658484,0.0,0.0,0.0,0.0,0.0,0.0,0.331925630569,0.00213404395618,0.0458614267409,0.0,0.0,0.0,0.00213404442184,0.200884476304,0.0126931061968,0.0,0.0,0.0,0.0458614304662,0.0126931061968,0.366016834974
127346234279,98,0,honey/haz_cam,-0.0580287277699,0.00750055769458,0.019074620679,0.560651302338,-0.212066948414,0.788164913654,-0.13961315155,0.043831512332,5.99599734414e-05,0.000226652438869,0.0,0.0,0.0,5.99599516136e-05,0.0435012057424,0.00018695963081,0.0,0.0,0.0,0.000226652453421,0.000186959572602,0.0438536703587,0.0,0.0,0.0,0.0,0.0,0.0,0.334735155106,0.000746445846744,0.0472575947642,0.0,0.0,0.0,0.00074644619599,0.203472569585,0.0144188404083,0.0,0.0,0.0,0.0472576022148,0.0144188413396,0.372001945972
128396202275,99,0,honey/haz_cam,-0.0580286942422,0.00750052276999,0.0190746281296,0.572137176991,-0.215790167451,0.770576536655,-0.179731950164,0.0443188883364,6.64336475893e-05,0.000226782023674,0.0,0.0,0.0,6.64336839691e-05,0.0439816042781,0.000182779942406,0.0,0.0,0.0,0.000226782038226,0.000182779884199,0.0443530604243,0.0,0.0,0.0,0.0,0.0,0.0,0.340015798807,-0.000226964213653,0.0487894192338,0.0,0.0,0.0,-0.000226964330068,0.205719947815,0.0166766755283,0.0,0.0,0.0,0.0487894229591,0.0166766773909,0.3768004179
129386889317,100,0,honey/haz_cam,-0.0580287873745,0.00750049622729,0.0190746597946,0.581922888756,-0.21660721302,0.754359006882,-0.213043630123,0.0447858981788,7.39461393096e-05,0.000228295786656,0.0,0.0,0.0,7.39461611374e-05,0.0444474741817,0.000180867675226,0.0,0.0,0.0,0.000228295772104,0.000180867733434,0.0448298603296,0.0,0.0,0.0,0.0,0.0,0.0,0.344650417566,-0.000719543313608,0.0497882440686,0.0,0.0,0.0,-0.000719543662854,0.20771035552,0.0189420301467,0.0,0.0,0.0,0.0497882403433,0.0189420282841,0.380776226521
130365491341,101,0,honey/haz_cam,-0.0580290965736,0.00750051252544,0.0190747547895,0.58281648159,-0.22214461863,0.738726019859,-0.255457490683,0.04524718225,7.45584547985e-05,0.000229029916227,0.0,0.0,0.0,7.45584911783e-05,0.0449098199606,0.00017211541126,0.0,0.0,0.0,0.000229029916227,0.000172115469468,0.0453195385635,0.0,0.0,0.0,0.0,0.0,0.0,0.348953336477,-0.00285922526382,0.0512625686824,0.0,0.0,0.0,-0.00285922549665,0.209105968475,0.0202347543091,0.0,0.0,0.0,0.0512625686824,0.0202347543091,0.387171387672
131375114533,102,0,honey/haz_cam,-0.0580291897058,0.00750052509829,0.0190747883171,0.5784714818,-0.220516324043,0.728563070297,-0.29315033555,0.0457011945546,7.46656733099e-05,0.000227301003179,0.0,0.0,0.0,7.4665666034e-05,0.045376803726,0.000168385391589,0.0,0.0,0.0,0.000227301003179,0.000168385333382,0.0458124056458,0.0,0.0,0.0,0.0,0.0,0.0,0.35136115551,-0.00511726783589,0.0517527982593,0.0,0.0,0.0,-0.00511726783589,0.210983455181,0.0212860908359,0.0,0.0,0.0,0.0517527982593,0.0212860945612,0.394975244999
132411348016,103,0,honey/haz_cam,-0.0580292642117,0.0075004841201,0.0190748088062,0.586451113224,-0.218718513846,0.709168374538,-0.32452327013,0.0461951196194,8.2360158558e-05,0.000230517354794,0.0,0.0,0.0,8.23602094897e-05,0.0458750464022,0.00016658831737,0.0,0.0,0.0,0.000230517383898,0.00016658831737,0.0463160760701,0.0,0.0,0.0,0.0,0.0,0.0,0.35637909174,-0.00526258116588,0.0523772761226,0.0,0.0,0.0,-0.00526258163154,0.213196843863,0.0241888519377,0.0,0.0,0.0,0.0523772761226,0.0241888556629,0.399879813194
133356833222,104,0,honey/haz_cam,-0.0580293126404,0.00750049902126,0.0190748162568,0.588571846485,-0.213538825512,0.693836152554,-0.35577210784,0.0466495379806,8.70828298503e-05,0.000231058773352,0.0,0.0,0.0,8.70828516781e-05,0.046344704926,0.000166356170666,0.0,0.0,0.0,0.000231058787904,0.000166356112459,0.0467947535217,0.0,0.0,0.0,0.0,0.0,0.0,0.360026717186,-0.00591142475605,0.0525768063962,0.0,0.0,0.0,-0.00591142568737,0.21476238966,0.0261680781841,0.0,0.0,0.0,0.0525768101215,0.0261680763215,0.406026095152
134380046351,105,0,honey/haz_cam,-0.0580294206738,0.00750048505142,0.0190748479217,0.588214933872,-0.217139214277,0.671838641167,-0.394315004349,0.0471431389451,8.66060290718e-05,0.000235613639234,0.0,0.0,0.0,8.66059926921e-05,0.0468418970704,0.000154802371981,0.0,0.0,0.0,0.000235613639234,0.000154802197358,0.0473083592951,0.0,0.0,0.0,0.0,0.0,0.0,0.366135776043,-0.00769951939583,0.0536199770868,0.0,0.0,0.0,-0.00769951939583,0.215690642595,0.0275701582432,0.0,0.0,0.0,0.0536199770868,0.0275701601058,0.413274079561
135367697814,106,0,honey/haz_cam,-0.0580293722451,0.00750051951036,0.0190748535097,0.583937823772,-0.212796539068,0.649946570396,-0.437380105257,0.0476139448583,8.68285278557e-05,0.000234681327129,0.0,0.0,0.0,8.68285133038e-05,0.0473311543465,0.000148069331772,0.0,0.0,0.0,0.000234681341681,0.000148069331772,0.0478173494339,0.0,0.0,0.0,0.0,0.0,0.0,0.370866477489,-0.00952973496169,0.0540020279586,0.0,0.0,0.0,-0.00952973589301,0.216146737337,0.028724687174,0.0,0.0,0.0,0.0540020316839,0.0287246853113,0.422746032476
136357574803,107,0,honey/haz_cam,-0.0580295994878,0.0075005046092,0.0190749187022,0.584392607212,-0.215053990483,0.623586773872,-0.472624659538,0.0480736233294,8.6305088189e-05,0.000242628710112,0.0,0.0,0.0,8.63051245688e-05,0.0477958023548,0.000137100170832,0.0,0.0,0.0,0.00024262869556,0.000137100287247,0.0482889898121,0.0,0.0,0.0,0.0,0.0,0.0,0.377517729998,-0.0102150198072,0.054827131331,0.0,0.0,0.0,-0.0102150207385,0.215840160847,0.030451035127,0.0,0.0,0.0,0.0548271350563,0.0304510388523,0.428388655186
137416962412,108,0,honey/haz_cam,-0.0580295883119,0.00750048272312,0.019074914977,-0.58244228363,0.209483012557,-0.597289800644,0.510018885136,0.0485402680933,8.63375535118e-05,0.000245675444603,0.0,0.0,0.0,8.63375898916e-05,0.0482802465558,0.000131928318297,0.0,0.0,0.0,0.000245675444603,0.000131928318297,0.0487823709846,0.0,0.0,0.0,0.0,0.0,0.0,0.383291572332,-0.0107993604615,0.055018749088,0.0,0.0,0.0,-0.0107993595302,0.216057091951,0.0323917418718,0.0,0.0,0.0,0.0550187453628,0.0323917455971,0.436961382627
138350846222,109,0,honey/haz_cam,-0.0580296255648,0.00750048318878,0.0190749242902,-0.573983848095,0.206293046474,-0.571122050285,0.549365162849,0.0489978641272,8.08256372693e-05,0.000248530617682,0.0,0.0,0.0,8.08256590972e-05,0.048754427582,0.000120711636555,0.0,0.0,0.0,0.000248530588578,0.000120711636555,0.0492705628276,0.0,0.0,0.0,0.0,0.0,0.0,0.389363378286,-0.0125437490642,0.0552427358925,0.0,0.0,0.0,-0.0125437481329,0.215297162533,0.0325807183981,0.0,0.0,0.0,0.0552427396178,0.0325807183981,0.446294277906
139388564971,110,0,honey/haz_cam,-0.0580297410488,0.00750048644841,0.0190749559551,-0.563814759254,0.205808416009,-0.54697227478,0.583587110043,0.0494738779962,7.28754457668e-05,0.000253670383245,0.0,0.0,0.0,7.28754748707e-05,0.0492409728467,0.000106983854494,0.0,0.0,0.0,0.000253670383245,0.000106983854494,0.0497680045664,0.0,0.0,0.0,0.0,0.0,0.0,0.395678371191,-0.0141957774758,0.0553771182895,0.0,0.0,0.0,-0.0141957765445,0.214751631021,0.0321184284985,0.0,0.0,0.0,0.0553771220148,0.0321184284985,0.45478412509
140392284054,111,0,honey/haz_cam,-0.0580299459398,0.00750043010339,0.0190750323236,-0.562099516392,0.203757017851,-0.520404160023,0.609675109386,0.0499488562346,7.01905155438e-05,0.00026317560696,0.0,0.0,0.0,7.01905155438e-05,0.0497236475348,0.00010213367932,0.0,0.0,0.0,0.00026317560696,0.00010213367932,0.0502482578158,0.0,0.0,0.0,0.0,0.0,0.0,0.402339190245,-0.0138736171648,0.0555791668594,0.0,0.0,0.0,-0.0138736171648,0.214923635125,0.0335317961872,0.0,0.0,0.0,0.0555791668594,0.0335317999125,0.461022049189
141354151915,112,0,honey/haz_cam,-0.0580300167203,0.00750043662265,0.0190750602633,-0.54522550106,0.199664741755,-0.49866104126,0.643581807613,0.0504388436675,5.83638029639e-05,0.000263761961833,0.0,0.0,0.0,5.83638247917e-05,0.0502273887396,8.71175725479e-05,0.0,0.0,0.0,0.000263761903625,8.71176889632e-05,0.0507690608501,0.0,0.0,0.0,0.0,0.0,0.0,0.407534837723,-0.0163773205131,0.0549315176904,0.0,0.0,0.0,-0.0163773223758,0.214359849691,0.0312921777368,0.0,0.0,0.0,0.0549315176904,0.0312921777368,0.47101855278
