%time,field.header.seq,field.header.stamp,field.header.frame_id,field.twist.twist.linear.x,field.twist.twist.linear.y,field.twist.twist.linear.z,field.twist.twist.angular.x,field.twist.twist.angular.y,field.twist.twist.angular.z,field.twist.covariance0,field.twist.covariance1,field.twist.covariance2,field.twist.covariance3,field.twist.covariance4,field.twist.covariance5,field.twist.covariance6,field.twist.covariance7,field.twist.covariance8,field.twist.covariance9,field.twist.covariance10,field.twist.covariance11,field.twist.covariance12,field.twist.covariance13,field.twist.covariance14,field.twist.covariance15,field.twist.covariance16,field.twist.covariance17,field.twist.covariance18,field.twist.covariance19,field.twist.covariance20,field.twist.covariance21,field.twist.covariance22,field.twist.covariance23,field.twist.covariance24,field.twist.covariance25,field.twist.covariance26,field.twist.covariance27,field.twist.covariance28,field.twist.covariance29,field.twist.covariance30,field.twist.covariance31,field.twist.covariance32,field.twist.covariance33,field.twist.covariance34,field.twist.covariance35
95300246942,0,0,honey/haz_cam,0.0,0.0,0.0,0.00294192368165,0.0676450580359,-0.0669291839004,0.0,0.0,0.0,0.0,0.0,0.0,0.0,0.0,0.0,0.0,0.0,0.0,0.0,0.0,0.0,0.0,0.0,0.0,0.0,0.0,0.0,5.83986729907e-06,-5.04863564856e-05,7289341952.0,0.0,0.0,0.0,0.0,0.0,0.0,0.0,0.0,0.0,0.0,0.0,0.0
96310419182,1,0,honey/haz_cam,0.0,0.0,0.0,0.0079282829538,0.0632803663611,-0.0808193460107,0.0,0.0,0.0,0.0,0.0,0.0,0.0,0.0,0.0,0.0,0.0,0.0,0.0,0.0,0.0,0.0,0.0,0.0,0.0,0.0,0.0,2.88968294626e-06,-0.000153811866767,0.00126116361935,0.0,0.0,0.0,0.0,0.0,0.0,0.0,0.0,0.0,0.0,0.0,0.0
97273534990,2,0,honey/haz_cam,0.0,0.0,0.0,-0.003438787302,0.0559096224606,-0.0689459741116,0.0,0.0,0.0,0.0,0.0,0.0,0.0,0.0,0.0,0.0,0.0,0.0,0.0,0.0,0.0,0.0,0.0,0.0,0.0,0.0,0.0,-1.63574077305e-05,-0.000257220293861,0.00198514130898,0.0,0.0,0.0,0.0,0.0,0.0,0.0,0.0,0.0,0.0,0.0,0.0
98277368190,3,0,honey/haz_cam,0.0,0.0,0.0,-0.005288424436,0.0672327503562,-0.091050028801,0.0,0.0,0.0,0.0,0.0,0.0,0.0,0.0,0.0,0.0,0.0,0.0,0.0,0.0,0.0,0.0,0.0,0.0,0.0,0.0,0.0,-3.9020946133e-05,-0.000353279116098,0.00272150337696,0.0,0.0,0.0,0.0,0.0,0.0,0.0,0.0,0.0,0.0,0.0,0.0
99294707791,4,0,honey/haz_cam,0.0,0.0,0.0,0.0171870347112,0.0530686639249,-0.0601646155119,0.0,0.0,0.0,0.0,0.0,0.0,0.0,0.0,0.0,0.0,0.0,0.0,0.0,0.0,0.0,0.0,0.0,0.0,0.0,0.0,0.0,-8.86942143552e-05,-0.000436907925177,0.00346657307819,0.0,0.0,0.0,0.0,0.0,0.0,0.0,0.0,0.0,0.0,0.0,0.0
100334864605,5,0,honey/haz_cam,0.0,0.0,0.0,0.00540043227375,0.0599287748337,-0.043641474098,0.0,0.0,0.0,0.0,0.0,0.0,0.0,0.0,0.0,0.0,0.0,0.0,0.0,0.0,0.0,0.0,0.0,0.0,0.0,0.0,0.0,-0.00014925544383,-0.000515069346875,0.00417235586792,0.0,0.0,0.0,0.0,0.0,0.0,0.0,0.0,0.0,0.0,0.0,0.0
101337896775,6,0,honey/haz_cam,0.0,0.0,0.0,0.00100254139397,0.0667422488332,-0.0593334250152,0.0,0.0,0.0,0.0,0.0,0.0,0.0,0.0,0.0,0.0,0.0,0.0,0.0,0.0,0.0,0.0,0.0,0.0,0.0,0.0,0.0,-0.000205376534723,-0.000585958187003,0.00489768758416,0.0,0.0,0.0,0.0,0.0,0.0,0.0,0.0,0.0,0.0,0.0,0.0
102362059181,7,0,honey/haz_cam,0.0,0.0,0.0,0.0112429894507,0.0488183088601,-0.0584239065647,0.0,0.0,0.0,0.0,0.0,0.0,0.0,0.0,0.0,0.0,0.0,0.0,0.0,0.0,0.0,0.0,0.0,0.0,0.0,0.0,0.0,-0.000270950607955,-0.00064717780333,0.0056622303091,0.0,0.0,0.0,0.0,0.0,0.0,0.0,0.0,0.0,0.0,0.0,0.0
103322508062,8,0,honey/haz_cam,0.0,0.0,0.0,0.0177387427539,0.0568176880479,-0.0662705525756,0.0,0.0,0.0,0.0,0.0,0.0,0.0,0.0,0.0,0.0,0.0,0.0,0.0,0.0,0.0,0.0,0.0,0.0,0.0,0.0,0.0,-0.000331463583279,-0.000709295622073,0.00642050988972,0.0,0.0,0.0,0.0,0.0,0.0,0.0,0.0,0.0,0.0,0.0,0.0
104342491532,9,0,honey/haz_cam,0.0,0.0,0.0,0.00423107389361,0.0615697801113,-0.0453492701054,0.0,0.0,0.0,0.0,0.0,0.0,0.0,0.0,0.0,0.0,0.0,0.0,0.0,0.0,0.0,0.0,0.0,0.0,0.0,0.0,0.0,-0.000427090213634,-0.000799147645012,0.00712460791692,0.0,0.0,0.0,0.0,0.0,0.0,0.0,0.0,0.0,0.0,0.0,0.0
105342886248,10,0,honey/haz_cam,0.0,0.0,0.0,0.00992811191827,0.0545613579452,-0.0489291250706,0.0,0.0,0.0,0.0,0.0,0.0,0.0,0.0,0.0,0.0,0.0,0.0,0.0,0.0,0.0,0.0,0.0,0.0,0.0,0.0,0.0,-0.000526292831637,-0.000887701695319,0.00784678384662,0.0,0.0,0.0,0.0,0.0,0.0,0.0,0.0,0.0,0.0,0.0,0.0
106434192269,11,0,honey/haz_cam,0.0,0.0,0.0,0.0073299696669,0.0588080324233,-0.0536283627152,0.0,0.0,0.0,0.0,0.0,0.0,0.0,0.0,0.0,0.0,0.0,0.0,0.0,0.0,0.0,0.0,0.0,0.0,0.0,0.0,0.0,-0.00060949975159,-0.00094377505593,0.00860014557838,0.0,0.0,0.0,0.0,0.0,0.0,0.0,0.0,0.0,0.0,0.0,0.0
107317764990,12,0,honey/haz_cam,0.0,0.0,0.0,0.00202172808349,0.0596071891487,-0.0673159658909,0.0,0.0,0.0,0.0,0.0,0.0,0.0,0.0,0.0,0.0,0.0,0.0,0.0,0.0,0.0,0.0,0.0,0.0,0.0,0.0,0.0,-0.000684900674969,-0.000997762312181,0.0093677835539,0.0,0.0,0.0,0.0,0.0,0.0,0.0,0.0,0.0,0.0,0.0,0.0
108358178487,13,0,honey/haz_cam,0.0,0.0,0.0,0.0113574750721,0.0557560697198,-0.0609542317688,0.0,0.0,0.0,0.0,0.0,0.0,0.0,0.0,0.0,0.0,0.0,0.0,0.0,0.0,0.0,0.0,0.0,0.0,0.0,0.0,0.0,-0.000771016464569,-0.00103765493259,0.0101555176079,0.0,0.0,0.0,0.0,0.0,0.0,0.0,0.0,0.0,0.0,0.0,0.0
109318833573,14,0,honey/haz_cam,0.0,0.0,0.0,0.0234591700137,0.044463776052,-0.0640720129013,0.0,0.0,0.0,0.0,0.0,0.0,0.0,0.0,0.0,0.0,0.0,0.0,0.0,0.0,0.0,0.0,0.0,0.0,0.0,0.0,0.0,-0.000855854828842,-0.00107495463453,0.0109387058765,0.0,0.0,0.0,0.0,0.0,0.0,0.0,0.0,0.0,0.0,0.0,0.0
110329249578,15,0,honey/haz_cam,0.0,0.0,0.0,-0.0129624716938,0.0658335387707,-0.0535724461079,0.0,0.0,0.0,0.0,0.0,0.0,0.0,0.0,0.0,0.0,0.0,0.0,0.0,0.0,0.0,0.0,0.0,0.0,0.0,0.0,0.0,-0.000954957911745,-0.00111640291288,0.0116508416831,0.0,0.0,0.0,0.0,0.0,0.0,0.0,0.0,0.0,0.0,0.0,0.0
111311034484,16,0,honey/haz_cam,0.0,0.0,0.0,0.000856690225191,0.0657759830356,-0.0495604090393,0.0,0.0,0.0,0.0,0.0,0.0,0.0,0.0,0.0,0.0,0.0,0.0,0.0,0.0,0.0,0.0,0.0,0.0,0.0,0.0,0.0,-0.00102801213507,-0.00113865965977,0.0124721080065,0.0,0.0,0.0,0.0,0.0,0.0,0.0,0.0,0.0,0.0,0.0,0.0
112321898217,17,0,honey/haz_cam,0.0,0.0,0.0,0.00754315266386,0.051717877388,-0.0674978047609,0.0,0.0,0.0,0.0,0.0,0.0,0.0,0.0,0.0,0.0,0.0,0.0,0.0,0.0,0.0,0.0,0.0,0.0,0.0,0.0,0.0,-0.00108296482358,-0.00115879811347,0.0133034000173,0.0,0.0,0.0,0.0,0.0,0.0,0.0,0.0,0.0,0.0,0.0,0.0
113338056015,18,0,honey/haz_cam,0.0,0.0,0.0,-0.00116557942238,0.0623278208077,-0.066732198,0.0,0.0,0.0,0.0,0.0,0.0,0.0,0.0,0.0,0.0,0.0,0.0,0.0,0.0,0.0,0.0,0.0,0.0,0.0,0.0,0.0,-0.00114322919399,-0.00117577426136,0.0140999350697,0.0,0.0,0.0,0.0,0.0,0.0,0.0,0.0,0.0,0.0,0.0,0.0
114327984978,19,0,honey/haz_cam,0.0,0.0,0.0,0.00260062050074,0.0604109689593,-0.0722565427423,0.0,0.0,0.0,0.0,0.0,0.0,0.0,0.0,0.0,0.0,0.0,0.0,0.0,0.0,0.0,0.0,0.0,0.0,0.0,0.0,0.0,-0.00118005194236,-0.00118162250146,0.0149346925318,0.0,0.0,0.0,0.0,0.0,0.0,0.0,0.0,0.0,0.0,0.0,0.0
115309306469,20,0,honey/haz_cam,0.0,0.0,0.0,0.00594490766525,0.0635758340359,-0.0586161613464,0.0,0.0,0.0,0.0,0.0,0.0,0.0,0.0,0.0,0.0,0.0,0.0,0.0,0.0,0.0,0.0,0.0,0.0,0.0,0.0,0.0,-0.00122348091099,-0.00117555586621,0.0157599113882,0.0,0.0,0.0,0.0,0.0,0.0,0.0,0.0,0.0,0.0,0.0,0.0
116310440817,21,0,honey/haz_cam,0.0,0.0,0.0,-0.000768691592384,0.0532541461289,-0.0808086693287,0.0,0.0,0.0,0.0,0.0,0.0,0.0,0.0,0.0,0.0,0.0,0.0,0.0,0.0,0.0,0.0,0.0,0.0,0.0,0.0,0.0,-0.0012298473157,-0.00118355150335,0.0165992751718,0.0,0.0,0.0,0.0,0.0,0.0,0.0,0.0,0.0,0.0,0.0,0.0
117320651102,22,0,honey/haz_cam,0.0,0.0,0.0,0.00330940587446,0.0396198220551,-0.0673586949706,0.0,0.0,0.0,0.0,0.0,0.0,0.0,0.0,0.0,0.0,0.0,0.0,0.0,0.0,0.0,0.0,0.0,0.0,0.0,0.0,0.0,-0.0012366680894,-0.00116682960652,0.0174639839679,0.0,0.0,0.0,0.0,0.0,0.0,0.0,0.0,0.0,0.0,0.0,0.0
118311012838,23,0,honey/haz_cam,0.0,0.0,0.0,-0.0203569158912,0.0508109182119,-0.0601521171629,0.0,0.0,0.0,0.0,0.0,0.0,0.0,0.0,0.0,0.0,0.0,0.0,0.0,0.0,0.0,0.0,0.0,0.0,0.0,0.0,0.0,-0.00123665784486,-0.00116494763643,0.0182554405183,0.0,0.0,0.0,0.0,0.0,0.0,0.0,0.0,0.0,0.0,0.0,0.0
119342363127,24,0,honey/haz_cam,0.0,0.0,0.0,-0.000540017441381,0.0617078728974,-0.0552707463503,0.0,0.0,0.0,0.0,0.0,0.0,0.0,0.0,0.0,0.0,0.0,0.0,0.0,0.0,0.0,0.0,0.0,0.0,0.0,0.0,0.0,-0.00119235704187,-0.00114906672388,0.0191064812243,0.0,0.0,0.0,0.0,0.0,0.0,0.0,0.0,0.0,0.0,0.0,0.0
120301987546,25,0,honey/haz_cam,0.0,0.0,0.0,0.0224306900054,0.0767163857818,-0.0573538020253,0.0,0.0,0.0,0.0,0.0,0.0,0.0,0.0,0.0,0.0,0.0,0.0,0.0,0.0,0.0,0.0,0.0,0.0,0.0,0.0,0.0,-0.00115573965013,-0.00114383501932,0.0199623405933,0.0,0.0,0.0,0.0,0.0,0.0,0.0,0.0,0.0,0.0,0.0,0.0
121317769959,26,0,honey/haz_cam,0.0,0.0,0.0,0.0294220782816,0.0675132125616,-0.0550513118505,0.0,0.0,0.0,0.0,0.0,0.0,0.0,0.0,0.0,0.0,0.0,0.0,0.0,0.0,0.0,0.0,0.0,0.0,0.0,0.0,0.0,-0.00112178153358,-0.00114743388258,0.0208294279873,0.0,0.0,0.0,0.0,0.0,0.0,0.0,0.0,0.0,0.0,0.0,0.0
122307430306,27,0,honey/haz_cam,0.0,0.0,0.0,0.00219954852946,0.0936071574688,-0.084946192801,0.0,0.0,0.0,0.0,0.0,0.0,0.0,0.0,0.0,0.0,0.0,0.0,0.0,0.0,0.0,0.0,0.0,0.0,0.0,0.0,0.0,-0.00108751328662,-0.00117539055645,0.0215902961791,0.0,0.0,0.0,0.0,0.0,0.0,0.0,0.0,0.0,0.0,0.0,0.0
123317585626,28,0,honey/haz_cam,0.0,0.0,0.0,0.00267299357802,0.0650150328875,-0.0591933503747,0.0,0.0,0.0,0.0,0.0,0.0,0.0,0.0,0.0,0.0,0.0,0.0,0.0,0.0,0.0,0.0,0.0,0.0,0.0,0.0,0.0,-0.00100584048778,-0.00117082986981,0.0224198810756,0.0,0.0,0.0,0.0,0.0,0.0,0.0,0.0,0.0,0.0,0.0,0.0
124287491245,29,0,honey/haz_cam,0.0,0.0,0.0,0.0107861291617,0.0874990746379,-0.0671734362841,0.0,0.0,0.0,0.0,0.0,0.0,0.0,0.0,0.0,0.0,0.0,0.0,0.0,0.0,0.0,0.0,0.0,0.0,0.0,0.0,0.0,-0.00089795421809,-0.00121036288328,0.0232329461724,0.0,0.0,0.0,0.0,0.0,0.0,0.0,0.0,0.0,0.0,0.0,0.0
125286984533,30,0,honey/haz_cam,0.0,0.0,0.0,0.00866788811982,0.0586835034192,-0.0485099107027,0.0,0.0,0.0,0.0,0.0,0.0,0.0,0.0,0.0,0.0,0.0,0.0,0.0,0.0,0.0,0.0,0.0,0.0,0.0,0.0,0.0,-0.000757515896112,-0.00123965437524,0.0240636728704,0.0,0.0,0.0,0.0,0.0,0.0,0.0,0.0,0.0,0.0,0.0,0.0
126288698060,31,0,honey/haz_cam,0.0,0.0,0.0,0.00337887974456,0.0519355870783,-0.0883490592241,0.0,0.0,0.0,0.0,0.0,0.0,0.0,0.0,0.0,0.0,0.0,0.0,0.0,0.0,0.0,0.0,0.0,0.0,0.0,0.0,0.0,-0.000667301006615,-0.00131331500597,0.0248739756644,0.0,0.0,0.0,0.0,0.0,0.0,0.0,0.0,0.0,0.0,0.0,0.0
127298631383,32,0,honey/haz_cam,0.0,0.0,0.0,0.00475610652938,0.081224501133,-0.0656527504325,0.0,0.0,0.0,0.0,0.0,0.0,0.0,0.0,0.0,0.0,0.0,0.0,0.0,0.0,0.0,0.0,0.0,0.0,0.0,0.0,0.0,-0.000660697929561,-0.00138266035356,0.0256436094642,0.0,0.0,0.0,0.0,0.0,0.0,0.0,0.0,0.0,0.0,0.0,0.0
128299600457,33,0,honey/haz_cam,0.0,0.0,0.0,0.0283233299851,0.0696373805404,-0.0473389402032,0.0,0.0,0.0,0.0,0.0,0.0,0.0,0.0,0.0,0.0,0.0,0.0,0.0,0.0,0.0,0.0,0.0,0.0,0.0,0.0,0.0,-0.00060961372219,-0.0014588618651,0.0264485403895,0.0,0.0,0.0,0.0,0.0,0.0,0.0,0.0,0.0,0.0,0.0,0.0
129320419053,34,0,honey/haz_cam,0.0,0.0,0.0,-0.00607081362978,0.0499384105206,-0.0811888575554,0.0,0.0,0.0,0.0,0.0,0.0,0.0,0.0,0.0,0.0,0.0,0.0,0.0,0.0,0.0,0.0,0.0,0.0,0.0,0.0,0.0,-0.00053190253675,-0.00155556108803,0.0271919034421,0.0,0.0,0.0,0.0,0.0,0.0,0.0,0.0,0.0,0.0,0.0,0.0
130300620243,35,0,honey/haz_cam,0.0,0.0,0.0,0.025775058195,0.0467287413776,-0.0534485429525,0.0,0.0,0.0,0.0,0.0,0.0,0.0,0.0,0.0,0.0,0.0,0.0,0.0,0.0,0.0,0.0,0.0,0.0,0.0,0.0,0.0,-0.000533945159987,-0.00164155254606,0.0280269794166,0.0,0.0,0.0,0.0,0.0,0.0,0.0,0.0,0.0,0.0,0.0,0.0
131310367626,36,0,honey/haz_cam,0.0,0.0,0.0,0.0130537748337,0.0642021819949,-0.0740911960602,0.0,0.0,0.0,0.0,0.0,0.0,0.0,0.0,0.0,0.0,0.0,0.0,0.0,0.0,0.0,0.0,0.0,0.0,0.0,0.0,0.0,-0.00052909902297,-0.0017500994727,0.0287564769387,0.0,0.0,0.0,0.0,0.0,0.0,0.0,0.0,0.0,0.0,0.0,0.0
132381472338,37,0,honey/haz_cam,0.0,0.0,0.0,0.00689337402582,0.0601675249636,-0.0626285970211,0.0,0.0,0.0,0.0,0.0,0.0,0.0,0.0,0.0,0.0,0.0,0.0,0.0,0.0,0.0,0.0,0.0,0.0,0.0,0.0,0.0,-0.000542302150279,-0.0018440708518,0.0295193865895,0.0,0.0,0.0,0.0,0.0,0.0,0.0,0.0,0.0,0.0,0.0,0.0
133323919613,38,0,honey/haz_cam,0.0,0.0,0.0,0.0126919131726,0.067209109664,-0.0512701757252,0.0,0.0,0.0,0.0,0.0,0.0,0.0,0.0,0.0,0.0,0.0,0.0,0.0,0.0,0.0,0.0,0.0,0.0,0.0,0.0,0.0,-0.000582693144679,-0.00193562579807,0.0302877351642,0.0,0.0,0.0,0.0,0.0,0.0,0.0,0.0,0.0,0.0,0.0,0.0
134325071550,39,0,honey/haz_cam,0.0,0.0,0.0,0.0179510079324,0.0587827265263,-0.0566199421883,0.0,0.0,0.0,0.0,0.0,0.0,0.0,0.0,0.0,0.0,0.0,0.0,0.0,0.0,0.0,0.0,0.0,0.0,0.0,0.0,0.0,-0.000605175970122,-0.00202952534892,0.0310586541891,0.0,0.0,0.0,0.0,0.0,0.0,0.0,0.0,0.0,0.0,0.0,0.0
135327755999,40,0,honey/haz_cam,0.0,0.0,0.0,0.0147836050019,0.0464397370815,-0.0486780740321,0.0,0.0,0.0,0.0,0.0,0.0,0.0,0.0,0.0,0.0,0.0,0.0,0.0,0.0,0.0,0.0,0.0,0.0,0.0,0.0,0.0,-0.000645784195513,-0.00211447104812,0.0318369567394,0.0,0.0,0.0,0.0,0.0,0.0,0.0,0.0,0.0,0.0,0.0,0.0
136335949951,41,0,honey/haz_cam,0.0,0.0,0.0,0.0241273455322,0.0553560741246,-0.0351278148592,0.0,0.0,0.0,0.0,0.0,0.0,0.0,0.0,0.0,0.0,0.0,0.0,0.0,0.0,0.0,0.0,0.0,0.0,0.0,0.0,0.0,-0.000723240198568,-0.00218948861584,0.0326169803739,0.0,0.0,0.0,0.0,0.0,0.0,0.0,0.0,0.0,0.0,0.0,0.0
137340034519,42,0,honey/haz_cam,0.0,0.0,0.0,0.00844474881887,0.0588075481355,-0.0241282656789,0.0,0.0,0.0,0.0,0.0,0.0,0.0,0.0,0.0,0.0,0.0,0.0,0.0,0.0,0.0,0.0,0.0,0.0,0.0,0.0,0.0,-0.000817625783384,-0.00225329282694,0.0333192609251,0.0,0.0,0.0,0.0,0.0,0.0,0.0,0.0,0.0,0.0,0.0,0.0
138320414260,43,0,honey/haz_cam,0.0,0.0,0.0,0.0345688350499,0.0487304143608,-0.0471161007881,0.0,0.0,0.0,0.0,0.0,0.0,0.0,0.0,0.0,0.0,0.0,0.0,0.0,0.0,0.0,0.0,0.0,0.0,0.0,0.0,0.0,-0.000865016132593,-0.00232715834863,0.0341429561377,0.0,0.0,0.0,0.0,0.0,0.0,0.0,0.0,0.0,0.0,0.0,0.0
139301251718,44,0,honey/haz_cam,0.0,0.0,0.0,0.00204564910382,0.0674243867397,-0.0224554110318,0.0,0.0,0.0,0.0,0.0,0.0,0.0,0.0,0.0,0.0,0.0,0.0,0.0,0.0,0.0,0.0,0.0,0.0,0.0,0.0,0.0,-0.00100584607571,-0.00237659900449,0.0348066054285,0.0,0.0,0.0,0.0,0.0,0.0,0.0,0.0,0.0,0.0,0.0,0.0
140415140081,45,0,honey/haz_cam,0.0,0.0,0.0,0.00931059010327,0.0673170462251,-0.0654646679759,0.0,0.0,0.0,0.0,0.0,0.0,0.0,0.0,0.0,0.0,0.0,0.0,0.0,0.0,0.0,0.0,0.0,0.0,0.0,0.0,0.0,-0.00104403914884,-0.00245835236274,0.0356019511819,0.0,0.0,0.0,0.0,0.0,0.0,0.0,0.0,0.0,0.0,0.0,0.0
141337848058,46,0,honey/haz_cam,0.0,0.0,0.0,0.0203535482287,0.0627860203385,-0.0441681966186,0.0,0.0,0.0,0.0,0.0,0.0,0.0,0.0,0.0,0.0,0.0,0.0,0.0,0.0,0.0,0.0,0.0,0.0,0.0,0.0,0.0,-0.00116757955402,-0.00248608225957,0.0364380255342,0.0,0.0,0.0,0.0,0.0,0.0,0.0,0.0,0.0,0.0,0.0,0.0
142337803514,47,0,honey/haz_cam,0.0,0.0,0.0,0.0232292022556,0.0684895515442,-0.0589527226985,0.0,0.0,0.0,0.0,0.0,0.0,0.0,0.0,0.0,0.0,0.0,0.0,0.0,0.0,0.0,0.0,0.0,0.0,0.0,0.0,0.0,-0.00125539302826,-0.00252711586654,0.0372482761741,0.0,0.0,0.0,0.0,0.0,0.0,0.0,0.0,0.0,0.0,0.0,0.0
143347629412,48,0,honey/haz_cam,0.0,0.0,0.0,0.0142293153331,0.0746551528573,-0.0447280853987,0.0,0.0,0.0,0.0,0.0,0.0,0.0,0.0,0.0,0.0,0.0,0.0,0.0,0.0,0.0,0.0,0.0,0.0,0.0,0.0,0.0,-0.0013787234202,-0.00254933163524,0.038027215749,0.0,0.0,0.0,0.0,0.0,0.0,0.0,0.0,0.0,0.0,0.0,0.0
144347571360,49,0,honey/haz_cam,0.0,0.0,0.0,0.0166611243039,0.0756713226438,-0.0525559186935,0.0,0.0,0.0,0.0,0.0,0.0,0.0,0.0,0.0,0.0,0.0,0.0,0.0,0.0,0.0,0.0,0.0,0.0,0.0,0.0,0.0,-0.00146492337808,-0.00257877027616,0.0388650260866,0.0,0.0,0.0,0.0,0.0,0.0,0.0,0.0,0.0,0.0,0.0,0.0
145302344068,50,0,honey/haz_cam,0.0,0.0,0.0,0.0105432122946,0.0743185728788,-0.0469007454813,0.0,0.0,0.0,0.0,0.0,0.0,0.0,0.0,0.0,0.0,0.0,0.0,0.0,0.0,0.0,0.0,0.0,0.0,0.0,0.0,0.0,-0.00155766075477,-0.00259081553668,0.0396937653422,0.0,0.0,0.0,0.0,0.0,0.0,0.0,0.0,0.0,0.0,0.0,0.0
146322205586,51,0,honey/haz_cam,0.0,0.0,0.0,0.0128636369482,0.089985832572,-0.0307034775615,0.0,0.0,0.0,0.0,0.0,0.0,0.0,0.0,0.0,0.0,0.0,0.0,0.0,0.0,0.0,0.0,0.0,0.0,0.0,0.0,0.0,-0.00166838569567,-0.00259429961443,0.0405164733529,0.0,0.0,0.0,0.0,0.0,0.0,0.0,0.0,0.0,0.0,0.0,0.0
147347521696,52,0,honey/haz_cam,0.0,0.0,0.0,-0.0115628810599,0.0661825537682,-0.0309821795672,0.0,0.0,0.0,0.0,0.0,0.0,0.0,0.0,0.0,0.0,0.0,0.0,0.0,0.0,0.0,0.0,0.0,0.0,0.0,0.0,0.0,-0.00171011360362,-0.00258322339505,0.0413582846522,0.0,0.0,0.0,0.0,0.0,0.0,0.0,0.0,0.0,0.0,0.0,0.0
148317498792,53,0,honey/haz_cam,0.0,0.0,0.0,0.0207915846258,0.0905220508575,-0.0601143017411,0.0,0.0,0.0,0.0,0.0,0.0,0.0,0.0,0.0,0.0,0.0,0.0,0.0,0.0,0.0,0.0,0.0,0.0,0.0,0.0,0.0,-0.00171872705687,-0.0026317127049,0.0422689914703,0.0,0.0,0.0,0.0,0.0,0.0,0.0,0.0,0.0,0.0,0.0,0.0
149287334083,54,0,honey/haz_cam,0.0,0.0,0.0,0.030631903559,0.092386700213,-0.0664102658629,0.0,0.0,0.0,0.0,0.0,0.0,0.0,0.0,0.0,0.0,0.0,0.0,0.0,0.0,0.0,0.0,0.0,0.0,0.0,0.0,0.0,-0.00174824497662,-0.00264119170606,0.0431595183909,0.0,0.0,0.0,0.0,0.0,0.0,0.0,0.0,0.0,0.0,0.0,0.0
150287102565,55,0,honey/haz_cam,0.0,0.0,0.0,0.0239198040217,0.083267942071,-0.0481665842235,0.0,0.0,0.0,0.0,0.0,0.0,0.0,0.0,0.0,0.0,0.0,0.0,0.0,0.0,0.0,0.0,0.0,0.0,0.0,0.0,0.0,-0.00179054192267,-0.00261662621051,0.0440326817334,0.0,0.0,0.0,0.0,0.0,0.0,0.0,0.0,0.0,0.0,0.0,0.0
151307402127,56,0,honey/haz_cam,0.0,0.0,0.0,0.00931772124022,0.07294549793,-0.0372913815081,0.0,0.0,0.0,0.0,0.0,0.0,0.0,0.0,0.0,0.0,0.0,0.0,0.0,0.0,0.0,0.0,0.0,0.0,0.0,0.0,0.0,-0.00179230328649,-0.00259853340685,0.0449084714055,0.0,0.0,0.0,0.0,0.0,0.0,0.0,0.0,0.0,0.0,0.0,0.0
152307422993,57,0,honey/haz_cam,0.0,0.0,0.0,0.00605840235949,0.0726148411632,-0.0735009461641,0.0,0.0,0.0,0.0,0.0,0.0,0.0,0.0,0.0,0.0,0.0,0.0,0.0,0.0,0.0,0.0,0.0,0.0,0.0,0.0,0.0,-0.00171519629657,-0.00263948040083,0.0458017252386,0.0,0.0,0.0,0.0,0.0,0.0,0.0,0.0,0.0,0.0,0.0,0.0
153319630548,58,0,honey/haz_cam,0.0,0.0,0.0,0.00343404454179,0.0691901892424,-0.0685085728765,0.0,0.0,0.0,0.0,0.0,0.0,0.0,0.0,0.0,0.0,0.0,0.0,0.0,0.0,0.0,0.0,0.0,0.0,0.0,0.0,0.0,-0.00167511869222,-0.00265553221107,0.0466748811305,0.0,0.0,0.0,0.0,0.0,0.0,0.0,0.0,0.0,0.0,0.0,0.0
154350645251,59,0,honey/haz_cam,0.0,0.0,0.0,0.0246150307357,0.0671733319759,-0.0579622648656,0.0,0.0,0.0,0.0,0.0,0.0,0.0,0.0,0.0,0.0,0.0,0.0,0.0,0.0,0.0,0.0,0.0,0.0,0.0,0.0,0.0,-0.00163376983255,-0.00268293917179,0.0475984551013,0.0,0.0,0.0,0.0,0.0,0.0,0.0,0.0,0.0,0.0,0.0,0.0
155351218631,60,0,honey/haz_cam,0.0,0.0,0.0,0.00301703694277,0.0781136751175,-0.0501928590238,0.0,0.0,0.0,0.0,0.0,0.0,0.0,0.0,0.0,0.0,0.0,0.0,0.0,0.0,0.0,0.0,0.0,0.0,0.0,0.0,0.0,-0.00160381104797,-0.00270864367485,0.0483852699399,0.0,0.0,0.0,0.0,0.0,0.0,0.0,0.0,0.0,0.0,0.0,0.0
156321815941,61,0,honey/haz_cam,0.0,0.0,0.0,0.0125925745815,0.0668076276779,-0.0558166876435,0.0,0.0,0.0,0.0,0.0,0.0,0.0,0.0,0.0,0.0,0.0,0.0,0.0,0.0,0.0,0.0,0.0,0.0,0.0,0.0,0.0,-0.00150289945304,-0.00276065757498,0.0492815375328,0.0,0.0,0.0,0.0,0.0,0.0,0.0,0.0,0.0,0.0,0.0,0.0
157332127424,62,0,honey/haz_cam,0.0,0.0,0.0,0.0289396438748,0.0612439662218,-0.0457418188453,0.0,0.0,0.0,0.0,0.0,0.0,0.0,0.0,0.0,0.0,0.0,0.0,0.0,0.0,0.0,0.0,0.0,0.0,0.0,0.0,0.0,-0.00143925566226,-0.00281608710065,0.0501772165298,0.0,0.0,0.0,0.0,0.0,0.0,0.0,0.0,0.0,0.0,0.0,0.0
158322102841,63,0,honey/haz_cam,0.0,0.0,0.0,0.00220494694076,0.0523044615984,-0.0483191534877,0.0,0.0,0.0,0.0,0.0,0.0,0.0,0.0,0.0,0.0,0.0,0.0,0.0,0.0,0.0,0.0,0.0,0.0,0.0,0.0,0.0,-0.001359840855,-0.00287694041617,0.050958506763,0.0,0.0,0.0,0.0,0.0,0.0,0.0,0.0,0.0,0.0,0.0,0.0
159353361945,64,0,honey/haz_cam,0.0,0.0,0.0,0.00957351364195,0.0778211802244,-0.0477569811046,0.0,0.0,0.0,0.0,0.0,0.0,0.0,0.0,0.0,0.0,0.0,0.0,0.0,0.0,0.0,0.0,0.0,0.0,0.0,0.0,0.0,-0.00133315660059,-0.0029477532953,0.0517714507878,0.0,0.0,0.0,0.0,0.0,0.0,0.0,0.0,0.0,0.0,0.0,0.0
160344908377,65,0,honey/haz_cam,0.0,0.0,0.0,0.0134640531614,0.0720101892948,-0.0516299940646,0.0,0.0,0.0,0.0,0.0,0.0,0.0,0.0,0.0,0.0,0.0,0.0,0.0,0.0,0.0,0.0,0.0,0.0,0.0,0.0,0.0,-0.00124862138182,-0.00303211598657,0.0525913909078,0.0,0.0,0.0,0.0,0.0,0.0,0.0,0.0,0.0,0.0,0.0,0.0
161311805370,66,0,honey/haz_cam,0.0,0.0,0.0,0.00738599197939,0.088126398623,-0.0571238957345,0.0,0.0,0.0,0.0,0.0,0.0,0.0,0.0,0.0,0.0,0.0,0.0,0.0,0.0,0.0,0.0,0.0,0.0,0.0,0.0,0.0,-0.00120194163173,-0.00312150921673,0.0533360689878,0.0,0.0,0.0,0.0,0.0,0.0,0.0,0.0,0.0,0.0,0.0,0.0
162317659706,67,0,honey/haz_cam,0.0,0.0,0.0,0.00437679002061,0.0825654640794,-0.0538059175014,0.0,0.0,0.0,0.0,0.0,0.0,0.0,0.0,0.0,0.0,0.0,0.0,0.0,0.0,0.0,0.0,0.0,0.0,0.0,0.0,0.0,-0.00114471558481,-0.00320821534842,0.0541260540485,0.0,0.0,0.0,0.0,0.0,0.0,0.0,0.0,0.0,0.0,0.0,0.0
163313596579,68,0,honey/haz_cam,0.0,0.0,0.0,-0.00622655870393,0.0710378363729,-0.054327480495,0.0,0.0,0.0,0.0,0.0,0.0,0.0,0.0,0.0,0.0,0.0,0.0,0.0,0.0,0.0,0.0,0.0,0.0,0.0,0.0,0.0,-0.00108092371374,-0.00330018019304,0.0548991188407,0.0,0.0,0.0,0.0,0.0,0.0,0.0,0.0,0.0,0.0,0.0,0.0
164333933359,69,0,honey/haz_cam,0.0,0.0,0.0,-0.00992996431887,0.0905889347196,-0.0595967359841,0.0,0.0,0.0,0.0,0.0,0.0,0.0,0.0,0.0,0.0,0.0,0.0,0.0,0.0,0.0,0.0,0.0,0.0,0.0,0.0,0.0,-0.00106668379158,-0.0033977557905,0.0556538999081,0.0,0.0,0.0,0.0,0.0,0.0,0.0,0.0,0.0,0.0,0.0,0.0
165374781744,70,0,honey/haz_cam,0.0,0.0,0.0,0.0224209818989,0.073055870831,-0.0486144423485,0.0,0.0,0.0,0.0,0.0,0.0,0.0,0.0,0.0,0.0,0.0,0.0,0.0,0.0,0.0,0.0,0.0,0.0,0.0,0.0,0.0,-0.00104776886292,-0.00350641645491,0.0565590336919,0.0,0.0,0.0,0.0,0.0,0.0,0.0,0.0,0.0,0.0,0.0,0.0
166315892549,71,0,honey/haz_cam,0.0,0.0,0.0,0.0126561922953,0.0719313919544,-0.0507973395288,0.0,0.0,0.0,0.0,0.0,0.0,0.0,0.0,0.0,0.0,0.0,0.0,0.0,0.0,0.0,0.0,0.0,0.0,0.0,0.0,0.0,-0.00103023042902,-0.00360207306221,0.0572919845581,0.0,0.0,0.0,0.0,0.0,0.0,0.0,0.0,0.0,0.0,0.0,0.0
167319793928,72,0,honey/haz_cam,0.0,0.0,0.0,0.0114747723565,0.0675949007273,-0.0487640537322,0.0,0.0,0.0,0.0,0.0,0.0,0.0,0.0,0.0,0.0,0.0,0.0,0.0,0.0,0.0,0.0,0.0,0.0,0.0,0.0,0.0,-0.00103768939152,-0.00370657350868,0.058062389493,0.0,0.0,0.0,0.0,0.0,0.0,0.0,0.0,0.0,0.0,0.0,0.0
168319251045,73,0,honey/haz_cam,0.0,0.0,0.0,0.00733214523643,0.0556076876819,-0.0161910820752,0.0,0.0,0.0,0.0,0.0,0.0,0.0,0.0,0.0,0.0,0.0,0.0,0.0,0.0,0.0,0.0,0.0,0.0,0.0,0.0,0.0,-0.00110324448906,-0.00376535160467,0.0587782040238,0.0,0.0,0.0,0.0,0.0,0.0,0.0,0.0,0.0,0.0,0.0,0.0
169328905395,74,0,honey/haz_cam,0.0,0.0,0.0,0.0257855448872,0.0726760476828,-0.0465973466635,0.0,0.0,0.0,0.0,0.0,0.0,0.0,0.0,0.0,0.0,0.0,0.0,0.0,0.0,0.0,0.0,0.0,0.0,0.0,0.0,0.0,-0.00109711196274,-0.00386983109638,0.0595489777625,0.0,0.0,0.0,0.0,0.0,0.0,0.0,0.0,0.0,0.0,0.0,0.0
170320413174,75,0,honey/haz_cam,0.0,0.0,0.0,0.0536157749593,0.0855590328574,-0.0805906578898,0.0,0.0,0.0,0.0,0.0,0.0,0.0,0.0,0.0,0.0,0.0,0.0,0.0,0.0,0.0,0.0,0.0,0.0,0.0,0.0,0.0,-0.00108836730942,-0.00399796385318,0.0604313537478,0.0,0.0,0.0,0.0,0.0,0.0,0.0,0.0,0.0,0.0,0.0,0.0
171301019494,76,0,honey/haz_cam,0.0,0.0,0.0,0.0229340083897,0.0722749829292,-0.0203052069992,0.0,0.0,0.0,0.0,0.0,0.0,0.0,0.0,0.0,0.0,0.0,0.0,0.0,0.0,0.0,0.0,0.0,0.0,0.0,0.0,0.0,-0.00124765979126,-0.00401145871729,0.0610981434584,0.0,0.0,0.0,0.0,0.0,0.0,0.0,0.0,0.0,0.0,0.0,0.0
172321574755,77,0,honey/haz_cam,0.0,0.0,0.0,0.0158656518906,0.069597646594,-0.0291939489543,0.0,0.0,0.0,0.0,0.0,0.0,0.0,0.0,0.0,0.0,0.0,0.0,0.0,0.0,0.0,0.0,0.0,0.0,0.0,0.0,0.0,-0.00129635864869,-0.00406343350187,0.0618319548666,0.0,0.0,0.0,0.0,0.0,0.0,0.0,0.0,0.0,0.0,0.0,0.0
173321604162,78,0,honey/haz_cam,0.0,0.0,0.0,0.00283117918298,0.0879105329514,-0.0218477565795,0.0,0.0,0.0,0.0,0.0,0.0,0.0,0.0,0.0,0.0,0.0,0.0,0.0,0.0,0.0,0.0,0.0,0.0,0.0,0.0,0.0,-0.00140241347253,-0.00409528845921,0.0625225529075,0.0,0.0,0.0,0.0,0.0,0.0,0.0,0.0,0.0,0.0,0.0,0.0
174312705657,79,0,honey/haz_cam,0.0,0.0,0.0,0.0253735091537,0.0697567090392,-0.0299536641687,0.0,0.0,0.0,0.0,0.0,0.0,0.0,0.0,0.0,0.0,0.0,0.0,0.0,0.0,0.0,0.0,0.0,0.0,0.0,0.0,0.0,-0.00149781536311,-0.00410546921194,0.0634823739529,0.0,0.0,0.0,0.0,0.0,0.0,0.0,0.0,0.0,0.0,0.0,0.0
175315793500,80,0,honey/haz_cam,0.0,0.0,0.0,0.0304960608482,0.0609507448971,-0.032470151782,0.0,0.0,0.0,0.0,0.0,0.0,0.0,0.0,0.0,0.0,0.0,0.0,0.0,0.0,0.0,0.0,0.0,0.0,0.0,0.0,0.0,-0.00161427818239,-0.00408619362861,0.0643680393696,0.0,0.0,0.0,0.0,0.0,0.0,0.0,0.0,0.0,0.0,0.0,0.0
176305978450,81,0,honey/haz_cam,0.0,0.0,0.0,0.0299515798688,0.0696543753147,-0.0311091095209,0.0,0.0,0.0,0.0,0.0,0.0,0.0,0.0,0.0,0.0,0.0,0.0,0.0,0.0,0.0,0.0,0.0,0.0,0.0,0.0,0.0,-0.00172878243029,-0.00410672277212,0.0651502460241,0.0,0.0,0.0,0.0,0.0,0.0,0.0,0.0,0.0,0.0,0.0,0.0
177345603927,82,0,honey/haz_cam,0.0,0.0,0.0,0.00973397679627,0.059920065105,-0.0384720079601,0.0,0.0,0.0,0.0,0.0,0.0,0.0,0.0,0.0,0.0,0.0,0.0,0.0,0.0,0.0,0.0,0.0,0.0,0.0,0.0,0.0,-0.00181235000491,-0.00411309208721,0.0659290254116,0.0,0.0,0.0,0.0,0.0,0.0,0.0,0.0,0.0,0.0,0.0,0.0
178336129622,83,0,honey/haz_cam,0.0,0.0,0.0,0.0135642327368,0.0745046213269,-0.0431926064193,0.0,0.0,0.0,0.0,0.0,0.0,0.0,0.0,0.0,0.0,0.0,0.0,0.0,0.0,0.0,0.0,0.0,0.0,0.0,0.0,0.0,-0.00191626790911,-0.00414702109993,0.0667828917503,0.0,0.0,0.0,0.0,0.0,0.0,0.0,0.0,0.0,0.0,0.0,0.0
179378375605,84,0,honey/haz_cam,0.0,0.0,0.0,0.0191653165966,0.0796005129814,-0.044077180326,0.0,0.0,0.0,0.0,0.0,0.0,0.0,0.0,0.0,0.0,0.0,0.0,0.0,0.0,0.0,0.0,0.0,0.0,0.0,0.0,0.0,-0.00202240701765,-0.00417087320238,0.0676723644137,0.0,0.0,0.0,0.0,0.0,0.0,0.0,0.0,0.0,0.0,0.0,0.0
180317996206,85,0,honey/haz_cam,0.0,0.0,0.0,-0.00094113976229,0.0828319489956,-0.0339877903461,0.0,0.0,0.0,0.0,0.0,0.0,0.0,0.0,0.0,0.0,0.0,0.0,0.0,0.0,0.0,0.0,0.0,0.0,0.0,0.0,0.0,-0.00214571226388,-0.00414479337633,0.0684725940228,0.0,0.0,0.0,0.0,0.0,0.0,0.0,0.0,0.0,0.0,0.0,0.0
181319215397,86,0,honey/haz_cam,0.0,0.0,0.0,0.0141860954463,0.0851210281253,-0.0388087891042,0.0,0.0,0.0,0.0,0.0,0.0,0.0,0.0,0.0,0.0,0.0,0.0,0.0,0.0,0.0,0.0,0.0,0.0,0.0,0.0,0.0,-0.00222958344966,-0.00417740829289,0.0694421827793,0.0,0.0,0.0,0.0,0.0,0.0,0.0,0.0,0.0,0.0,0.0,0.0
182319588640,87,0,honey/haz_cam,0.0,0.0,0.0,0.00470310775563,0.0800432413816,-0.0250151138753,0.0,0.0,0.0,0.0,0.0,0.0,0.0,0.0,0.0,0.0,0.0,0.0,0.0,0.0,0.0,0.0,0.0,0.0,0.0,0.0,0.0,-0.00233769183978,-0.0041451510042,0.0703152418137,0.0,0.0,0.0,0.0,0.0,0.0,0.0,0.0,0.0,0.0,0.0,0.0
183323695678,88,0,honey/haz_cam,0.0,0.0,0.0,0.00405352190137,0.0895674005151,-0.0599650777876,0.0,0.0,0.0,0.0,0.0,0.0,0.0,0.0,0.0,0.0,0.0,0.0,0.0,0.0,0.0,0.0,0.0,0.0,0.0,0.0,0.0,-0.00233137188479,-0.00418481789529,0.0711994692683,0.0,0.0,0.0,0.0,0.0,0.0,0.0,0.0,0.0,0.0,0.0,0.0
184303858510,89,0,honey/haz_cam,0.0,0.0,0.0,-8.3263264969e-05,0.0693910196424,-0.0487356111407,0.0,0.0,0.0,0.0,0.0,0.0,0.0,0.0,0.0,0.0,0.0,0.0,0.0,0.0,0.0,0.0,0.0,0.0,0.0,0.0,0.0,-0.00237970799208,-0.00415768008679,0.0721707046032,0.0,0.0,0.0,0.0,0.0,0.0,0.0,0.0,0.0,0.0,0.0,0.0
185325482182,90,0,honey/haz_cam,0.0,0.0,0.0,-0.00769091770053,0.0576900169253,-0.0455765984952,0.0,0.0,0.0,0.0,0.0,0.0,0.0,0.0,0.0,0.0,0.0,0.0,0.0,0.0,0.0,0.0,0.0,0.0,0.0,0.0,0.0,-0.00240534450859,-0.00413338840008,0.073111385107,0.0,0.0,0.0,0.0,0.0,0.0,0.0,0.0,0.0,0.0,0.0,0.0
186345128686,91,0,honey/haz_cam,0.0,0.0,0.0,0.00910528376698,0.0642693117261,-0.0346431434155,0.0,0.0,0.0,0.0,0.0,0.0,0.0,0.0,0.0,0.0,0.0,0.0,0.0,0.0,0.0,0.0,0.0,0.0,0.0,0.0,0.0,-0.00245907530189,-0.00413674209267,0.0741221010685,0.0,0.0,0.0,0.0,0.0,0.0,0.0,0.0,0.0,0.0,0.0,0.0
187304354059,92,0,honey/haz_cam,0.0,0.0,0.0,0.0145225916058,0.0772659778595,-0.0225779209286,0.0,0.0,0.0,0.0,0.0,0.0,0.0,0.0,0.0,0.0,0.0,0.0,0.0,0.0,0.0,0.0,0.0,0.0,0.0,0.0,0.0,-0.00251633953303,-0.00412460137159,0.0750629454851,0.0,0.0,0.0,0.0,0.0,0.0,0.0,0.0,0.0,0.0,0.0,0.0
188343593079,93,0,honey/haz_cam,0.0,0.0,0.0,0.0012100096792,0.0828389003873,-0.0208494178951,0.0,0.0,0.0,0.0,0.0,0.0,0.0,0.0,0.0,0.0,0.0,0.0,0.0,0.0,0.0,0.0,0.0,0.0,0.0,0.0,0.0,-0.00251628784463,-0.00410153530538,0.0759492442012,0.0,0.0,0.0,0.0,0.0,0.0,0.0,0.0,0.0,0.0,0.0,0.0
189364826358,94,0,honey/haz_cam,0.0,0.0,0.0,0.011277679354,0.0659571737051,-0.054955817759,0.0,0.0,0.0,0.0,0.0,0.0,0.0,0.0,0.0,0.0,0.0,0.0,0.0,0.0,0.0,0.0,0.0,0.0,0.0,0.0,0.0,-0.00239732023329,-0.00416114274412,0.0769912227988,0.0,0.0,0.0,0.0,0.0,0.0,0.0,0.0,0.0,0.0,0.0,0.0
190314487650,95,0,honey/haz_cam,0.0,0.0,0.0,0.01144993864,0.073684759438,-0.0330044366419,0.0,0.0,0.0,0.0,0.0,0.0,0.0,0.0,0.0,0.0,0.0,0.0,0.0,0.0,0.0,0.0,0.0,0.0,0.0,0.0,0.0,-0.00243828631938,-0.00414802227169,0.0778657197952,0.0,0.0,0.0,0.0,0.0,0.0,0.0,0.0,0.0,0.0,0.0,0.0
191314987104,96,0,honey/haz_cam,0.0,0.0,0.0,0.0211961250752,0.0786467343569,-0.0454493612051,0.0,0.0,0.0,0.0,0.0,0.0,0.0,0.0,0.0,0.0,0.0,0.0,0.0,0.0,0.0,0.0,0.0,0.0,0.0,0.0,0.0,-0.00239199120551,-0.00420633330941,0.0788176953793,0.0,0.0,0.0,0.0,0.0,0.0,0.0,0.0,0.0,0.0,0.0,0.0
192305246461,97,0,honey/haz_cam,0.0,0.0,0.0,0.0207523964345,0.0856823995709,-0.0341835804284,0.0,0.0,0.0,0.0,0.0,0.0,0.0,0.0,0.0,0.0,0.0,0.0,0.0,0.0,0.0,0.0,0.0,0.0,0.0,0.0,0.0,-0.00236584804952,-0.0042218035087,0.0797611176968,0.0,0.0,0.0,0.0,0.0,0.0,0.0,0.0,0.0,0.0,0.0,0.0
193321622042,98,0,honey/haz_cam,0.0,0.0,0.0,0.0130956396461,0.0766336396337,-0.0419173650444,0.0,0.0,0.0,0.0,0.0,0.0,0.0,0.0,0.0,0.0,0.0,0.0,0.0,0.0,0.0,0.0,0.0,0.0,0.0,0.0,0.0,-0.00225868448615,-0.00425342656672,0.080710478127,0.0,0.0,0.0,0.0,0.0,0.0,0.0,0.0,0.0,0.0,0.0,0.0
194321809834,99,0,honey/haz_cam,0.0,0.0,0.0,0.00364713044837,0.0735219120979,-0.0356386601925,0.0,0.0,0.0,0.0,0.0,0.0,0.0,0.0,0.0,0.0,0.0,0.0,0.0,0.0,0.0,0.0,0.0,0.0,0.0,0.0,0.0,-0.00217880681157,-0.0042676194571,0.0816073641181,0.0,0.0,0.0,0.0,0.0,0.0,0.0,0.0,0.0,0.0,0.0,0.0
195341915845,100,0,honey/haz_cam,0.0,0.0,0.0,0.00568847358227,0.0545248687267,-0.045817758888,0.0,0.0,0.0,0.0,0.0,0.0,0.0,0.0,0.0,0.0,0.0,0.0,0.0,0.0,0.0,0.0,0.0,0.0,0.0,0.0,0.0,-0.0020599886775,-0.0043389974162,0.0825464129448,0.0,0.0,0.0,0.0,0.0,0.0,0.0,0.0,0.0,0.0,0.0,0.0
196345895092,101,0,honey/haz_cam,0.0,0.0,0.0,0.000546283030417,0.0583156272769,-0.0551579035819,0.0,0.0,0.0,0.0,0.0,0.0,0.0,0.0,0.0,0.0,0.0,0.0,0.0,0.0,0.0,0.0,0.0,0.0,0.0,0.0,0.0,-0.00198970921338,-0.0044072070159,0.083421677351,0.0,0.0,0.0,0.0,0.0,0.0,0.0,0.0,0.0,0.0,0.0,0.0
197331742075,102,0,honey/haz_cam,0.0,0.0,0.0,0.0179709289223,0.0451945289969,-0.0453978702426,0.0,0.0,0.0,0.0,0.0,0.0,0.0,0.0,0.0,0.0,0.0,0.0,0.0,0.0,0.0,0.0,0.0,0.0,0.0,0.0,0.0,-0.00190648436546,-0.00448278244585,0.0844498723745,0.0,0.0,0.0,0.0,0.0,0.0,0.0,0.0,0.0,0.0,0.0,0.0
198332303947,103,0,honey/haz_cam,0.0,0.0,0.0,0.0299688670784,0.0804111659527,-0.0353740155697,0.0,0.0,0.0,0.0,0.0,0.0,0.0,0.0,0.0,0.0,0.0,0.0,0.0,0.0,0.0,0.0,0.0,0.0,0.0,0.0,0.0,-0.00192617066205,-0.0045470027253,0.0853440612555,0.0,0.0,0.0,0.0,0.0,0.0,0.0,0.0,0.0,0.0,0.0,0.0
199322081772,104,0,honey/haz_cam,0.0,0.0,0.0,0.00689872913063,0.0556211024523,-0.0400912351906,0.0,0.0,0.0,0.0,0.0,0.0,0.0,0.0,0.0,0.0,0.0,0.0,0.0,0.0,0.0,0.0,0.0,0.0,0.0,0.0,0.0,-0.00177039206028,-0.00461000110954,0.0861764103174,0.0,0.0,0.0,0.0,0.0,0.0,0.0,0.0,0.0,0.0,0.0,0.0
200311817849,105,0,honey/haz_cam,0.0,0.0,0.0,0.0378915555775,0.0637234225869,-0.0280392412096,0.0,0.0,0.0,0.0,0.0,0.0,0.0,0.0,0.0,0.0,0.0,0.0,0.0,0.0,0.0,0.0,0.0,0.0,0.0,0.0,0.0,-0.00174639187753,-0.00472080381587,0.0872005671263,0.0,0.0,0.0,0.0,0.0,0.0,0.0,0.0,0.0,0.0,0.0,0.0
201313011918,106,0,honey/haz_cam,0.0,0.0,0.0,0.0123656243086,0.0654247775674,-0.0370210446417,0.0,0.0,0.0,0.0,0.0,0.0,0.0,0.0,0.0,0.0,0.0,0.0,0.0,0.0,0.0,0.0,0.0,0.0,0.0,0.0,0.0,-0.00163713097572,-0.00479330588132,0.0879502147436,0.0,0.0,0.0,0.0,0.0,0.0,0.0,0.0,0.0,0.0,0.0,0.0
202314362497,107,0,honey/haz_cam,0.0,0.0,0.0,0.0223350934684,0.0760269835591,-0.0261672604829,0.0,0.0,0.0,0.0,0.0,0.0,0.0,0.0,0.0,0.0,0.0,0.0,0.0,0.0,0.0,0.0,0.0,0.0,0.0,0.0,0.0,-0.00160997360945,-0.00488490518183,0.088805347681,0.0,0.0,0.0,0.0,0.0,0.0,0.0,0.0,0.0,0.0,0.0,0.0
203297789637,108,0,honey/haz_cam,0.0,0.0,0.0,0.0288575291634,0.0655944645405,-0.0491430088878,0.0,0.0,0.0,0.0,0.0,0.0,0.0,0.0,0.0,0.0,0.0,0.0,0.0,0.0,0.0,0.0,0.0,0.0,0.0,0.0,0.0,-0.00146557297558,-0.00501799490303,0.0897030830383,0.0,0.0,0.0,0.0,0.0,0.0,0.0,0.0,0.0,0.0,0.0,0.0
204309744046,109,0,honey/haz_cam,0.0,0.0,0.0,-0.00905843544751,0.0741407796741,-0.052321638912,0.0,0.0,0.0,0.0,0.0,0.0,0.0,0.0,0.0,0.0,0.0,0.0,0.0,0.0,0.0,0.0,0.0,0.0,0.0,0.0,0.0,-0.00141223985702,-0.00506909750402,0.0903444737196,0.0,0.0,0.0,0.0,0.0,0.0,0.0,0.0,0.0,0.0,0.0,0.0
205320399549,110,0,honey/haz_cam,0.0,0.0,0.0,0.00877375900745,0.0643133372068,-0.0239134728909,0.0,0.0,0.0,0.0,0.0,0.0,0.0,0.0,0.0,0.0,0.0,0.0,0.0,0.0,0.0,0.0,0.0,0.0,0.0,0.0,0.0,-0.00143543910235,-0.00518639618531,0.091285251081,0.0,0.0,0.0,0.0,0.0,0.0,0.0,0.0,0.0,0.0,0.0,0.0
206300862577,111,0,honey/haz_cam,0.0,0.0,0.0,0.0320008397102,0.0726383179426,-0.0171908996999,0.0,0.0,0.0,0.0,0.0,0.0,0.0,0.0,0.0,0.0,0.0,0.0,0.0,0.0,0.0,0.0,0.0,0.0,0.0,0.0,0.0,-0.00144265498966,-0.00530409859493,0.092214345932,0.0,0.0,0.0,0.0,0.0,0.0,0.0,0.0,0.0,0.0,0.0,0.0
207350912440,112,0,honey/haz_cam,0.0,0.0,0.0,0.0127000017092,0.0793205499649,-0.0360945127904,0.0,0.0,0.0,0.0,0.0,0.0,0.0,0.0,0.0,0.0,0.0,0.0,0.0,0.0,0.0,0.0,0.0,0.0,0.0,0.0,0.0,-0.0013707135804,-0.00536616612226,0.0929293483496,0.0,0.0,0.0,0.0,0.0,0.0,0.0,0.0,0.0,0.0,0.0,0.0
208347873709,113,0,honey/haz_cam,0.0,0.0,0.0,0.0217184443027,0.0836023464799,-0.0299985557795,0.0,0.0,0.0,0.0,0.0,0.0,0.0,0.0,0.0,0.0,0.0,0.0,0.0,0.0,0.0,0.0,0.0,0.0,0.0,0.0,0.0,-0.00137879746035,-0.00545993354172,0.0938085392118,0.0,0.0,0.0,0.0,0.0,0.0,0.0,0.0,0.0,0.0,0.0,0.0
209298569410,114,0,honey/haz_cam,0.0,0.0,0.0,0.0244578868151,0.0835851281881,-0.0370728485286,0.0,0.0,0.0,0.0,0.0,0.0,0.0,0.0,0.0,0.0,0.0,0.0,0.0,0.0,0.0,0.0,0.0,0.0,0.0,0.0,0.0,-0.00134481850546,-0.00555919390172,0.0946192592382,0.0,0.0,0.0,0.0,0.0,0.0,0.0,0.0,0.0,0.0,0.0,0.0
210320111318,115,0,honey/haz_cam,0.0,0.0,0.0,0.0160379167646,0.0880310535431,-0.0434773750603,0.0,0.0,0.0,0.0,0.0,0.0,0.0,0.0,0.0,0.0,0.0,0.0,0.0,0.0,0.0,0.0,0.0,0.0,0.0,0.0,0.0,-0.00133797340095,-0.00563291367143,0.0953563675284,0.0,0.0,0.0,0.0,0.0,0.0,0.0,0.0,0.0,0.0,0.0,0.0
211320612209,116,0,honey/haz_cam,0.0,0.0,0.0,0.0188548341393,0.0645010620356,-0.0256749372929,0.0,0.0,0.0,0.0,0.0,0.0,0.0,0.0,0.0,0.0,0.0,0.0,0.0,0.0,0.0,0.0,0.0,0.0,0.0,0.0,0.0,-0.00138066057116,-0.00570749025792,0.0961981415749,0.0,0.0,0.0,0.0,0.0,0.0,0.0,0.0,0.0,0.0,0.0,0.0
212341351597,117,0,honey/haz_cam,0.0,0.0,0.0,0.0273231230676,0.071774289012,-0.0198163483292,0.0,0.0,0.0,0.0,0.0,0.0,0.0,0.0,0.0,0.0,0.0,0.0,0.0,0.0,0.0,0.0,0.0,0.0,0.0,0.0,0.0,-0.00144806038588,-0.0057698301971,0.0970279127359,0.0,0.0,0.0,0.0,0.0,0.0,0.0,0.0,0.0,0.0,0.0,0.0
213331978298,118,0,honey/haz_cam,0.0,0.0,0.0,0.00476983282715,0.0775851234794,-0.0359576493502,0.0,0.0,0.0,0.0,0.0,0.0,0.0,0.0,0.0,0.0,0.0,0.0,0.0,0.0,0.0,0.0,0.0,0.0,0.0,0.0,0.0,-0.00144899450243,-0.00579048180953,0.0977299213409,0.0,0.0,0.0,0.0,0.0,0.0,0.0,0.0,0.0,0.0,0.0,0.0
214304857944,119,0,honey/haz_cam,0.0,0.0,0.0,0.0169409699738,0.0845029056072,-0.0328440479934,0.0,0.0,0.0,0.0,0.0,0.0,0.0,0.0,0.0,0.0,0.0,0.0,0.0,0.0,0.0,0.0,0.0,0.0,0.0,0.0,0.0,-0.00153971184045,-0.00585492514074,0.0986328125,0.0,0.0,0.0,0.0,0.0,0.0,0.0,0.0,0.0,0.0,0.0,0.0
215305443184,120,0,honey/haz_cam,0.0,0.0,0.0,0.0136073194444,0.0710734948516,-0.00790948607028,0.0,0.0,0.0,0.0,0.0,0.0,0.0,0.0,0.0,0.0,0.0,0.0,0.0,0.0,0.0,0.0,0.0,0.0,0.0,0.0,0.0,-0.0016713514924,-0.00585248786956,0.0994648337364,0.0,0.0,0.0,0.0,0.0,0.0,0.0,0.0,0.0,0.0,0.0,0.0
216306310559,121,0,honey/haz_cam,0.0,0.0,0.0,0.0271604731679,0.0966628566384,-0.0263947639614,0.0,0.0,0.0,0.0,0.0,0.0,0.0,0.0,0.0,0.0,0.0,0.0,0.0,0.0,0.0,0.0,0.0,0.0,0.0,0.0,0.0,-0.00172767415643,-0.00588891282678,0.100332915783,0.0,0.0,0.0,0.0,0.0,0.0,0.0,0.0,0.0,0.0,0.0,0.0
217317153905,122,0,honey/haz_cam,0.0,0.0,0.0,0.0153209744021,0.0918301418424,-0.0217127110809,0.0,0.0,0.0,0.0,0.0,0.0,0.0,0.0,0.0,0.0,0.0,0.0,0.0,0.0,0.0,0.0,0.0,0.0,0.0,0.0,0.0,-0.00181461498141,-0.00585253443569,0.101106926799,0.0,0.0,0.0,0.0,0.0,0.0,0.0,0.0,0.0,0.0,0.0,0.0
218323751048,123,0,honey/haz_cam,0.0,0.0,0.0,-0.00177151348908,0.0846514850855,-0.0368681177497,0.0,0.0,0.0,0.0,0.0,0.0,0.0,0.0,0.0,0.0,0.0,0.0,0.0,0.0,0.0,0.0,0.0,0.0,0.0,0.0,0.0,-0.00183234736323,-0.00583148747683,0.101920440793,0.0,0.0,0.0,0.0,0.0,0.0,0.0,0.0,0.0,0.0,0.0,0.0
219305040154,124,0,honey/haz_cam,0.0,0.0,0.0,0.00593314180151,0.0726220533252,-0.000484315271024,0.0,0.0,0.0,0.0,0.0,0.0,0.0,0.0,0.0,0.0,0.0,0.0,0.0,0.0,0.0,0.0,0.0,0.0,0.0,0.0,0.0,-0.00200079195201,-0.00580174662173,0.102894835174,0.0,0.0,0.0,0.0,0.0,0.0,0.0,0.0,0.0,0.0,0.0,0.0
220310104555,125,0,honey/haz_cam,0.0,0.0,0.0,0.00261202268302,0.0819238051772,-0.00856748688966,0.0,0.0,0.0,0.0,0.0,0.0,0.0,0.0,0.0,0.0,0.0,0.0,0.0,0.0,0.0,0.0,0.0,0.0,0.0,0.0,0.0,-0.002057723701,-0.00577586144209,0.103785388172,0.0,0.0,0.0,0.0,0.0,0.0,0.0,0.0,0.0,0.0,0.0,0.0
221309753780,126,0,honey/haz_cam,0.0,0.0,0.0,0.01873601228,0.0793834477663,-0.0630586370826,0.0,0.0,0.0,0.0,0.0,0.0,0.0,0.0,0.0,0.0,0.0,0.0,0.0,0.0,0.0,0.0,0.0,0.0,0.0,0.0,0.0,-0.00196512322873,-0.00585968233645,0.104860395193,0.0,0.0,0.0,0.0,0.0,0.0,0.0,0.0,0.0,0.0,0.0,0.0
222370421588,127,0,honey/haz_cam,0.0,0.0,0.0,0.00919460039586,0.0846923813224,-0.0273400433362,0.0,0.0,0.0,0.0,0.0,0.0,0.0,0.0,0.0,0.0,0.0,0.0,0.0,0.0,0.0,0.0,0.0,0.0,0.0,0.0,0.0,-0.00213078968227,-0.00577319413424,0.10573156178,0.0,0.0,0.0,0.0,0.0,0.0,0.0,0.0,0.0,0.0,0.0,0.0
223301077506,128,0,honey/haz_cam,0.0,0.0,0.0,0.0103656202555,0.080019839108,-0.0180551391095,0.0,0.0,0.0,0.0,0.0,0.0,0.0,0.0,0.0,0.0,0.0,0.0,0.0,0.0,0.0,0.0,0.0,0.0,0.0,0.0,0.0,-0.00219706306234,-0.00573618896306,0.106682673097,0.0,0.0,0.0,0.0,0.0,0.0,0.0,0.0,0.0,0.0,0.0,0.0
224322958651,129,0,honey/haz_cam,0.0,0.0,0.0,0.00871613528579,0.07805159688,-0.0215928331017,0.0,0.0,0.0,0.0,0.0,0.0,0.0,0.0,0.0,0.0,0.0,0.0,0.0,0.0,0.0,0.0,0.0,0.0,0.0,0.0,0.0,-0.00221128296107,-0.00570570863783,0.107654795051,0.0,0.0,0.0,0.0,0.0,0.0,0.0,0.0,0.0,0.0,0.0,0.0
225331761648,130,0,honey/haz_cam,0.0,0.0,0.0,0.0102006327361,0.0853524580598,-0.0227919686586,0.0,0.0,0.0,0.0,0.0,0.0,0.0,0.0,0.0,0.0,0.0,0.0,0.0,0.0,0.0,0.0,0.0,0.0,0.0,0.0,0.0,-0.002229323145,-0.0056772492826,0.108645632863,0.0,0.0,0.0,0.0,0.0,0.0,0.0,0.0,0.0,0.0,0.0,0.0
226342751925,131,0,honey/haz_cam,0.0,0.0,0.0,0.014357981272,0.0794188827276,-0.0305975675583,0.0,0.0,0.0,0.0,0.0,0.0,0.0,0.0,0.0,0.0,0.0,0.0,0.0,0.0,0.0,0.0,0.0,0.0,0.0,0.0,0.0,-0.00219932943583,-0.00566493719816,0.109670966864,0.0,0.0,0.0,0.0,0.0,0.0,0.0,0.0,0.0,0.0,0.0,0.0
227353387556,132,0,honey/haz_cam,0.0,0.0,0.0,0.0224484261125,0.0921679139137,-0.0342934429646,0.0,0.0,0.0,0.0,0.0,0.0,0.0,0.0,0.0,0.0,0.0,0.0,0.0,0.0,0.0,0.0,0.0,0.0,0.0,0.0,0.0,-0.0021975627169,-0.00564912520349,0.110684208572,0.0,0.0,0.0,0.0,0.0,0.0,0.0,0.0,0.0,0.0,0.0,0.0
228333614970,133,0,honey/haz_cam,0.0,0.0,0.0,-0.00446075247601,0.087881013751,-0.0403928160667,0.0,0.0,0.0,0.0,0.0,0.0,0.0,0.0,0.0,0.0,0.0,0.0,0.0,0.0,0.0,0.0,0.0,0.0,0.0,0.0,0.0,-0.00213018059731,-0.0055476538837,0.111524268985,0.0,0.0,0.0,0.0,0.0,0.0,0.0,0.0,0.0,0.0,0.0,0.0
229353789479,134,0,honey/haz_cam,0.0,0.0,0.0,0.012931724079,0.0664196461439,-0.030056597665,0.0,0.0,0.0,0.0,0.0,0.0,0.0,0.0,0.0,0.0,0.0,0.0,0.0,0.0,0.0,0.0,0.0,0.0,0.0,0.0,0.0,-0.00207499787211,-0.00556142348796,0.112623810768,0.0,0.0,0.0,0.0,0.0,0.0,0.0,0.0,0.0,0.0,0.0,0.0
230343740708,135,0,honey/haz_cam,0.0,0.0,0.0,-0.00129700801335,0.0925314873457,-0.0409137569368,0.0,0.0,0.0,0.0,0.0,0.0,0.0,0.0,0.0,0.0,0.0,0.0,0.0,0.0,0.0,0.0,0.0,0.0,0.0,0.0,0.0,-0.00201913528144,-0.00550427660346,0.113442793489,0.0,0.0,0.0,0.0,0.0,0.0,0.0,0.0,0.0,0.0,0.0,0.0
